~VERSION INFORMATION SECTION
VERS.           2.0  :CWLS Log ASCII Standard - 2.0
WRAP.           NO   :One line per depth
#               Created in SeisLab
~WELL INFORMATION SECTION
#MNEM.UNIT  VALUE/NAME               :DESCRIPTION    
STRT.m  47.59                        :Start Depth    
STOP.m  123.23                       :Stop Depth     
STEP.m  0.02                         :Step           
NULL.    -999.25                     :Null Value     
WELL.    GDP1                        :Well Name      
CTRY.    Switzerland                 :Country        
CNTY.                                :County         
STAT.    Central Swiss Alps          :State          
API .                                :API number     
UWI .                                :Unique well ID 
LOC .    Grimsel Pass, Switzerland   :Well Location  
FLD .    n/a                         :Field          
COMP.    n/a                         :Company        
SRVC.    University of Lausanne      :Service Company
DATE.    2017                        :Date           
~PARAMETER INFORMATION SECTION
#MNEM .UNITS  VALUE   :DESCRIPTION OF PARAMETER
Casing.n/a    1       :slotted PVC casing      
~CURVE INFORMATION SECTION
#MNEM.UNITS  API CODES   :DESCRIPTION OF MNEMONIC
depth.m                  :measured depth         
NG   .cps                :Natural gamma          
Sp   .mV                 :Self potential         
Temp .DegC               :Temperature            
SPR  .Ohm                :Single point resistance
R8   .Ohm.m              :Normal resistivity     
R16  .Ohm.m              :Single point resistance
R32  .Ohm.m              :Normal resistivity     
R64  .Ohm.m              :Normal resistivity     
~A depth       NG          Sp          Temp        SPR         R8          R16         R32         R64         
# ...
      72.750   254.21100   1336.2500     6.59180      4033.4       678.4      918.53     1212.11     1891.12
      72.770   244.66400   1329.7500     6.55859      4084.8       681.9      920.91     1221.65     1891.16
      72.790   260.25000   1321.6300     6.55176      4116.3       682.0      923.34     1230.09     1907.13
      72.810   232.20300   1321.5000     6.58105      4114.3       680.5      929.02     1226.73     1885.82
      72.830   254.46900   1321.7500     6.57617      4081.3       679.0      934.62     1221.55     1888.41
      72.850   270.48400   1325.6300     6.57617      4040.7       676.2      937.07     1230.14     1881.33
      72.870   221.25800   1330.1300     6.59180      4005.7       673.4      940.62     1237.54     1859.95
      72.890   254.76600   1334.8800     6.57227      3971.4       670.1      937.29     1235.43     1844.84
      72.910   254.10900   1339.2500     6.58496      3928.4       667.5      929.83     1240.15     1814.42
      72.930   240.94500   1335.2500     6.58984      3879.6       665.5      922.87     1242.42     1822.29
      72.950   227.81300   1330.2500     6.56250      3834.8       663.2      917.24     1252.95     1847.25
      72.970   251.04700   1324.1300     6.58496      3802.5       662.7      916.82     1254.64     1968.85
      72.990   248.96900   1318.1300     6.58789      3790.4       659.6      917.94     1277.82     2272.18
      73.010   262.23400   1319.6300     6.57617      3798.7       654.1      914.72     1306.79     3056.87
      73.030   247.96900   1322.1300     6.57910      3813.1       646.9      911.82     1343.20     5752.25
      73.050   250.14800   1324.6300     6.58301      3809.2       638.6      916.66     1367.41   103145.00
      73.070   257.56300   1326.7500     6.59961      3787.8       632.7      922.29     1367.09    -8160.10
      73.090   251.34400   1325.8800     6.58496      3771.3       628.5      922.89     1380.27    -5217.93
      73.110   250.24200   1324.0000     6.58789      3765.0       623.5      927.79     1378.68    -5296.37
      73.130   244.82000   1330.6300     6.59668      3754.7       619.4      930.98     1382.45    -9088.78
      73.150   240.32800   1338.3800     6.57617      3730.6       620.2      938.48     1378.57    58697.10
      73.170   215.96100   1327.7500     6.60156      3701.8       622.5      940.22     1378.09     5096.03
      73.190   226.21100   1313.2500     6.58105      3677.7       623.9      953.57     1371.32     2676.27
      73.210   232.43800   1309.3800     6.58496      3663.2       629.9      968.67     1372.05     2088.69
      73.230   242.63300   1307.2500     6.57422      3659.2       637.2      986.65     1349.88     1892.24
      73.250   250.96900   1302.5000     6.58789      3667.0       648.3      998.26     1336.31     1809.35
      73.270   260.40600   1297.1300     6.57227      3679.8       655.1      994.95     1318.04     1772.67
      73.290   247.64800   1292.3800     6.61133      3682.6       667.5     1001.02     1297.10     1757.99
      73.310   274.45300   1287.8800     6.57910      3677.9       679.9     1000.98     1282.88     1749.60
      73.330   239.73400   1278.3800     6.59277      3669.8       692.4     1005.29     1263.09     1750.40
      73.350   265.14100   1268.1300     6.59766      3659.9       699.3     1005.18     1273.08     1747.36
      73.370   274.20300   1266.8800     6.57422      3648.7       696.6     1004.65     1306.21     1736.50
      73.390   289.90600   1267.0000     6.57422      3650.0       697.4      998.13     1418.28     1734.42
      73.410   243.35900   1267.7500     6.60352      3658.9       692.4      995.51     1686.17     1730.24
      73.430   257.26600   1267.8800     6.59277      3674.7       688.1      979.41     2365.82     1723.91
      73.450   246.89800   1265.1300     6.59180      3693.0       681.1      966.49     4605.60     1724.56
      73.470   248.60900   1261.5000     6.58789      3707.1       674.9      949.14    83270.10     1729.59
      73.490   297.53100   1271.6300     6.59668      3725.8       667.1      930.29    -6721.45     1730.25
      73.510   251.44500   1283.8800     6.60449      3743.7       663.5      914.84    -4327.90     1719.41
      73.530   267.59400   1283.0000     6.59277      3757.6       655.1      896.90    -4356.48     1717.03
      73.550   271.81300   1279.3800     6.58789      3756.9       650.4      901.28    -7243.18     1721.43
      73.570   285.76600   1278.7500     6.59766      3744.1       644.4      927.48    45772.00     1724.40
      73.590   246.76600   1278.1300     6.60352      3726.9       637.5     1015.27     3840.62     1724.07
      73.610   289.37500   1278.8800     6.61719      3725.9       632.1     1230.88     1910.70     1721.88
      73.630   289.37500   1280.0000     6.58496      3733.3       626.0     1775.01     1442.35     1730.92
      73.650   240.20300   1271.0000     6.59473      3732.3       636.7     3567.10     1287.81     1734.72
      73.670   246.61700   1259.7500     6.59961      3721.5       668.7    66121.60     1224.25     1724.88
      73.690   270.59400   1226.1300     6.58301      3725.9       753.0    -5467.06     1196.33     1715.52
      73.710   234.69500   1188.3800     6.59277      3766.6       955.6    -3621.55     1184.40     1715.49
      73.730   241.96900   1119.1300     6.58594      3917.6      1488.9    -3649.26     1176.37     1716.78
      73.750   256.59400   1044.3800     6.58984      4457.9      3367.1    -5974.49     1170.37     1707.47
      73.770   255.41400    959.7500     6.57129      6630.5     74362.7    37553.10     1163.61     1705.68
      73.790   250.89100    874.1250     6.61035      5739.6     -7974.2     3091.80     1155.79     1709.49
      73.810   235.78100    790.5000     6.60156      -861.2     -7558.3     1480.84     1150.08     1696.21
      73.830   246.81300    707.8750     6.60352     -3696.0    -11515.4     1086.82     1143.45     1679.69
      73.850   222.29700    674.0000     6.59668    -10034.7    -29195.5      964.48     1138.75     1677.22
      73.870   197.99200    648.2500     6.60156   -226949.0    279925.0      919.28     1139.00     1680.44
      73.890   261.59400    646.3750     6.59277     21391.0     30356.3      900.91     1142.81     1675.98
      73.910   238.40600    648.0000     6.58496     14999.8     13883.3      896.17     1145.24     1675.02
      73.930   209.82800    658.3750     6.58594     14871.9      8036.5      895.94     1140.89     1675.95
      73.950   201.08600    669.5000     6.60840     22525.2      5564.6      897.72     1140.59     1667.61
      73.970   205.44500    727.8750     6.59473   -124566.0      4047.2      900.16     1143.82     1653.71
      73.990   234.04700    794.5000     6.58594     -8060.0      2893.6      905.11     1147.41     1644.15
      74.010   232.23400    887.3750     6.58789     -2533.6      2066.5      908.91     1150.47     1652.16
      74.030   212.63300    985.6250     6.59180      7538.1      1511.4      906.65     1152.88     1661.30
      74.050   224.05500   1065.3800     6.58984      8692.6      1157.3      902.12     1162.22     1654.92
      74.070   208.28900   1141.2500     6.58984      5419.4       933.7      898.14     1168.25     1644.73
      74.090   180.18800   1177.7500     6.61523      4591.9       796.9      894.28     1167.51     1651.96
      74.110   221.53100   1207.1300     6.57422      4341.3       712.2      889.43     1166.62     1657.24
      74.130   208.37500   1218.1300     6.58301      4239.4       658.2      882.23     1169.63     1649.02
      74.150   195.75800   1225.8800     6.60449      4191.5       625.6      877.12     1172.08     1641.90
      74.170   207.35900   1227.5000     6.59473      4153.5       611.0      874.12     1166.06     1647.17
      74.190   184.24200   1228.7500     6.58496      4107.9       607.1      870.92     1163.87     1657.92
      74.210   198.39100   1228.6300     6.60352      4048.2       607.5      868.19     1162.68     1658.50
