~VERSION INFORMATION SECTION
VERS.           2.0  :CWLS Log ASCII Standard - 2.0
WRAP.           NO   :One line per depth
#               Created in SeisLab
~WELL INFORMATION SECTION
#MNEM.UNIT  VALUE/NAME               :DESCRIPTION    
STRT.m  10                           :Start Depth    
STOP.m  125                          :Stop Depth     
STEP.m  0.01                         :Step           
NULL.    -999.25                     :Null Value     
WELL.    GDP1                        :Well Name      
CTRY.    Switzerland                 :Country        
CNTY.                                :County         
STAT.    Central Swiss Alps          :State          
API .                                :API number     
UWI .                                :Unique well ID 
LOC .    Grimsel Pass, Switzerland   :Well Location  
FLD .    n/a                         :Field          
COMP.    n/a                         :Company        
SRVC.    University of Lausanne      :Service Company
DATE.    2016                        :Date           
~PARAMETER INFORMATION SECTION
#MNEM .UNITS  VALUE   :DESCRIPTION OF PARAMETER
Casing.n/a    1       :slotted PVC casing      
~CURVE INFORMATION SECTION
#MNEM.UNITS  API CODES   :DESCRIPTION OF MNEMONIC
depth.m                  :measured depth         
NG   .cps                :Natural gamma          
Sp   .mV                 :Self potential         
Temp .DegC               :Temperature            
SPR  .Ohm                :Single point resistance
R8   .Ohm.m              :Normal resistivity     
R16  .Ohm.m              :Single point resistance
R32  .Ohm.m              :Normal resistivity     
R64  .Ohm.m              :Normal resistivity     
~A depth       NG          Sp          Temp        SPR         R8          R16         R32         R64         
# ...
      25.540  -999.25000   1048.0000  -999.25000    -999.250    -999.250    3236.041    3118.896    2623.875
      25.550  -999.25000   1048.0000  -999.25000    -999.250    -999.250    3236.041    3118.896    2623.875
      25.560  -999.25000   1048.0000  -999.25000    -999.250    -999.250    3236.041    3118.896    2623.875
      25.570  -999.25000   1048.0000  -999.25000    -999.250    -999.250    3236.041    3118.896    2623.875
      25.580  -999.25000   1048.0000  -999.25000    -999.250    -999.250    3236.041    3118.896    2623.875
      25.590  -999.25000   1048.0000  -999.25000    -999.250    -999.250    3236.041    3118.896    2623.875
      25.600  -999.25000   1048.0000  -999.25000    -999.250    -999.250    3236.041    3118.896    2623.875
      25.610  -999.25000   1048.0000  -999.25000    -999.250    -999.250    3236.041    3118.896    2623.875
      25.620  -999.25000   1048.0000  -999.25000    -999.250    -999.250    3236.041    3118.896    2623.875
      25.630  -999.25000   1048.0000  -999.25000    -999.250    -999.250    3236.041    3118.896    2623.875
      25.640  -999.25000   1048.0000  -999.25000    -999.250    -999.250    3236.041    3118.896    2623.875
      25.650  -999.25000   1048.0000  -999.25000    -999.250    -999.250    3236.041    3118.896    2623.875
      25.660  -999.25000   1048.0000  -999.25000    -999.250    -999.250    3236.041    3118.896    2623.875
      25.670  -999.25000   1048.0000  -999.25000    -999.250    -999.250    3236.041    3118.896    2623.875
      25.680  -999.25000   1048.0000  -999.25000    -999.250    -999.250    3236.041    3118.896    2623.875
      25.690  -999.25000   1048.0000  -999.25000    -999.250    -999.250    3236.041    3118.896    2623.875
      25.700  -999.25000   1048.0000  -999.25000    -999.250    -999.250    3236.041    3118.896    2623.875
      25.710  -999.25000   1048.0000  -999.25000    -999.250    -999.250    3236.041    3118.896    2623.875
      25.720  -999.25000   1048.0000  -999.25000    -999.250    -999.250    3236.041    3118.896    2623.875
      25.730  -999.25000   1048.0000  -999.25000    -999.250    -999.250    3236.041    3118.896    2623.875
      25.740  -999.25000   1048.0000  -999.25000    -999.250    -999.250    3236.041    3118.896    2623.875
      25.750  -999.25000   1048.0000  -999.25000    -999.250    -999.250    3236.041    3118.896    2623.875
      25.760  -999.25000   1048.0000  -999.25000    -999.250    -999.250    3236.041    3118.896    2623.875
      25.770  -999.25000   1048.0000  -999.25000    -999.250    -999.250    3236.041    3118.896    2623.875
      25.780  -999.25000   1048.0000  -999.25000    -999.250    -999.250    3236.041    3118.896    2623.875
      25.790  -999.25000   1048.0000  -999.25000    -999.250    -999.250    3236.041    3118.896    2623.875
      25.800  -999.25000   1048.0000  -999.25000    -999.250    -999.250    3236.041    3118.896    2623.875
      25.810  -999.25000   1048.0000  -999.25000    -999.250    -999.250    3236.041    3118.896    2623.875
      25.820  -999.25000   1048.0000  -999.25000    -999.250    -999.250    3236.041    3118.896    2623.875
      25.830  -999.25000   1048.0000  -999.25000    -999.250    -999.250    3236.041    3118.896    2623.875
      25.840  -999.25000   1048.0000  -999.25000    -999.250    -999.250    3236.041    3118.896    2623.875
      25.850  -999.25000   1048.0000  -999.25000    -999.250    -999.250    3236.041    3118.896    2623.875
      25.860  -999.25000   1048.0000  -999.25000    -999.250    -999.250    3236.041    3118.896    2623.875
      25.870  -999.25000   1048.0000  -999.25000    -999.250    -999.250    3236.041    3118.896    2623.875
      25.880  -999.25000   1048.0000  -999.25000    -999.250    -999.250    3236.041    3118.896    2623.875
      25.890  -999.25000   1048.0000  -999.25000    -999.250    -999.250    3236.041    3118.896    2623.875
      25.900  -999.25000   1048.0000  -999.25000    -999.250    -999.250    3236.041    3118.896    2623.875
      25.910  -999.25000   1048.0000  -999.25000    -999.250    -999.250    3236.041    3118.896    2623.875
      25.920  -999.25000   1048.0000  -999.25000    -999.250    -999.250    3236.041    3118.896    2623.875
      25.930  -999.25000   1048.0000  -999.25000    -999.250    -999.250    3236.041    3118.896    2623.875
      25.940  -999.25000   1048.0000  -999.25000    -999.250    -999.250    3236.041    3118.896    2623.875
      25.950  -999.25000   1048.0000  -999.25000    -999.250    -999.250    3236.041    3118.896    2623.875
      25.960  -999.25000   1048.0000  -999.25000    -999.250    -999.250    3236.041    3118.896    2623.875
      25.970  -999.25000   1048.0000  -999.25000    -999.250    -999.250    3236.041    3118.896    2623.875
      25.980  -999.25000   1048.0000  -999.25000    -999.250    -999.250    3236.041    3118.896    2623.875
      25.990  -999.25000   1048.0000  -999.25000    -999.250    -999.250    3236.041    3118.896    2623.875
      26.000  -999.25000   1048.0000  -999.25000    -999.250    -999.250    3236.041    3118.896    2623.875
      26.010  -999.25000   1048.0000  -999.25000    -999.250    -999.250    3236.041    3118.896    2623.875
      26.020  -999.25000   1048.0000  -999.25000    -999.250    -999.250    3236.041    3118.896    2623.875
      26.030  -999.25000   1048.0000  -999.25000    -999.250    -999.250    3236.041    3118.896    2623.875
      26.040  -999.25000   1048.0000  -999.25000    -999.250    -999.250    3236.041    3118.896    2623.875
      26.050  -999.25000   1048.0000  -999.25000    -999.250    -999.250    3236.041    3118.896    2623.875
      26.060  -999.25000   1048.0000  -999.25000    -999.250    -999.250    3236.041    3118.896    2623.875
      26.070  -999.25000   1048.0000  -999.25000    -999.250    -999.250    3236.041    3118.896    2623.875
      26.080  -999.25000   1048.0000  -999.25000    -999.250    -999.250    3236.041    3118.896    2623.875
      26.090  -999.25000   1048.0000  -999.25000    -999.250    -999.250    3236.041    3118.896    2623.875
      26.100  -999.25000   1048.0000  -999.25000    -999.250    -999.250    3236.041    3118.896    2623.875
      26.110  -999.25000   1048.0000  -999.25000    -999.250    -999.250    3236.041    3118.896    2623.875
      26.120  -999.25000   1048.0000  -999.25000    -999.250    -999.250    3236.041    3118.896    2623.875
      26.130  -999.25000   1048.0000  -999.25000    -999.250    -999.250    3236.041    3118.896    2623.875
      26.140  -999.25000   1048.0000  -999.25000    -999.250    -999.250    3236.041    3118.896    2623.875
      26.150  -999.25000   1048.0000  -999.25000    -999.250    -999.250    3236.041    3118.896    2623.875
      26.160  -999.25000   1048.0000  -999.25000    -999.250    -999.250    3236.041    3118.896    2623.875
      26.170  -999.25000   1048.0000  -999.25000    -999.250    -999.250    3236.041    3118.896    2623.875
      26.180  -999.25000   1048.0000  -999.25000    -999.250    -999.250    3236.041    3118.896    2623.875
      26.190  -999.25000   1048.0000  -999.25000    -999.250    -999.250    3236.041    3118.896    2623.875
      26.200  -999.25000   1048.0000  -999.25000    -999.250    -999.250    3236.041    3118.896    2623.875
      26.210  -999.25000   1048.0000  -999.25000    -999.250    -999.250    3236.041    3118.896    2623.875
      26.220  -999.25000   1048.0000  -999.25000    -999.250    -999.250    3236.041    3118.896    2623.875
      26.230  -999.25000   1048.0000  -999.25000    -999.250    -999.250    3236.041    3118.896    2623.875
      26.240  -999.25000   1048.0000  -999.25000    -999.250    -999.250    3236.041    3118.896    2623.875
      26.250  -999.25000   1048.0000  -999.25000    -999.250    -999.250    3236.041    3118.896    2623.875
      26.260  -999.25000   1048.0000  -999.25000    -999.250    -999.250    3236.041    3118.896    2623.875
      26.270  -999.25000   1048.0000  -999.25000    -999.250    -999.250    3236.041    3118.896    2623.875
