~VERSION INFORMATION SECTION
VERS.           2.0  :CWLS Log ASCII Standard - 2.0
WRAP.           NO   :One line per depth
#               Created in SeisLab
~WELL INFORMATION SECTION
#MNEM.UNIT  VALUE/NAME               :DESCRIPTION    
STRT.m  10                           :Start Depth    
STOP.m  125                          :Stop Depth     
STEP.m  0.01                         :Step           
NULL.    -999.25                     :Null Value     
WELL.    GDP1                        :Well Name      
CTRY.    Switzerland                 :Country        
CNTY.                                :County         
STAT.    Central Swiss Alps          :State          
API .                                :API number     
UWI .                                :Unique well ID 
LOC .    Grimsel Pass, Switzerland   :Well Location  
FLD .    n/a                         :Field          
COMP.    n/a                         :Company        
SRVC.    University of Lausanne      :Service Company
DATE.    2016                        :Date           
~PARAMETER INFORMATION SECTION
#MNEM .UNITS  VALUE   :DESCRIPTION OF PARAMETER
Casing.n/a    1       :slotted PVC casing      
~CURVE INFORMATION SECTION
#MNEM.UNITS  API CODES   :DESCRIPTION OF MNEMONIC
depth.m                  :measured depth         
NG   .cps                :Natural gamma          
Sp   .mV                 :Self potential         
Temp .DegC               :Temperature            
SPR  .Ohm                :Single point resistance
R8   .Ohm.m              :Normal resistivity     
R16  .Ohm.m              :Single point resistance
R32  .Ohm.m              :Normal resistivity     
R64  .Ohm.m              :Normal resistivity     
~A depth       NG          Sp          Temp        SPR         R8          R16         R32         R64         
# ...
      78.080   214.38434   1025.2269     6.98145    3454.711     356.858     497.005     675.439    1079.664
      78.090   213.65974   1027.2203     6.98145    3451.230     352.077     496.710     676.934    1082.197
      78.100   212.74220   1029.2943     6.98145    3447.748     335.941     496.501     678.524    1084.698
      78.110   211.63507   1031.4357     6.98145    3444.266     319.805     496.385     680.197    1087.142
      78.120   210.35119   1033.6310     6.98535    3440.785     326.739     496.362     681.940    1089.500
      78.130   208.91200   1035.8651     6.98926    3437.303     333.673     496.435     683.741    1091.746
      78.140   207.34603   1038.1199     6.99316    3433.822     340.608     496.607     685.586    1093.854
      78.150   205.68721   1040.3730     6.98974    3430.340     348.038     496.876     687.463    1095.799
      78.160   203.97315   1042.5974     6.98632    3439.810     355.468     497.245     689.358    1097.557
      78.170   202.24359   1044.7615     6.98291    3449.280     362.899     497.713     691.259    1099.103
      78.180   200.53907   1046.8306     6.97949    3458.750     370.329     498.278     693.153    1100.416
      78.190   198.89958   1048.7687     6.97689    3462.710     367.747     498.940     695.027    1101.477
      78.200   197.36327   1050.5407     6.97428    3466.670     365.165     499.696     696.869    1102.268
      78.210   195.96497   1052.1155     6.97168    3470.630     362.583     500.543     698.667    1102.773
      78.220   194.73478   1053.4683     6.96875    3465.030     361.199     501.480     700.410    1102.979
      78.230   193.69664   1054.5829     6.96582    3459.430     359.815     502.501     702.086    1102.874
      78.240   192.86724   1055.4537     6.96289    3453.830     358.431     503.603     703.686    1102.452
      78.250   192.25522   1056.0858     6.96810    3452.513     363.384     504.782     705.198    1101.706
      78.260   191.86101   1056.4961     6.97331    3451.197     368.337     506.032     706.615    1100.634
      78.270   191.67719   1056.7116     6.97852    3449.880     373.291     507.349     707.927    1099.236
      78.280   191.68932   1056.7688     6.98926    3451.203     376.844     508.726     709.127    1097.515
      78.290   191.87725   1056.7120     7.00000    3452.527     380.397     510.157     710.207    1095.477
      78.300   192.21664   1056.5906     7.01074    3453.850     383.950     511.637     711.161    1093.130
      78.310   192.68069   1056.4574     6.99610    3459.370     375.530     513.159     711.984    1090.485
      78.320   193.24212   1056.3653     6.98145    3464.890     367.110     514.716     712.672    1087.557
      78.330   193.87490   1056.3659     6.97819    3480.337     364.621     516.302     713.219    1084.360
      78.340   194.55571   1056.5062     6.97494    3495.783     362.131     517.909     713.625    1080.914
      78.350   195.26467   1056.8278     6.97168    3511.230     359.642     519.530     713.885    1077.239
      78.360   195.98564   1057.3647     6.97721    3529.607     363.552     521.158     714.001    1073.357
      78.370   196.70657   1058.1428     6.98275    3547.983     367.462     522.785     713.971    1069.293
      78.380   197.41989   1059.1790     6.98828    3566.360     371.372     524.406     713.797    1065.070
      78.390   198.12290   1060.4807     6.99121    3578.633     368.755     526.011     713.481    1060.717
      78.400   198.81766   1062.0459     6.99414    3590.907     366.139     527.595     713.025    1056.260
      78.410   199.51019   1063.8630     6.99707    3603.180     363.522     529.151     712.434    1051.729
      78.420   200.20911   1065.9114     6.99145    3603.348     363.481     530.670     711.713    1047.151
      78.430   200.92404   1068.1617     6.98584    3603.515     363.440     532.147     710.869    1042.555
      78.440   201.66430   1070.5766     6.98023    3603.682     363.399     533.574     709.907    1037.972
      78.450   202.43773   1073.1121     6.97461    3603.850     363.358     534.946     708.838    1033.428
      78.460   203.24979   1075.7188     6.97754    3594.717     372.828     536.255     707.669    1028.953
      78.470   204.10270   1078.3439     6.98047    3585.583     382.297     537.497     706.411    1024.574
      78.480   204.99470   1080.9333     6.98340    3576.450     391.767     538.665     705.075    1020.317
      78.490   205.91966   1083.4348     6.98828    3573.380     401.728     539.753     703.673    1016.208
      78.500   206.86729   1085.7999     6.99316    3570.310     411.689     540.757     702.220    1012.271
      78.510   207.82400   1087.9868     6.99072    3561.267     407.993     541.671     700.727    1008.528
      78.520   208.77428   1089.9622     6.98828    3552.225     404.296     542.491     699.211    1005.001
      78.530   209.70217   1091.7021     6.98584    3543.183     400.600     543.213     697.687    1001.709
      78.540   210.59253   1093.1921     6.98340    3534.140     396.903     543.832     696.172     998.668
      78.550   211.43215   1094.4269     6.97428    3523.050     385.697     544.346     694.681     995.895
      78.560   212.21024   1095.4091     6.96517    3511.960     374.491     544.752     693.233     993.402
      78.570   212.91871   1096.1478     6.95605    3500.870     363.285     545.046     691.845     991.202
      78.580   213.55171   1096.6571     6.96354    3506.713     360.833     545.226     690.536     989.302
      78.590   214.10497   1096.9547     6.97103    3512.557     358.381     545.292     689.324     987.710
      78.600   214.57477   1097.0607     6.97852    3518.400     355.928     545.242     688.228     986.431
      78.610   214.95696   1096.9968     6.98470    3526.447     365.288     545.075     687.267     985.468
      78.620   215.24651   1096.7862     6.99089    3534.493     374.649     544.792     686.459     984.820
      78.630   215.43749   1096.4527     6.99707    3542.540     384.009     544.392     685.822     984.487
      78.640   215.52350   1096.0216     6.99316    3548.537     389.822     543.878     685.375     984.465
      78.650   215.49820   1095.5186     6.98926    3554.533     395.636     543.251     685.135     984.748
      78.660   215.35571   1094.9701     6.98535    3560.530     401.449     542.513     685.118     985.330
      78.670   215.09100   1094.4028     6.98340    3555.425     394.102     541.669     685.341     986.202
      78.680   214.70030   1093.8432     6.98145    3550.320     386.754     540.721     685.818     987.352
      78.690   214.18161   1093.3167     6.97982    3556.260     381.960     539.674     686.564     988.768
      78.700   213.53493   1092.8473     6.97819    3562.200     377.166     538.534     687.591     990.438
      78.710   212.76207   1092.4566     6.97656    3568.140     372.371     537.307     688.910     992.345
      78.720   211.86624   1092.1635     6.98177    3586.467     371.986     535.999     690.531     994.474
      78.730   210.85195   1091.9834     6.98698    3604.793     371.602     534.619     692.463     996.808
      78.740   209.72542   1091.9278     6.99219    3623.120     371.217     533.174     694.712     999.328
      78.750   208.49569   1092.0042     6.99610    3625.887     376.357     531.673     697.281    1002.016
      78.760   207.17587   1092.2162     7.00000    3628.653     381.496     530.126     700.175    1004.852
      78.770   205.78433   1092.5634     7.00391    3631.420     386.636     528.544     703.392    1007.815
      78.780   204.34552   1093.0419     6.99577    3620.457     389.307     526.937     706.932    1010.885
      78.790   202.89011   1093.6449     6.98763    3609.493     391.979     525.318     710.791    1014.040
      78.800   201.45446   1094.3627     6.97949    3598.530     394.650     523.697     714.962    1017.261
      78.810   200.07943   1095.1838     6.98096    3602.393     392.968     522.089     719.437    1020.525
