~VERSION INFORMATION SECTION
VERS.           2.0  :CWLS Log ASCII Standard - 2.0
WRAP.           NO   :One line per depth
#               Created in SeisLab
~WELL INFORMATION SECTION
#MNEM.UNIT  VALUE/NAME               :DESCRIPTION    
STRT.m  24.75                        :Start Depth    
STOP.m  125.11                       :Stop Depth     
STEP.m  0.02                         :Step           
NULL.    -999.25                     :Null Value     
WELL.    GDP1                        :Well Name      
CTRY.    Switzerland                 :Country        
CNTY.                                :County         
STAT.    Central Swiss Alps          :State          
API .                                :API number     
UWI .                                :Unique well ID 
LOC .    Grimsel Pass, Switzerland   :Well Location  
FLD .    n/a                         :Field          
COMP.    n/a                         :Company        
SRVC.    University of Lausanne      :Service Company
DATE.    2015                        :Date           
~PARAMETER INFORMATION SECTION
#MNEM .UNITS    VALUE   :DESCRIPTION OF PARAMETER
Casing.n/a      0       :open hole               
Mud   .Polymer  1       :Mud type                
~CURVE INFORMATION SECTION
#MNEM.UNITS  API CODES   :DESCRIPTION OF MNEMONIC
depth.m                  :measured depth         
NG   .cps                :Natural gamma          
Sp   .mV                 :Self potential         
Temp .DegC               :Temperature            
SPR  .Ohm                :Single point resistance
R8   .Ohm.m              :Normal resistivity     
R16  .Ohm.m              :Single point resistance
R32  .Ohm.m              :Normal resistivity     
R64  .Ohm.m              :Normal resistivity     
~A depth       NG          Sp          Temp        SPR         R8          R16         R32         R64         
# ...
      66.190   -999.0000    585.8750    10.77340    6034.170    1279.660    1387.370    1351.850    1625.390
      66.210   1901.6900    552.7500    10.75200    5838.840    1262.750    1471.460    1323.260    1673.230
      66.230   2339.5700    541.2500    10.72270    5339.460    1259.770    1412.410    -999.000    2062.840
      66.250   2442.8900    562.5000    10.73240    4871.780    1217.020    1316.930    1256.300    2378.430
      66.270   2187.7400    568.2500    10.71880    4631.330    1215.400    1255.610    1224.960    2173.970
      66.290   3157.0500    551.6250    10.75780    4509.230    1272.450    1193.810    1234.680    2118.060
      66.310   2669.7800    542.6250    10.80270    4436.410    1292.700    1086.280    1250.140    2152.010
      66.330   2525.2000    542.5000    10.73630    4384.900    1228.950     967.072    1207.120    1878.810
      66.350   2233.7300    538.6250    10.77930    4469.590    1139.040     965.796    1259.490    1649.680
      66.370   2922.7100    530.7500    10.78910    4738.080    1069.330    -999.000    1380.420    1574.080
      66.390   2458.0000    536.7500    10.77930    5053.650    1009.910    1006.470    1322.100    1883.490
      66.410   2582.2400    566.3750    10.70310    5137.730     926.959     975.014    1237.550    2045.030
      66.430   2639.3700    582.7500    10.70700    4872.350     840.564    -999.000    1276.430    1640.110
      66.450   2515.4200    566.6250    10.71290    4562.690     817.935     934.325    1248.720    1773.850
      66.470   2175.2400   -999.0000    10.71290    4406.460    -999.000     907.819    1155.940    2299.930
      66.490   2818.3200    559.0000    10.69340    4360.570     824.956     910.821    1160.570    2143.680
      66.510   2488.7000    594.2500    10.70900    4392.870     804.504     909.562    1291.310    1902.450
      66.530   2434.1800   -999.0000    10.73240    4473.740    -999.000     889.074    1298.140    1907.830
      66.550   2541.0800    616.8750    10.71880    4199.930     782.993     933.474    1163.220    1802.350
      66.570   2763.9000    603.0000    10.75590    -999.000     776.286    1004.350    1151.190    1850.360
      66.590   2589.6000    591.6250    10.66410    3671.230     788.595     968.835    1213.100    1797.770
      66.610   2164.8800   -999.0000    10.70700    3332.750     797.554     914.064    1185.430    1786.860
      66.630   2741.6300    583.6250    10.72270    -999.000     789.922     934.859    1100.700    1903.290
      66.650   3135.9400    580.0000    10.66800    3199.390     809.291     912.057    1148.790    1691.120
      66.670   2253.7800    581.3750    10.67190    3158.730     839.197     862.788    1356.780    1659.150
      66.690   2723.2300    568.5000    10.69530    3110.190     817.416     895.498    1418.110    2116.900
      66.710   1677.9000    530.8750    10.74410    3015.320     786.715     997.929    -999.000    2551.530
      66.730   2313.5200    525.7500    10.66020    2906.700     797.672     999.380    1306.140    2576.560
      66.750   2913.4100    571.3750    10.73440    2821.630     788.194     917.501    1262.630    2375.870
      66.770   2761.7700    586.1250    10.69530    2761.220     760.862     906.243    1294.450    2281.910
      66.790   2134.4800    552.6250    10.73440    2695.400     769.632     921.402    1334.500    2159.830
      66.810   2781.9100    538.8750    10.70120    2639.450     809.148     902.459    1313.570    1849.530
      66.830   2843.5000    555.5000    10.70120    2633.000     797.829     874.325    1208.770    1482.900
      66.850   2730.7800    568.8750    10.73240    2642.920     745.070     917.408    1206.010    1473.050
      66.870   2833.6200   -999.0000    10.70120    2674.640     732.290    1029.700    1361.360    -999.000
      66.890   2471.8500    579.6250    10.72460    2697.350     730.230    1040.660    1446.700    1687.140
      66.910   2302.1000    582.5000  -999.00000    2678.990     710.630    -999.000    -999.000    1647.300
      66.930   3051.6900    555.8750    10.71290    2627.220     688.760     976.708    1472.560    -999.000
      66.950   2401.5500   -999.0000    10.71880    2568.150     703.573     985.263    1548.090    1552.990
      66.970   2657.1900    537.3750  -999.00000    2530.240     758.724    1008.520    1596.800    1496.750
      66.990   -999.0000    545.0000    10.68550    2498.540     763.036     992.976    1554.700    1525.570
      67.010   2392.3500    552.5000    10.77930    2496.690    -999.000     947.480    1361.080    1603.040
      67.030   2646.5400    572.8750    10.71480    2607.810     726.567     890.215    1200.490    1505.230
      67.050   -999.0000   -999.0000    10.70900    2857.450     725.263     912.648    1274.490    1563.300
      67.070   2623.3000    582.6250    10.75390    3133.000     727.742    1000.480    1373.100    1793.620
      67.090   2507.6800   -999.0000    10.75200    3219.500     708.803    1041.510    1336.620    1702.690
      67.110   2309.6500    564.6250    10.74610    -999.000     681.403    -999.000    1383.700    1563.820
      67.130   -999.0000    561.0000    10.66410    3185.530     657.028    1079.540    1404.730    1652.140
      67.150   2468.9400    577.3750    10.71090    3182.600     681.811    1114.930    1268.410    1615.500
      67.170   2641.7000    587.0000    10.74610    3076.400     747.539    1099.480    1368.820    1440.990
      67.190   2605.6700   -999.0000    10.75390    2835.210     787.338    1052.050    1602.600    1422.030
      67.210   2904.5000    586.3750    10.73050    2586.880    -999.000     957.795    1667.100    1630.390
      67.230   3029.6100    574.6250    10.74220    2486.060     816.849     894.154    1579.400    1645.120
      67.250   2693.2100    544.2500    10.69340    2588.800     837.207     929.850    1335.510    1411.380
      67.270   3805.8400    532.0000    10.69530    2810.230     827.161     945.465    1271.370    1410.460
      67.290   3301.3300    545.1250    10.75200    3254.570     808.913     897.854    1465.100    1564.590
      67.310   3505.2600    551.2500    10.73050    -999.000     761.915     934.893    1618.350    1529.110
      67.330   3615.0700    544.7500    10.72850    3931.250     725.568     966.427    1712.860    1330.440
      67.350   2808.4400    539.7500    10.76760    4479.080     751.578     899.488    1707.170    1395.610
      67.370   3488.2200    537.1250    10.74020    4700.390     777.754     943.981    1590.150    1825.070
      67.390   -999.0000    536.5000    10.69530    4780.540     786.638    1092.250    1510.040    1963.610
      67.410   3223.4800    542.7500    10.76560    4943.470     858.328    1158.130    1550.410    -999.000
      67.430   2739.8900   -999.0000    10.69730    5154.860     948.266    1113.920    1605.790    1728.010
      67.450   2896.7600    556.3750  -999.00000    5298.730     990.768     970.907    1487.680    1612.810
      67.470   -999.0000    580.1250    10.67970    5334.330    1064.900     898.810    1249.190    1667.780
      67.490   2561.7100    581.1250    10.75780    5326.590    1174.480     984.917    1291.190    1765.980
      67.510   2671.1300    545.7500    10.75590    5235.800    1251.140    1087.130    1439.630    1767.430
      67.530   2409.7800    525.2500    10.70900    5082.160    1289.090    1201.900    1297.730    1562.710
      67.550   3368.9200    525.3750    10.69530    4902.880    1255.540    1270.220    1105.550    1493.560
      67.570   -999.0000    530.3750    10.72660    4757.070    1229.570    1234.560    1020.440    1759.780
      67.590   3198.3000    546.0000    10.68950    4687.890    1287.450    1208.470    1053.890    1903.290
      67.610   -999.0000    557.5000    10.67380    4745.830    1344.470    1240.160    1065.650    -999.000
      67.630   2700.9600    563.0000    10.70510    5046.670    1380.860    1290.440     995.913    1880.580
      67.650   2926.7800    559.7500  -999.00000    5350.820    1368.920    1243.780    1114.880    1998.950
