~VERSION INFORMATION SECTION
VERS.           2.0  :CWLS Log ASCII Standard - 2.0
WRAP.           NO   :One line per depth
#               Created in SeisLab
~WELL INFORMATION SECTION
#MNEM.UNIT  VALUE/NAME               :DESCRIPTION    
STRT.m  47.59                        :Start Depth    
STOP.m  123.23                       :Stop Depth     
STEP.m  0.02                         :Step           
NULL.    -999.25                     :Null Value     
WELL.    GDP1                        :Well Name      
CTRY.    Switzerland                 :Country        
CNTY.                                :County         
STAT.    Central Swiss Alps          :State          
API .                                :API number     
UWI .                                :Unique well ID 
LOC .    Grimsel Pass, Switzerland   :Well Location  
FLD .    n/a                         :Field          
COMP.    n/a                         :Company        
SRVC.    University of Lausanne      :Service Company
DATE.    2017                        :Date           
~PARAMETER INFORMATION SECTION
#MNEM .UNITS  VALUE   :DESCRIPTION OF PARAMETER
Casing.n/a    1       :slotted PVC casing      
~CURVE INFORMATION SECTION
#MNEM.UNITS  API CODES   :DESCRIPTION OF MNEMONIC
depth.m                  :measured depth         
NG   .cps                :Natural gamma          
Sp   .mV                 :Self potential         
Temp .DegC               :Temperature            
SPR  .Ohm                :Single point resistance
R8   .Ohm.m              :Normal resistivity     
R16  .Ohm.m              :Single point resistance
R32  .Ohm.m              :Normal resistivity     
R64  .Ohm.m              :Normal resistivity     
~A depth       NG          Sp          Temp        SPR         R8          R16         R32         R64         
# ...
     102.350   286.87500    933.5000     7.41113     14935.4      4327.9     3650.12     2820.01     2606.22
     102.370   279.09400    941.2500     7.38867     15015.3      4498.6     3651.91     2821.12     2628.92
     102.390   301.10900    949.6250     7.37891     14897.3      4669.6     3649.90     2815.44     2634.87
     102.410   282.48400    948.6250     7.42285     14960.6      4827.4     3638.40     2809.94     2671.58
     102.430   279.50000    945.8750     7.40430     15674.8      4950.2     3624.81     2808.42     2696.97
     102.450   323.89100    944.6250     7.41504     16749.0      5011.2     3631.36     2802.92     2748.17
     102.470   313.03100    943.7500     7.41309     18966.6      5011.4     3662.71     2780.48     2816.21
     102.490   315.81300    938.6250     7.41504     21520.0      4965.4     3698.04     2748.76     2859.79
     102.510   298.90600    933.1250     7.40234     23038.1      4874.5     3743.31     2726.78     2894.40
     102.530   319.37500    938.3750     7.40234     24092.5      4767.1     3803.44     2713.85     2871.79
     102.550   326.28100    945.5000     7.39258     23705.9      4695.0     3863.77     2696.11     2849.31
     102.570   264.51600    952.8750     7.41309     22286.1      4673.5     3922.54     2695.90     2793.53
     102.590   293.51600    960.6250     7.42676     19578.5      4671.3     3980.29     2712.15     2742.08
     102.610   304.48400    977.6250     7.40820     16125.9      4672.8     4041.20     2750.22     2664.23
     102.630   312.90600    996.7500     7.39063     13418.7      4672.2     4100.70     2811.56     2613.34
     102.650   293.18800    993.8750     7.41504     11601.7      4656.6     4155.22     2870.66     2556.03
     102.670   300.23400    987.0000     7.40918     11151.7      4624.5     4189.69     2927.17     2496.73
     102.690   289.21900    996.8750     7.40820     11485.1      4581.4     4207.71     3003.06     2437.91
     102.710   304.20300   1009.7500     7.43164     11884.3      4542.9     4215.60     3079.98     2396.31
     102.730   350.56300   1013.2500     7.41992     12175.9      4515.1     4212.30     3132.74     2380.09
     102.750   343.71900   1014.5000     7.41797     12687.1      4497.2     4195.70     3197.85     2354.19
     102.770   264.90600   1018.7500     7.39746     13384.8      4484.2     4192.68     3267.41     2401.30
     102.790   238.84400   1024.1300     7.42285     13785.4      4476.4     4216.25     3336.64     2572.49
     102.810   292.34400   1026.2500     7.43652     14003.0      4474.9     4272.90     3391.71     3027.68
     102.830   290.20300   1028.6300     7.44824     14238.0      4476.6     4364.01     3466.48     4152.10
     102.850   284.03100   1035.0000     7.40625     14384.4      4485.0     4477.94     3529.71     7563.54
     102.870   287.82800   1041.8800     7.44824     14121.0      4526.5     4623.44     3611.95    37650.40
     102.890   276.75000   1061.6300     7.44043     13886.6      4615.6     4805.11     3701.62   -16318.10
     102.910   317.59400   1083.8800     7.44238     13652.2      4754.6     4997.48     3767.97    -8410.75
     102.930   296.50000   1094.1300     7.41797     13017.9      4940.6     5177.40     3816.54    -7086.91
     102.950   310.85900   1101.7500     7.43848     12571.5      5156.9     5365.34     3798.59    -7818.11
     102.970   310.32800   1109.3800     7.43848     12976.4      5402.4     5548.73     3761.62   -15052.60
     102.990   310.39100   1116.7500     7.44336     14175.0      5680.3     5724.43     3685.28    32773.70
     103.010   289.75000   1122.5000     7.45215     16647.7      5986.9     5876.84     3601.97     6002.56
     103.030   308.90600   1127.2500     7.43848     20727.4      6313.6     6038.65     3487.02     3435.80
     103.050   296.93800   1120.1300     7.45215     12589.6      6678.2     6170.69     3388.73     2702.68
     103.070   363.62500   1111.0000     7.44824       198.7      7086.7     6308.39     3294.99     2444.94
     103.090   333.00000   1122.7500     7.44238     -1101.5      7556.6     6454.08     3217.64     2350.95
     103.110   289.10900   1138.1300     7.44727     -1152.4      8076.0     6590.88     3154.06     2312.00
     103.130   350.67200   1157.7500     7.47754     -1198.4      8650.2     6719.67     3112.74     2302.42
     103.150   336.18800   1179.0000     7.46777     -1238.5      9179.0     6780.08     3105.65     2290.78
     103.170   320.17200   1182.7500     7.43652     -1272.7      9660.0     6834.16     3124.64     2266.10
     103.190   304.70300   1182.7500     7.43848     -1300.4     10071.0     6882.52     3250.52     2249.70
     103.210   287.90600   1195.1300     7.46191     -1320.2     10376.1     6956.00     3564.72     2252.41
     103.230   315.92200   1209.6300     7.48438     -1334.8     10575.2     6995.44     4334.40     2261.61
     103.250   280.37500   1213.6300     7.44824     -1336.9     10594.8     7024.85     6212.68     2273.06
     103.270   303.23400   1215.7500     7.47266     -1333.8     10495.0     7024.98    11729.70     2301.00
     103.290   317.90600   1200.7500     7.48438     -1330.7     10262.9     7020.66    60249.50     2341.61
     103.310   306.40600   1183.5000     7.48633     -1326.1      9947.3     7003.63   -26525.40     2364.08
     103.330   286.89100   1170.6300     7.47949     -1314.8      9531.8     6995.47   -13816.10     2354.19
     103.350   313.35900   1159.1300     7.46387     -1288.5      9102.8     7041.67   -12080.20     2350.54
     103.370   330.21900   1148.3800     7.46094     -1254.0      8690.5     7175.90   -13734.40     2363.73
     103.390   299.96900   1138.1300     7.48633     -1212.9      8340.9     7554.80   -26264.20     2361.19
     103.410   318.81300   1119.5000     7.48438     -1167.9      8039.9     8384.01    56228.30     2334.74
     103.430   292.53100   1099.1300     7.46191     -1116.8      7788.3    10327.80     9955.08     2314.78
     103.450   294.75000   1090.8800     7.48145     -1068.8      7624.8    15057.30     5427.19     2314.55
     103.470   283.07800   1084.2500     7.48145     10944.4      7589.7    28673.80     4162.84     2337.37
     103.490   267.89100   1064.2500     7.49512     22990.9      7837.6   148006.00     3732.96     2354.80
     103.510   302.57800   1041.1300     7.50000     23085.1      8569.3   -64809.70     3569.84     2355.16
     103.530   237.18800   1017.6300     7.48145     23101.9     10449.0   -33289.60     3496.81     2357.52
     103.550   263.62500    994.0000     7.50684     24008.1     15160.5   -28801.30     3466.81     2353.69
     103.570   327.57800    961.6250     7.50000     13194.2     28952.4   -32038.80     3445.98     2348.37
     103.590   311.73400    927.7500     7.49805         7.9    151541.0   -58601.50     3419.75     2358.75
     103.610   303.95300    876.1250     7.51172     -1430.4    -68362.7   118005.00     3397.38     2386.18
     103.630   298.12500    821.3750     7.49609     -2168.1    -36945.7    19245.20     3391.83     2408.60
     103.650   295.37500    772.0000     7.50684     -4047.7    -34733.3     9615.35     3396.99     2417.10
     103.670   281.10900    723.6250     7.48242     -9540.6    -43590.5     6895.67     3404.04     2416.46
     103.690   344.31300    705.8750     7.48828    -57927.6    -93620.5     5901.27     3417.83     2419.04
     103.710   276.75000    693.5000     7.51367     28247.7    227725.0     5447.13     3434.43     2419.72
     103.730   280.32800    696.1250     7.50977     15454.6     43029.8     5180.07     3434.64     2392.58
     103.750   255.13300    700.8750     7.48926     13720.3     22066.4     5014.85     3410.54     2370.65
     103.770   307.53100    701.7500     7.49512     15213.3     14951.4     4905.99     3383.82     2372.66
     103.790   316.92200    701.7500     7.50879     26699.9     11803.2     4834.98     3360.02     2375.53
     103.810   297.40600    752.1250     7.49609    -49454.6      9809.8     4831.62     3324.34     2373.13
