~VERSION INFORMATION SECTION
VERS.           2.0  :CWLS Log ASCII Standard - 2.0
WRAP.           NO   :One line per depth
#               Created in SeisLab
~WELL INFORMATION SECTION
#MNEM.UNIT  VALUE/NAME               :DESCRIPTION    
STRT.m  11                           :Start Depth    
STOP.m  125                          :Stop Depth     
STEP.m  0.01                         :Step           
NULL.    -999.25                     :Null Value     
WELL.    GDP1                        :Well Name      
CTRY.    Switzerland                 :Country        
CNTY.                                :County         
STAT.                                :State          
API .                                :API number     
UWI .                                :Unique well ID 
LOC .    Grimsel pass, Switzerland   :Well Location  
FLD .    n/a                         :Field          
COMP.    n/a                         :Company        
SRVC.    University of Lausanne      :Service Company
DATE.    2016                        :Date           
~PARAMETER INFORMATION SECTION
#MNEM .UNITS  VALUE   :DESCRIPTION OF PARAMETER
Casing.n/a    0       :cased hole              
~CURVE INFORMATION SECTION
#MNEM     .UNITS  API CODES   :DESCRIPTION OF MNEMONIC      
depth     .m                  :measured depth (interpolated)
P_slowness.us/m               :FWS2016_25kHz_semblance      
S_slowness.us/m               :FWS2016_25kHz_semblance      
~A depth       P_slowness  S_slowness  
# ...
      73.930   258.79662   444.07148
      73.940   258.92495   443.96882
      73.950   259.13026   443.89182
      73.960   259.33557   443.82766
      73.970   259.57939   443.80200
      73.980   259.83605   443.80200
      73.990   260.13120   443.86616
      74.000   260.43918   443.94316
      74.010   260.77284   444.03298
      74.020   261.10649   444.12280
      74.030   261.54280   444.28962
      74.040   261.96628   444.45644
      74.050   262.45392   444.70026
      74.060   262.94156   444.94408
      74.070   263.51902   445.23923
      74.080   264.09648   445.53438
      74.090   264.71244   445.84236
      74.100   265.32841   446.15034
      74.110   265.97003   446.49682
      74.120   266.61166   446.89462
      74.130   267.27895   447.34375
      74.140   267.94625   447.79289
      74.150   268.61354   448.31902
      74.160   269.33216   448.83231
      74.170   270.05079   449.38410
      74.180   270.76941   449.91023
      74.190   271.43670   450.44920
      74.200   272.10400   450.97533
      74.210   272.70713   451.45013
      74.220   273.28459   451.92493
      74.230   273.79789   452.37407
      74.240   274.31118   452.82320
      74.250   274.74748   453.24667
      74.260   275.15811   453.67015
      74.270   275.56875   454.04228
      74.280   275.96656   454.42725
      74.290   276.09489   454.77372
      74.300   276.22321   455.14585
      74.310   276.31303   455.51798
      74.320   276.40285   455.92862
      74.330   276.42852   456.26226
      74.340   276.45420   456.60874
      74.350   276.41570   456.89107
      74.360   276.37721   457.21189
      74.370   276.31305   457.48136
      74.380   276.24889   457.72516
      74.390   276.18472   457.84066
      74.400   276.12056   457.98182
      74.410   276.05639   458.05882
      74.420   275.99223   458.14866
      74.430   275.92807   458.27698
      74.440   275.83823   458.40531
      74.450   275.74839   458.50798
      74.460   275.65856   458.58498
      74.470   275.65856   458.64915
      74.480   275.63290   458.71331
      74.490   275.60725   458.72615
      74.500   275.56875   458.73898
      74.510   275.53026   458.68766
      74.520   275.46611   458.63633
      74.530   275.40197   458.54649
      74.540   275.29931   458.39249
      74.550   275.19666   458.18716
      74.560   275.01702   457.95618
      74.570   274.83738   457.68670
      74.580   274.61923   457.37872
      74.590   274.42674   457.04507
      74.600   274.19575   456.64725
      74.610   273.93911   456.24943
      74.620   273.65680   455.83879
      74.630   273.41298   455.41533
      74.640   273.06651   454.91487
      74.650   272.74569   454.38874
      74.660   272.36070   453.78561
      74.670   271.97572   453.18248
      74.680   271.50092   452.52802
      74.690   271.02611   451.87356
      74.700   270.51280   451.20626
      74.710   269.99949   450.53897
      74.720   269.46052   449.83318
      74.730   268.89590   449.12739
      74.740   268.30561   448.37028
      74.750   267.70248   447.63884
      74.760   267.09934   446.83039
      74.770   266.50905   446.03477
      74.780   265.91875   445.20066
      74.790   265.37979   444.39221
      74.800   264.89215   443.57093
      74.810   264.40451   442.81382
      74.820   263.98103   442.10803
      74.830   263.55756   441.42790
      74.840   263.19825   440.77344
      74.850   262.83893   440.15749
      74.860   262.55662   439.56720
      74.870   262.27431   439.02823
      74.880   261.99200   438.54061
      74.890   261.70969   438.06582
      74.900   261.69685   437.62952
      74.910   261.68402   437.21889
      74.920   261.70969   436.80825
      74.930   261.63270   436.46177
      74.940   261.61987   436.19230
      74.950   261.55570   435.92282
      74.960   261.55570   435.71749
      74.970   261.51720   435.55066
      74.980   261.50436   435.43516
      74.990   261.47870   435.34534
      75.000   261.45305   435.38384
      75.010   261.42739   435.44800
      75.020   261.40174   435.57633
      75.030   261.37608   435.71748
      75.040   261.35043   435.82013
      75.050   261.32477   435.94846
      75.060   261.29911   436.10244
      75.070   261.27346   436.25643
      75.080   261.15797   436.42325
      75.090   261.04248   436.59007
      75.100   260.92698   436.80821
      75.110   260.82431   437.05202
      75.120   260.72164   437.35998
      75.130   260.61897   437.73211
      75.140   260.51630   438.14275
      75.150   260.41362   438.57907
      75.160   260.31095   439.06670
      75.170   260.20828   439.61851
      75.180   260.10561   440.20880
      75.190   260.00293   440.83759
      75.200   259.87461   441.49205
      75.210   259.74628   442.19784
      75.220   259.64361   442.90362
      75.230   259.51528   443.75057
      75.240   259.34846   444.61034
      75.250   259.19448   445.54711
      75.260   259.01484   446.50956
      75.270   258.86085   447.54898
      75.280   258.70687   448.58841
      75.290   258.60421   449.74333
      75.300   258.50156   450.89825
      75.310   258.42457   452.13016
      75.320   258.34759   453.36208
      75.330   258.29626   454.60684
      75.340   258.27059   455.85159
      75.350   258.30908   457.08351
      75.360   258.36041   458.28975
      75.370   258.41174   459.39334
      75.380   258.45023   460.48411
      75.390   258.48872   461.49789
      75.400   258.47589   462.48598
      75.410   258.46305   463.42275
      75.420   258.45021   464.29536
      75.430   258.43738   464.97548
      75.440   258.42454   465.62993
      75.450   258.41170   466.19457
      75.460   258.39887   466.72070
      75.470   258.42454   467.16984
      75.480   258.45021   467.56764
      75.490   258.47589   467.95261
      75.500   258.50156   468.32474
      75.510   258.52723   468.65838
      75.520   258.55290   468.96636
      75.530   258.57857   469.24867
      75.540   258.70690   469.46682
      75.550   258.83523   469.49249
      75.560   259.01489   469.51816
      75.570   259.19454   469.45400
      75.580   259.41270   469.35134
      75.590   259.63087   469.21020
      75.600   259.86185   469.04338
      75.610   260.09284   468.82523
      75.620   260.32382   468.58141
      75.630   260.55480   468.29908
      75.640   260.78579   468.00393
      75.650   261.01677   467.68313
      75.660   261.24775   467.33666
      75.670   261.56856   466.96451
      75.680   261.88936   466.59236
      75.690   262.21016   466.18172
      75.700   262.53097   465.77108
      75.710   262.87744   465.36044
      75.720   263.21110   464.92415
      75.730   263.58325   464.48785
      75.740   263.95539   463.98739
      75.750   264.38093   463.48693
      75.760   264.80648   462.96080
      75.770   265.29674   462.47316
      75.780   265.78700   461.92136
      75.790   266.28803   461.40807
      75.800   266.78907   460.85628
      75.810   267.33325   460.35582
      75.820   267.87743   459.80403
      75.830   268.48631   459.30357
      75.840   269.12085   458.66195
      75.850   269.79854   458.04598
      75.860   270.46339   457.35302
      75.870   271.18200   456.66005
      75.880   271.87495   455.89010
      75.890   272.60639   455.17149
      75.900   273.28651   454.33739
      75.910   273.96662   453.56744
      75.920   274.62107   452.72049
      75.930   275.27551   451.96338
      75.940   275.90430   451.19343
      75.950   276.53308   450.44559
      75.960   277.09770   449.71059
      75.970   277.68800   449.10502
      75.980   278.27830   448.60210
      75.990   278.89426   448.12075
      76.000   279.51023   447.71641
      76.010   280.16469   447.34441
      76.020   280.81915   447.02374
      76.030   281.52493   446.72464
      76.040   282.23072   446.61803
      76.050   282.98784   446.55457
      76.060   283.74495   446.58093
      76.070   284.48923   446.65043
      76.080   285.19500   446.79692
      76.090   285.86615   446.94341
