~VERSION INFORMATION SECTION
VERS.           2.0  :CWLS Log ASCII Standard - 2.0
WRAP.           NO   :One line per depth
#               Created in SeisLab
~WELL INFORMATION SECTION
#MNEM.UNIT  VALUE/NAME               :DESCRIPTION    
STRT.m  24.75                        :Start Depth    
STOP.m  125.11                       :Stop Depth     
STEP.m  0.02                         :Step           
NULL.    -999.25                     :Null Value     
WELL.    GDP1                        :Well Name      
CTRY.    Switzerland                 :Country        
CNTY.                                :County         
STAT.    Central Swiss Alps          :State          
API .                                :API number     
UWI .                                :Unique well ID 
LOC .    Grimsel Pass, Switzerland   :Well Location  
FLD .    n/a                         :Field          
COMP.    n/a                         :Company        
SRVC.    University of Lausanne      :Service Company
DATE.    2015                        :Date           
~PARAMETER INFORMATION SECTION
#MNEM .UNITS    VALUE   :DESCRIPTION OF PARAMETER
Casing.n/a      0       :open hole               
Mud   .Polymer  1       :Mud type                
~CURVE INFORMATION SECTION
#MNEM.UNITS  API CODES   :DESCRIPTION OF MNEMONIC
depth.m                  :measured depth         
NG   .cps                :Natural gamma          
Sp   .mV                 :Self potential         
Temp .DegC               :Temperature            
SPR  .Ohm                :Single point resistance
R8   .Ohm.m              :Normal resistivity     
R16  .Ohm.m              :Single point resistance
R32  .Ohm.m              :Normal resistivity     
R64  .Ohm.m              :Normal resistivity     
~A depth       NG          Sp          Temp        SPR         R8          R16         R32         R64         
# ...
      78.030   2159.5600    512.2500    10.68160    1173.590     258.447     480.803     586.887     844.092
      78.050   2029.8000    513.3750    10.74410    1182.130     262.814     478.541     616.546     794.691
      78.070   1916.3100    497.0000    10.64060    1157.590     272.872     451.605     701.078     820.408
      78.090   1806.5000    481.1250    10.67190    1116.880     284.887     478.734     698.160     995.344
      78.110   1599.8500    465.6250    10.69920    1109.990     290.454     465.726     660.575    1023.630
      78.130   2225.5000    463.6250    10.71880    1160.040     313.773     414.730     569.882     923.669
      78.150   1602.4700    485.5000    10.70310    1198.070     316.142     419.718     556.030     900.036
      78.170   1706.8600    506.3750    10.68550    1208.410     306.276     477.267     617.555     996.556
      78.190   2041.3200    529.5000    10.69530    1261.920     322.873     500.958     593.213    1148.660
      78.210   1682.7400    542.6250    10.69530    1393.490     314.996     454.610     581.528    1209.090
      78.230   1514.8300    541.2500    10.71880    1522.520     286.713     396.458     638.837    1094.800
      78.250   1668.2200    528.1250    10.65430    1549.370     286.992     414.031     700.670    1009.940
      78.270   1704.2400    492.3750    10.69340    1539.120     314.852     462.388     756.709    1075.440
      78.290   1423.4200    475.0000    10.65820    1555.250     328.725     460.268     795.314    1111.360
      78.310   1573.5200    485.5000    10.69730    1578.790     306.297     440.787     763.976    1134.170
      78.330   1785.1900    491.7500    10.69920    1598.950     274.171     405.056     718.393    1032.630
      78.350   1799.5300    491.2500    10.66600    1618.090     280.867     409.504     677.304     911.279
      78.370   1560.8300    497.1250    10.70900    1620.250     303.105     448.174     604.589     948.834
      78.390   1308.8700    516.3750    10.66020    1603.250     302.946     420.286     601.269     900.581
      78.410   1658.1500    531.5000    10.68550    1586.480     296.520     387.449     616.008     840.835
      78.430   1732.6100    542.1250    10.68550    1585.830     278.174     413.323     611.669     895.168
      78.450   1672.0000    550.6250    10.67190    1611.440     278.857     463.319     695.573     897.734
      78.470   1498.5700    555.5000    10.70900    1650.170     297.825     518.515     789.095     875.053
      78.490   2376.9500    547.2500    10.70900    1698.020     285.406     553.251     749.538     948.908
      78.510   1725.1600    515.8750    10.72270    1743.590     269.797     533.622     619.689    1079.880
      78.530   1663.5700    499.5000    10.68360    1749.770     282.071     500.859     536.590    1243.150
      78.550   1818.0200    502.2500    10.66410    1732.140     308.314     465.274     540.406    1207.170
      78.570   2103.1000    499.8750    10.64260    1705.550     337.757     406.902     559.796    1087.250
      78.590   1869.5400    490.6250    10.65820    1680.770     354.578     394.417     595.259    1098.650
      78.610   2761.3800    486.2500    10.68160    1680.580     344.142     408.495     649.743    1036.410
      78.630   1899.2700    487.8750    10.69140    1706.560     329.453     407.354     705.024     911.114
      78.650   2036.9600    492.1250    10.69730    1742.640     310.596     452.221     813.278     870.937
      78.670   1359.2200    503.5000    10.69530    1780.340     279.852     509.137     907.734    1026.690
      78.690   2068.0500    507.6250    10.72460    1831.470     274.979     500.135     908.782    1191.390
      78.710   2268.9800    500.8750    10.64060    1874.720     284.389     447.366     815.631    1076.880
      78.730   2229.3700    498.5000    10.67190    1868.530     287.139     402.475     741.858     840.409
      78.750   1896.3600    499.8750    10.67380    1826.540     313.238     395.425     741.392     879.066
      78.770   1924.3500    502.0000    10.66800    1800.870     345.727     402.782     649.855    1055.720
      78.790   1731.6500    504.2500    10.65040    1826.340     346.104     410.284     561.194    1072.130
      78.810   2263.3600    504.6250    10.67190    1870.530     324.722     428.038     643.570     995.703
      78.830   1458.6700    504.0000    10.64260    1928.140     306.476     458.402     707.355     801.050
      78.850   2027.5700    512.3750    10.70900    2034.630     306.641     528.727     650.295     750.556
      78.870   2359.2300    537.1250    10.66020    2110.880     308.547     597.847     598.299     866.062
      78.890   1612.0600    544.8750    10.67190    2054.380     306.110     610.260     594.032     857.047
      78.910   1939.3600    526.5000    10.65230    1975.350     312.060     563.268     635.297     863.020
      78.930   2254.1600    522.6250    10.70900    1957.340     328.013     517.088     670.859     971.261
      78.950   2086.0600    544.5000    10.68360    1954.700     363.654     507.862     648.386    1059.240
      78.970   1648.1700    554.2500    10.68160    2003.310     398.565     457.790     660.052    1125.450
      78.990   1744.1400    543.5000    10.71480    2083.690     403.840     395.783     707.762    1196.760
      79.010   2126.0500    533.8750    10.70900    2126.860     375.133     418.956     625.841    1129.060
      79.030   2614.7700    525.1250    10.67380    2147.190     346.641     450.212     575.353    1019.240
      79.050   2122.1800    530.6250    10.72070    2162.150     344.941     429.278     623.618     959.224
      79.070   2059.8200    559.8750    10.70120    2199.540     327.589     408.842     602.633     874.263
      79.090   3031.1600    564.0000    10.72070    2257.460     305.924     395.563     647.458     902.337
      79.110   2205.2600    526.5000    10.72660    2301.500     324.712     416.137     812.979     920.871
      79.130   2758.6700    511.6250    10.68160    2339.450     344.645     458.719     916.066     882.345
      79.150   1676.6400    534.0000    10.68160    2366.430     341.925     455.317     886.610    1028.950
      79.170   2035.0300    543.7500    10.63480    2355.300     341.297     443.204     799.340    1209.100
      79.190   2664.5500    533.3750    10.67770    2332.000     344.602     470.380     772.531    1117.320
      79.210   2411.3300    528.7500    10.64060    2310.740     367.840     436.421     827.241     829.529
      79.230   2482.5000    531.0000    10.68750    2269.630     402.862     392.350     889.309     666.213
      79.250   2361.6500    543.2500    10.63280    2215.160     406.415     413.675     913.872     701.424
      79.270   2604.3200    574.5000    10.69140    2178.590     404.864     425.334     883.219     754.922
      79.290   1681.7800    587.7500    10.71680    2187.820     417.767     477.630     755.010     837.663
      79.310   2067.4700    573.5000    10.70510    2262.980     396.146     580.267     599.096     955.196
      79.330   2336.1800    558.6250    10.66990    2384.300     372.592     635.804     614.331    1056.720
      79.350   2834.9800    540.3750    10.62500    2493.000     377.338     604.492     652.482    1243.130
      79.370   2114.3300    529.7500    10.61520    2588.680     378.587     560.940     535.935    1396.920
      79.390   2237.1200    528.7500    10.63870    2677.220     406.157     567.682     518.721    1367.600
      79.410   2249.9000    529.3750    10.66210    2715.820     462.236     601.059     635.813    1174.710
      79.430   2153.6500    533.2500    10.65230    2696.960     491.762     636.944     760.284    1048.400
      79.450   2508.3500    540.0000    10.71480    2642.300     480.477     651.299     750.522    1057.680
      79.470   2307.1300    554.2500    10.67190    2611.180     463.879     637.120     683.379     875.729
      79.490   2307.1300    558.1250    10.69140    2662.800     475.189     565.733     679.270     727.034
