~VERSION INFORMATION SECTION
VERS.           2.0  :CWLS Log ASCII Standard - 2.0
WRAP.           NO   :One line per depth
#               Created in SeisLab
~WELL INFORMATION SECTION
#MNEM.UNIT  VALUE/NAME               :DESCRIPTION    
STRT.m  47.59                        :Start Depth    
STOP.m  123.23                       :Stop Depth     
STEP.m  0.02                         :Step           
NULL.    -999.25                     :Null Value     
WELL.    GDP1                        :Well Name      
CTRY.    Switzerland                 :Country        
CNTY.                                :County         
STAT.    Central Swiss Alps          :State          
API .                                :API number     
UWI .                                :Unique well ID 
LOC .    Grimsel Pass, Switzerland   :Well Location  
FLD .    n/a                         :Field          
COMP.    n/a                         :Company        
SRVC.    University of Lausanne      :Service Company
DATE.    2017                        :Date           
~PARAMETER INFORMATION SECTION
#MNEM .UNITS  VALUE   :DESCRIPTION OF PARAMETER
Casing.n/a    1       :slotted PVC casing      
~CURVE INFORMATION SECTION
#MNEM.UNITS  API CODES   :DESCRIPTION OF MNEMONIC
depth.m                  :measured depth         
NG   .cps                :Natural gamma          
Sp   .mV                 :Self potential         
Temp .DegC               :Temperature            
SPR  .Ohm                :Single point resistance
R8   .Ohm.m              :Normal resistivity     
R16  .Ohm.m              :Single point resistance
R32  .Ohm.m              :Normal resistivity     
R64  .Ohm.m              :Normal resistivity     
~A depth       NG          Sp          Temp        SPR         R8          R16         R32         R64         
# ...
      49.070   221.11700   1081.2500  -999.00000      -999.0      -999.0     2218.98     2843.31     3442.50
      49.090   199.76600   1072.3800  -999.00000      -999.0      -999.0     2213.63     2847.70     3711.91
      49.110   225.40600   1064.3800  -999.00000      -999.0      2015.4     2219.94     2868.52     4191.93
      49.130   250.35200   1061.0000  -999.00000      -999.0      2404.1     2224.72     2877.66     5669.76
      49.150   250.64100   1058.0000  -999.00000      -999.0      2568.9     2233.44     2912.68     8331.74
      49.170   243.55500   1057.8800  -999.00000      -999.0      2507.2     2243.40     2944.57    17921.20
      49.190   217.71900   1058.6300  -999.00000      -999.0      2403.9     2258.16     2991.11  -132514.00
      49.210   230.22700   1063.1300  -999.00000      5608.4      2290.2     2274.44     3049.58   -19387.80
      49.230   267.71900   1068.1300  -999.00000      5888.4      2189.3     2281.32     3060.95   -14702.00
      49.250   216.28900   1070.2500  -999.00000      5928.0      2106.5     2278.56     3091.29   -19289.10
      49.270   280.75000   1072.7500  -999.00000      5780.0      2044.3     2275.46     3096.37  -130343.00
      49.290   285.17200   1073.0000  -999.00000      5612.3      2001.8     2258.55     3108.99    17843.50
      49.310   217.02300   1073.7500  -999.00000      5436.6      1971.2     2241.82     3103.02     7917.49
      49.330   238.84400   1067.2500  -999.00000      5289.6      1943.4     2211.33     3108.26     5582.75
      49.350   227.68000   1060.5000  -999.00000      5183.0      1915.4     2187.95     3062.42     4318.53
      49.370   194.36700   1050.1300  -999.00000      5126.6      1890.3     2158.49     3022.35     3806.21
      49.390   213.96100   1038.5000  -999.00000      5140.3      1858.0     2140.20     2976.69     3668.40
      49.410   245.12500   1021.2500  -999.00000      5211.4      1825.8     2134.33     2927.40     3539.87
      49.430   235.34400   1003.2500  -999.00000      5306.4      1783.7     2112.44     2877.12     3537.78
      49.450   222.14100    989.8750  -999.00000      5398.1      1741.5     2110.46     2808.93     3530.55
      49.470   207.64800    976.6250  -999.00000      5466.6      1691.0     2102.42     2804.06     3538.58
      49.490   199.68000    962.2500  -999.00000      5492.2      1644.6     2103.57     2821.91     3481.08
      49.510   196.07000    948.2500  -999.00000      5464.0      1609.2     2098.49     2942.72     3429.04
      49.530   213.59400    941.6250  -999.00000      5379.9      1573.3     2102.15     3234.29     3400.70
      49.550   205.18000    936.3750     6.07129      5267.5      1559.8     2078.41     4000.14     3435.02
      49.570   225.00800    929.8750     6.05957      5133.2      1553.7     2058.21     5968.16     3533.63
      49.590   207.39800    923.2500     6.04590      4981.3      1561.1     2034.71    12823.60     3625.77
      49.610   231.65600    925.2500     6.04102      4835.2      1570.9     2009.08   -97324.90     3680.68
      49.630   257.12500    928.3750     6.04102      4737.6      1589.8     1984.11   -14279.70     3739.51
      49.650   252.19500    927.6250     6.04102      4721.1      1596.4     1951.43   -10827.60     3786.23
      49.670   251.36700    926.0000     6.03516      4767.2      1604.7     1960.49   -14039.00     3834.69
      49.690   254.70300    934.0000     6.06250      4860.6      1609.2     1994.52   -92593.50     3899.92
      49.710   226.50000    944.0000     6.04883      4977.0      1611.1     2113.14    12206.80     3956.64
      49.730   259.06300    950.5000     6.05762      5094.6      1615.4     2383.21     5161.37     3995.41
      49.750   266.73400    957.1250     6.05566      5190.5      1621.8     3049.09     3532.52     4031.76
      49.770   279.95300    961.8750     6.03906      5287.1      1667.9     4765.14     3052.53     4084.53
      49.790   258.87500    966.6250     6.05078      5390.6      1758.5    10785.80     2898.36     4144.50
      49.810   249.64800    963.6250     6.04102      5485.6      1950.3   -86197.90     2847.54     4205.89
      49.830   288.35900    959.3750     6.04102      5562.5      2337.4   -13082.20     2831.86     4263.48
      49.850   295.60900    947.3750     6.05469      5643.4      3239.8   -10165.30     2830.95     4354.51
      49.870   246.24200    934.1250     6.05078      6063.2      5630.0   -13350.90     2841.97     4417.13
      49.890   305.51600    896.6250     6.04199      7895.5     14477.5   -87618.10     2853.75     4447.30
      49.910   290.65600    855.2500     6.05469      5661.7   -133760.0    11147.90     2853.76     4433.15
      49.930   279.10900    794.6250     6.03711      -619.1    -23602.6     4407.53     2852.46     4426.04
      49.950   244.71900    731.2500     6.05762     -2438.5    -21827.5     2847.66     2859.96     4432.35
      49.970   258.15600    704.0000     6.04199     -5285.5    -35298.1     2393.72     2874.48     4417.09
      49.990   245.49200    682.3750     6.04199    -15290.5   -284903.0     2251.04     2886.29     4401.65
      50.010   277.07800    679.2500     6.03711    145327.0     44172.8     2201.12     2893.97     4401.20
      50.030   283.73400    679.2500     6.05273     23718.4     18448.0     2188.38     2906.90     4408.96
      50.050   232.02300    689.3750     6.04395     18594.0     10619.1     2194.80     2920.49     4399.75
      50.070   262.03100    700.8750     6.05762     23074.2      7609.6     2219.48     2926.29     4381.98
      50.090   260.18800    747.5000     6.05078    133607.0      6049.5     2255.73     2932.35     4375.82
      50.110   268.50000    799.2500     6.03516    -13760.2      4894.6     2306.75     2947.99     4373.78
      50.130   295.73400    872.8750     6.04883     -3852.0      3994.2     2379.86     2966.70     4358.34
      50.150   223.60900    950.2500     6.05566     -1644.6      3350.4     2458.40     2973.64     4324.27
      50.170   249.53900   1016.6300     6.05957      6272.3      2908.2     2525.10     2985.33     4329.57
      50.190   251.08600   1081.8800     6.03418      8772.7      2592.4     2570.46     3006.64     4346.68
      50.210   248.26600   1117.1300     6.04883      6304.1      2364.0     2592.67     3027.99     4366.32
      50.230   265.53100   1147.5000     6.05273      5804.7      2200.4     2604.48     3044.92     4382.50
      50.250   242.14100   1157.5000     6.04102      5661.0      2089.0     2615.40     3060.39     4428.14
      50.270   267.85900   1164.1300     6.06445      5602.9      2020.0     2620.85     3090.85     4468.34
      50.290   245.59400   1154.3800     6.03906      5553.6      1995.0     2625.60     3124.16     4478.85
      50.310   248.11700   1141.8800     6.03027      5477.3      2004.1     2634.70     3147.07     4490.83
      50.330   269.26600   1126.2500     6.06445      5401.3      2037.9     2643.07     3166.93     4497.53
      50.350   302.85900   1110.0000     6.04883      5383.8      2084.4     2638.41     3194.38     4506.04
      50.370   267.65600   1091.3800     6.05273      5467.1      2134.4     2634.19     3231.83     4486.51
      50.390   265.56300   1072.2500     6.04785      5627.3      2188.9     2648.78     3257.20     4455.08
      50.410   239.29700   1054.7500     6.06152      5822.0      2254.9     2682.24     3284.35     4424.67
      50.430   261.60900   1037.8800     6.04102      6051.3      2332.2     2726.18     3315.78     4410.50
      50.450   263.95300   1023.8800     6.06836      6307.9      2423.7     2773.29     3350.25     4367.48
      50.470   268.98400   1010.6300     6.03711      6741.4      2548.6     2829.43     3375.50     4324.80
      50.490   295.14100   1006.7500     6.05957      7293.4      2712.3     2888.27     3397.25     4294.20
      50.510   317.78100   1004.8800     6.03027      7938.5      2901.7     2942.48     3420.30     4271.72
      50.530   293.04700   1005.8800     6.05078      8802.5      3102.5     2997.40     3440.97     4243.09
