~VERSION INFORMATION SECTION
VERS.           2.0  :CWLS Log ASCII Standard - 2.0
WRAP.           NO   :One line per depth
#               Created in SeisLab
~WELL INFORMATION SECTION
#MNEM.UNIT  VALUE/NAME               :DESCRIPTION    
STRT.m  10                           :Start Depth    
STOP.m  125                          :Stop Depth     
STEP.m  0.01                         :Step           
NULL.    -999.25                     :Null Value     
WELL.    GDP1                        :Well Name      
CTRY.    Switzerland                 :Country        
CNTY.                                :County         
STAT.    Central Swiss Alps          :State          
API .                                :API number     
UWI .                                :Unique well ID 
LOC .    Grimsel Pass, Switzerland   :Well Location  
FLD .    n/a                         :Field          
COMP.    n/a                         :Company        
SRVC.    University of Lausanne      :Service Company
DATE.    2015                        :Date           
~PARAMETER INFORMATION SECTION
#MNEM .UNITS    VALUE   :DESCRIPTION OF PARAMETER
Casing.n/a      0       :open hole               
Mud   .Polymer  1       :Mud type                
~CURVE INFORMATION SECTION
#MNEM.UNITS  API CODES   :DESCRIPTION OF MNEMONIC
depth.m                  :measured depth         
NG   .cps                :Natural gamma          
Sp   .mV                 :Self potential         
Temp .DegC               :Temperature            
SPR  .Ohm                :Single point resistance
R8   .Ohm.m              :Normal resistivity     
R16  .Ohm.m              :Single point resistance
R32  .Ohm.m              :Normal resistivity     
R64  .Ohm.m              :Normal resistivity     
~A depth       NG          Sp          Temp        SPR         R8          R16         R32         R64         
# ...
      17.400   269.75645    489.0786  -999.25000    7546.756    3668.561    3387.030    3479.830    3098.996
      17.410   269.75645    489.0786  -999.25000    7546.756    3668.561    3387.030    3479.830    3098.996
      17.420   269.75645    489.0786  -999.25000    7546.756    3668.561    3387.030    3479.830    3098.996
      17.430   269.75645    489.0786  -999.25000    7546.756    3668.561    3387.030    3479.830    3098.996
      17.440   269.75645    489.0786  -999.25000    7546.756    3668.561    3387.030    3479.830    3098.996
      17.450   269.75645    489.0786  -999.25000    7546.756    3668.561    3387.030    3479.830    3098.996
      17.460   269.75645    489.0786  -999.25000    7546.756    3668.561    3387.030    3479.830    3098.996
      17.470   269.75645    489.0786  -999.25000    7546.756    3668.561    3387.030    3479.830    3098.996
      17.480   269.75645    489.0786  -999.25000    7546.756    3668.561    3387.030    3479.830    3098.996
      17.490   269.75645    489.0786  -999.25000    7546.756    3668.561    3387.030    3479.830    3098.996
      17.500   269.75645    489.0786  -999.25000    7546.756    3668.561    3387.030    3479.830    3098.996
      17.510   269.75645    489.0786  -999.25000    7546.756    3668.561    3387.030    3479.830    3098.996
      17.520   269.75645    489.0786  -999.25000    7546.756    3668.561    3387.030    3479.830    3098.996
      17.530   269.75645    489.0786  -999.25000    7546.756    3668.561    3387.030    3479.830    3098.996
      17.540   269.75645    489.0786  -999.25000    7546.756    3668.561    3387.030    3479.830    3098.996
      17.550   269.75645    489.0786  -999.25000    7546.756    3668.561    3387.030    3479.830    3098.996
      17.560   269.75645    489.0786  -999.25000    7546.756    3668.561    3387.030    3479.830    3098.996
      17.570   269.75645    489.0786  -999.25000    7546.756    3668.561    3387.030    3479.830    3098.996
      17.580   269.75645    489.0786  -999.25000    7546.756    3668.561    3387.030    3479.830    3098.996
      17.590   269.75645    489.0786  -999.25000    7546.756    3668.561    3387.030    3479.830    3098.996
      17.600   269.75645    489.0786  -999.25000    7546.756    3668.561    3387.030    3479.830    3098.996
      17.610   269.75645    489.0786  -999.25000    7546.756    3668.561    3387.030    3479.830    3098.996
      17.620   269.75645    489.0786  -999.25000    7546.756    3668.561    3387.030    3479.830    3098.996
      17.630   269.75645    489.0786  -999.25000    7546.756    3668.561    3387.030    3479.830    3098.996
      17.640   269.75645    489.0786  -999.25000    7546.756    3668.561    3387.030    3479.830    3098.996
      17.650   269.75645    489.0786  -999.25000    7546.756    3668.561    3387.030    3479.830    3098.996
      17.660   269.75645    489.0786  -999.25000    7546.756    3668.561    3387.030    3479.830    3098.996
      17.670   269.75645    489.0786  -999.25000    7546.756    3668.561    3387.030    3479.830    3098.996
      17.680   269.75645    489.0786  -999.25000    7546.756    3668.561    3387.030    3479.830    3098.996
      17.690   269.75645    489.0786  -999.25000    7546.756    3668.561    3387.030    3479.830    3098.996
      17.700   269.75645    489.0786  -999.25000    7546.756    3668.561    3387.030    3479.830    3098.996
      17.710   269.75645    489.0786  -999.25000    7546.756    3668.561    3387.030    3479.830    3098.996
      17.720   269.75645    489.0786  -999.25000    7546.756    3668.561    3387.030    3479.830    3098.996
      17.730   269.75645    489.0786  -999.25000    7546.756    3668.561    3387.030    3479.830    3098.996
      17.740   269.75645    489.0786  -999.25000    7546.756    3668.561    3387.030    3479.830    3098.996
      17.750   269.75645    489.0786  -999.25000    7546.756    3668.561    3387.030    3479.830    3098.996
      17.760   269.75645    489.0786  -999.25000    7546.756    3668.561    3387.030    3479.830    3098.996
      17.770   269.75645    489.0786  -999.25000    7546.756    3668.561    3387.030    3479.830    3098.996
      17.780   269.75645    489.0786  -999.25000    7546.756    3668.561    3387.030    3479.830    3098.996
      17.790   269.75645    489.0786  -999.25000    7546.756    3668.561    3387.030    3479.830    3098.996
      17.800   269.75645    489.0786  -999.25000    7546.756    3668.561    3387.030    3479.830    3098.996
      17.810   269.75645    489.0786  -999.25000    7546.756    3668.561    3387.030    3479.830    3098.996
      17.820   269.75645    489.0786  -999.25000    7546.756    3668.561    3387.030    3479.830    3098.996
      17.830   269.75645    489.0786  -999.25000    7546.756    3668.561    3387.030    3479.830    3098.996
      17.840   269.75645    489.0786  -999.25000    7546.756    3668.561    3387.030    3479.830    3098.996
      17.850   269.75645    489.0786  -999.25000    7546.756    3668.561    3387.030    3479.830    3098.996
      17.860   269.75645    489.0786  -999.25000    7546.756    3668.561    3387.030    3479.830    3098.996
      17.870   269.75645    489.0786  -999.25000    7546.756    3668.561    3387.030    3479.830    3098.996
      17.880   269.75645    489.0786  -999.25000    7546.756    3668.561    3387.030    3479.830    3098.996
      17.890   269.75645    489.0786  -999.25000    7546.756    3668.561    3387.030    3479.830    3098.996
      17.900   269.75645    489.0786  -999.25000    7546.756    3668.561    3387.030    3479.830    3098.996
      17.910   269.75645    489.0786  -999.25000    7546.756    3668.561    3387.030    3479.830    3098.996
      17.920   269.75645    489.0786  -999.25000    7546.756    3668.561    3387.030    3479.830    3098.996
      17.930   269.75645    489.0786  -999.25000    7546.756    3668.561    3387.030    3479.830    3098.996
      17.940   269.75645    489.0786  -999.25000    7546.756    3668.561    3387.030    3479.830    3098.996
      17.950   269.75645    489.0786  -999.25000    7546.756    3668.561    3387.030    3479.830    3098.996
      17.960   269.75645    489.0786  -999.25000    7546.756    3668.561    3387.030    3479.830    3098.996
      17.970   269.75645    489.0786  -999.25000    7546.756    3668.561    3387.030    3479.830    3098.996
      17.980   269.75645    489.0786  -999.25000    7546.756    3668.561    3387.030    3479.830    3098.996
      17.990   269.75645    489.0786  -999.25000    7546.756    3668.561    3387.030    3479.830    3098.996
      18.000   269.75645    489.0786  -999.25000    7546.756    3668.561    3387.030    3479.830    3098.996
      18.010   269.75645    489.0786  -999.25000    7546.756    3668.561    3387.030    3479.830    3098.996
      18.020   269.75645    489.0786  -999.25000    7546.756    3668.561    3387.030    3479.830    3098.996
      18.030   269.75645    489.0786  -999.25000    7546.756    3668.561    3387.030    3479.830    3098.996
      18.040   269.75645    489.0786  -999.25000    7546.756    3668.561    3387.030    3479.830    3098.996
      18.050   269.75645    489.0786  -999.25000    7546.756    3668.561    3387.030    3479.830    3098.996
      18.060   269.75645    489.0786  -999.25000    7546.756    3668.561    3387.030    3479.830    3098.996
      18.070   269.75645    489.0786  -999.25000    7546.756    3668.561    3387.030    3479.830    3098.996
      18.080   269.75645    489.0786  -999.25000    7546.756    3668.561    3387.030    3479.830    3098.996
      18.090   269.75645    489.0786  -999.25000    7546.756    3668.561    3387.030    3479.830    3098.996
      18.100   269.75645    489.0786  -999.25000    7546.756    3668.561    3387.030    3479.830    3098.996
      18.110   269.75645    489.0786  -999.25000    7546.756    3668.561    3387.030    3479.830    3098.996
      18.120   269.75645    489.0786  -999.25000    7546.756    3668.561    3387.030    3479.830    3098.996
      18.130   269.75645    489.0786  -999.25000    7546.756    3668.561    3387.030    3479.830    3098.996
