~VERSION INFORMATION SECTION
VERS.           2.0  :CWLS Log ASCII Standard - 2.0
WRAP.           NO   :One line per depth
#               Created in SeisLab
~WELL INFORMATION SECTION
#MNEM.UNIT  VALUE/NAME               :DESCRIPTION    
STRT.m  33.03                        :Start Depth    
STOP.m  122.23                       :Stop Depth     
STEP.m  0.03                         :Step           
NULL.    -999.25                     :Null Value     
WELL.    GDP1                        :Well Name      
CTRY.    Switzerland                 :Country        
CNTY.                                :County         
STAT.    Central Swiss Alps          :State          
API .                                :API number     
UWI .                                :Unique well ID 
LOC .    Grimsel Pass, Switzerland   :Well Location  
FLD .    n/a                         :Field          
COMP.    n/a                         :Company        
SRVC.    University of Lausanne      :Service Company
DATE.    2016                        :Date           
~PARAMETER INFORMATION SECTION
#MNEM .UNITS  VALUE   :DESCRIPTION OF PARAMETER
Casing.n/a    1       :slotted PVC casing      
~CURVE INFORMATION SECTION
#MNEM.UNITS  API CODES   :DESCRIPTION OF MNEMONIC
depth.m                  :measured depth         
NG   .cps                :Natural gamma          
Sp   .mV                 :Self potential         
Temp .DegC               :Temperature            
SPR  .Ohm                :Single point resistance
R8   .Ohm.m              :Normal resistivity     
R16  .Ohm.m              :Single point resistance
R32  .Ohm.m              :Normal resistivity     
R64  .Ohm.m              :Normal resistivity     
~A depth       NG          Sp          Temp        SPR         R8          R16         R32         R64         
# ...
      90.760   313.57800    623.7500     7.24609       66161    819459.0       884.6       902.8      1330.1
      90.790   270.31300    625.7500     7.24121      361265     22415.4       768.9       731.0      1247.8
      90.820   335.85900    622.5000     7.24414      702039      8799.2       799.3       711.8       719.2
      90.850   304.70300    618.6250     7.22070     -380386      5810.2       895.4       803.3       841.4
      90.880   304.64100    661.2500     7.26074     3752140      3896.3       884.1       762.8       973.6
      90.900   285.70300    713.6250     7.23242       55653      2555.0       857.1       739.8       910.5
      90.930   275.65600    761.8750     7.25293       14636      1865.9       901.9       778.6      1055.7
      90.960   316.95300    809.2500     7.22852        7739      1337.0       875.0       844.6      1183.4
      90.990   295.04700    817.2500     7.24414        5889      1025.4       757.4       835.0      1393.3
      91.030   289.87500    816.1250     7.25098        5016       835.2       715.3       802.9       707.8
      91.060   338.04700    818.3750     7.26758        4662       736.0       752.9       792.4      -328.7
      91.080   333.96900    821.3750     7.23926        4398       626.8       705.5       810.6      5776.0
      91.110   281.64100    807.8750     7.27344        4245       594.3       679.2       748.4     27296.3
      91.150   326.23400    791.2500     7.25293        4143       609.3       700.0       734.7     -7230.0
      91.180   342.96900    792.3750     7.27441        4058       592.8       716.1       807.9     72263.3
      91.210   292.18800    797.2500     7.23926        3960       585.2       704.3       824.8      2714.7
      91.240   354.75000    800.6250     7.25977        3922       600.9       702.3       777.3      1482.0
      91.260   299.21900    802.7500     7.26270        3936       617.6       701.7       788.5       968.9
      91.290   328.64100    822.6250     7.24121        3962       616.5       710.5       930.8       872.9
      91.320   292.45300    845.6250     7.22754        4005       625.5       667.4       969.4      1145.7
      91.350   315.37500    861.6250     7.23926        4080       646.6       658.8       921.1      1425.8
      91.380   287.07800    876.2500     7.26270        4174       678.8       712.7       832.9      1373.9
      91.420   278.48400    901.6250     7.26270        4275       690.9       713.7       787.2      1286.6
      91.440   316.87500    929.1250     7.25977        4413       731.0       710.3       839.1      1390.8
      91.470   257.39100    957.7500     7.23535        4598       812.8       748.6       881.6      1278.6
      91.510   308.45300    986.7500     7.26074        4728       881.8       826.4       788.7       931.2
      91.540   246.14100   1000.0000     7.25781        4741       945.5       849.2       636.4       884.9
      91.570   290.95300   1010.5000     7.25488        4767      1024.7       845.7       689.4      1043.5
      91.600   268.79700    990.6250     7.23926        4934      1094.4       821.4       796.9       973.1
      91.630   289.10900    964.3750     7.24121        5146      1104.7       809.4       799.7       931.4
      91.650   295.90600    956.3750     7.24414        5337      1097.1       857.4       846.0      1001.1
      91.680   283.81300    952.2500     7.25098        5483      1076.4       890.3       771.6      1138.5
      91.710   287.60900    944.8750     7.26465        5435      1070.2       862.3       842.4      1124.8
      91.740   287.15600    936.8750     7.25293        5305      1080.0       793.0       919.9      1043.8
      91.780   274.95300    934.0000     7.26465        5166      1054.3       819.3       857.7      1003.6
      91.810   295.18800    931.6250     7.26270        5057      1000.0       876.8       792.4      1069.3
      91.830   233.43000    924.2500     7.26074        5038       918.0       876.9       881.2       955.9
      91.860   312.64100    915.6250     7.27148        5001       890.1       897.9       907.0       906.9
      91.900   252.97700    927.8750     7.26465        4859       892.0       840.4      1048.2      1055.7
      91.930   276.45300    944.7500     7.24902        4696       865.4       881.9      1091.0      1074.0
      91.960   267.67200    949.5000     7.24219        4529       858.4       917.6       891.0       963.1
      91.990   234.20300    952.0000     7.27148        4405       813.8       870.6       931.0       942.6
      92.010   288.81300    950.5000     7.26074        4328       824.2       826.9       974.5      1244.6
      92.040   260.95300    947.1250     7.25293        4244       830.5       883.1      1015.6      1354.2
      92.070   286.34400    964.1250     7.28516        4196       798.1       885.9       928.0      1229.1
      92.100   258.46900    985.1250     7.28320        4152       768.7       952.8      1034.4      1070.4
      92.130   256.67200    980.3750     7.26465        4175       794.0       944.9      1064.1       999.2
      92.170   255.82800    970.0000     7.24805        4230       782.4       801.0      1193.1      1118.1
      92.190   302.23400    981.6250     7.26660        4318       808.6       837.9      1302.2      1216.0
      92.220   264.46900    997.6250     7.28125        4409       792.4       856.7      1218.1      1010.8
      92.260   268.35900    988.0000     7.28809        4436       700.3       872.1      1385.6       708.5
      92.290   245.51600    973.2500     7.25488        4403       716.2       828.3      1611.3       827.0
      92.320   247.49200    977.7500     7.27637        4349       720.7       916.3      2397.9      1029.5
      92.350   297.40600    986.8750     7.28711        4253       732.6       956.0      5767.6      1044.5
      92.380   267.70300   1009.8800     7.29492        4121       715.5      1033.8     -5523.9      1152.4
      92.400   262.10900   1036.2500     7.27637        4079       775.7      1102.4    -11282.5      1027.2
      92.430   299.07800   1031.3800     7.30566        4171       815.0      1051.6      8492.3      1136.1
      92.460   294.71900   1020.3800     7.29199        4361       878.5      1195.5      3563.9      1261.0
      92.490   282.50000   1037.0000     7.29492        4631       955.4      1457.2      1428.5      1145.6
      92.530   306.06300   1059.8800     7.28711        5001      1004.4      2043.8      1169.5      1000.9
      92.560   264.20300   1036.0000     7.29492        5296      1283.5      5375.4      1087.4      1102.6
      92.580   282.62500   1003.3800     7.29688        5520      1986.5     -6209.6       947.8      1115.7
      92.610   311.81300    935.2500     7.28809        5660      3440.6    -11515.4       834.3      1348.3
      92.650   297.67200    860.7500     7.30078        6197     13268.2     10689.6       886.0      1437.5
      92.680   306.82800    774.6250     7.27637        9901    -21237.3      5121.8       917.9      1077.7
      92.710   269.54700    687.0000     7.30371       21260    -42928.6      2053.4       982.4      1110.9
      92.740   272.78100    665.1250     7.30566       43356     61558.8      1608.7      1064.6      1190.6
      92.760   310.51600    656.0000     7.30078      185050     37936.7      1520.4       970.7      1250.2
      92.790   311.28100    653.3750     7.32129     -246056     15370.4      1464.0      1068.7      1052.4
      92.820   276.96900    651.3750     7.30762     -337062      9960.1      1514.3       996.4      1196.7
      92.850   319.15600    713.8750     7.31250      284949      7195.2      1706.7       834.0      1218.9
      92.880   296.70300    788.0000     7.29883      108787      5484.8      2037.8       860.3      1442.9
      92.920   288.57800    863.1250     7.31445       27446      4527.8      2418.8       926.3      1650.5
      92.940   309.45300    938.2500     7.32227       12998      3793.0      2671.2       771.3      1497.5
