~VERSION INFORMATION SECTION
VERS.           2.0  :CWLS Log ASCII Standard - 2.0
WRAP.           NO   :One line per depth
#               Created in SeisLab
~WELL INFORMATION SECTION
#MNEM.UNIT  VALUE/NAME               :DESCRIPTION    
STRT.m  10                           :Start Depth    
STOP.m  125                          :Stop Depth     
STEP.m  0.01                         :Step           
NULL.    -999.25                     :Null Value     
WELL.    GDP1                        :Well Name      
CTRY.    Switzerland                 :Country        
CNTY.                                :County         
STAT.    Central Swiss Alps          :State          
API .                                :API number     
UWI .                                :Unique well ID 
LOC .    Grimsel Pass, Switzerland   :Well Location  
FLD .    n/a                         :Field          
COMP.    n/a                         :Company        
SRVC.    University of Lausanne      :Service Company
DATE.    2016                        :Date           
~PARAMETER INFORMATION SECTION
#MNEM .UNITS  VALUE   :DESCRIPTION OF PARAMETER
Casing.n/a    1       :slotted PVC casing      
~CURVE INFORMATION SECTION
#MNEM.UNITS  API CODES   :DESCRIPTION OF MNEMONIC
depth.m                  :measured depth         
NG   .cps                :Natural gamma          
Sp   .mV                 :Self potential         
Temp .DegC               :Temperature            
SPR  .Ohm                :Single point resistance
R8   .Ohm.m              :Normal resistivity     
R16  .Ohm.m              :Single point resistance
R32  .Ohm.m              :Normal resistivity     
R64  .Ohm.m              :Normal resistivity     
~A depth       NG          Sp          Temp        SPR         R8          R16         R32         R64         
# ...
     123.960  -999.25000   1048.0000  -999.25000    -999.250    -999.250    3238.295    3119.331    2624.749
     123.970  -999.25000   1048.0000  -999.25000    -999.250    -999.250    3238.571    3119.299    2624.570
     123.980  -999.25000   1048.0000  -999.25000    -999.250    -999.250    3238.810    3119.264    2624.394
     123.990  -999.25000   1048.0000  -999.25000    -999.250    -999.250    3239.012    3119.228    2624.224
     124.000  -999.25000   1048.0000  -999.25000    -999.250    -999.250    3239.177    3119.192    2624.061
     124.010  -999.25000   1048.0000  -999.25000    -999.250    -999.250    3239.305    3119.155    2623.905
     124.020  -999.25000   1048.0000  -999.25000    -999.250    -999.250    3239.399    3119.118    2623.758
     124.030  -999.25000   1048.0000  -999.25000    -999.250    -999.250    3239.458    3119.081    2623.620
     124.040  -999.25000   1048.0000  -999.25000    -999.250    -999.250    3239.485    3119.045    2623.492
     124.050  -999.25000   1048.0000  -999.25000    -999.250    -999.250    3239.481    3119.009    2623.374
     124.060  -999.25000   1048.0000  -999.25000    -999.250    -999.250    3239.448    3118.974    2623.268
     124.070  -999.25000   1048.0000  -999.25000    -999.250    -999.250    3239.387    3118.941    2623.172
     124.080  -999.25000   1048.0000  -999.25000    -999.250    -999.250    3239.301    3118.909    2623.088
     124.090  -999.25000   1048.0000  -999.25000    -999.250    -999.250    3239.193    3118.879    2623.016
     124.100  -999.25000   1048.0000  -999.25000    -999.250    -999.250    3239.063    3118.851    2622.955
     124.110  -999.25000   1048.0000  -999.25000    -999.250    -999.250    3238.915    3118.825    2622.905
     124.120  -999.25000   1048.0000  -999.25000    -999.250    -999.250    3238.751    3118.801    2622.867
     124.130  -999.25000   1048.0000  -999.25000    -999.250    -999.250    3238.573    3118.779    2622.839
     124.140  -999.25000   1048.0000  -999.25000    -999.250    -999.250    3238.383    3118.759    2622.822
     124.150  -999.25000   1048.0000  -999.25000    -999.250    -999.250    3238.184    3118.741    2622.814
     124.160  -999.25000   1048.0000  -999.25000    -999.250    -999.250    3237.978    3118.726    2622.816
     124.170  -999.25000   1048.0000  -999.25000    -999.250    -999.250    3237.768    3118.713    2622.827
     124.180  -999.25000   1048.0000  -999.25000    -999.250    -999.250    3237.554    3118.703    2622.847
     124.190  -999.25000   1048.0000  -999.25000    -999.250    -999.250    3237.340    3118.694    2622.874
     124.200  -999.25000   1048.0000  -999.25000    -999.250    -999.250    3237.126    3118.688    2622.908
     124.210  -999.25000   1048.0000  -999.25000    -999.250    -999.250    3236.916    3118.684    2622.948
     124.220  -999.25000   1048.0000  -999.25000    -999.250    -999.250    3236.709    3118.682    2622.994
     124.230  -999.25000   1048.0000  -999.25000    -999.250    -999.250    3236.509    3118.682    2623.045
     124.240  -999.25000   1048.0000  -999.25000    -999.250    -999.250    3236.316    3118.684    2623.100
     124.250  -999.25000   1048.0000  -999.25000    -999.250    -999.250    3236.132    3118.688    2623.159
     124.260  -999.25000   1048.0000  -999.25000    -999.250    -999.250    3235.957    3118.693    2623.220
     124.270  -999.25000   1048.0000  -999.25000    -999.250    -999.250    3235.792    3118.699    2623.283
     124.280  -999.25000   1048.0000  -999.25000    -999.250    -999.250    3235.639    3118.707    2623.348
     124.290  -999.25000   1048.0000  -999.25000    -999.250    -999.250    3235.498    3118.716    2623.414
     124.300  -999.25000   1048.0000  -999.25000    -999.250    -999.250    3235.369    3118.726    2623.480
     124.310  -999.25000   1048.0000  -999.25000    -999.250    -999.250    3235.253    3118.736    2623.545
     124.320  -999.25000   1048.0000  -999.25000    -999.250    -999.250    3235.149    3118.748    2623.610
     124.330  -999.25000   1048.0000  -999.25000    -999.250    -999.250    3235.059    3118.760    2623.673
     124.340  -999.25000   1048.0000  -999.25000    -999.250    -999.250    3234.982    3118.773    2623.735
     124.350  -999.25000   1048.0000  -999.25000    -999.250    -999.250    3234.918    3118.785    2623.794
     124.360  -999.25000   1048.0000  -999.25000    -999.250    -999.250    3234.867    3118.798    2623.850
     124.370  -999.25000   1048.0000  -999.25000    -999.250    -999.250    3234.828    3118.811    2623.904
     124.380  -999.25000   1048.0000  -999.25000    -999.250    -999.250    3234.801    3118.825    2623.954
     124.390  -999.25000   1048.0000  -999.25000    -999.250    -999.250    3234.786    3118.837    2624.001
     124.400  -999.25000   1048.0000  -999.25000    -999.250    -999.250    3234.782    3118.850    2624.044
     124.410  -999.25000   1048.0000  -999.25000    -999.250    -999.250    3234.788    3118.862    2624.083
     124.420  -999.25000   1048.0000  -999.25000    -999.250    -999.250    3234.803    3118.874    2624.118
     124.430  -999.25000   1048.0000  -999.25000    -999.250    -999.250    3234.828    3118.885    2624.150
     124.440  -999.25000   1048.0000  -999.25000    -999.250    -999.250    3234.861    3118.896    2624.177
     124.450  -999.25000   1048.0000  -999.25000    -999.250    -999.250    3234.902    3118.906    2624.201
     124.460  -999.25000   1048.0000  -999.25000    -999.250    -999.250    3234.949    3118.916    2624.220
     124.470  -999.25000   1048.0000  -999.25000    -999.250    -999.250    3235.003    3118.925    2624.236
     124.480  -999.25000   1048.0000  -999.25000    -999.250    -999.250    3235.061    3118.933    2624.247
     124.490  -999.25000   1048.0000  -999.25000    -999.250    -999.250    3235.124    3118.940    2624.255
     124.500  -999.25000   1048.0000  -999.25000    -999.250    -999.250    3235.191    3118.946    2624.260
     124.510  -999.25000   1048.0000  -999.25000    -999.250    -999.250    3235.261    3118.952    2624.261
     124.520  -999.25000   1048.0000  -999.25000    -999.250    -999.250    3235.333    3118.957    2624.259
     124.530  -999.25000   1048.0000  -999.25000    -999.250    -999.250    3235.406    3118.961    2624.254
     124.540  -999.25000   1048.0000  -999.25000    -999.250    -999.250    3235.480    3118.964    2624.247
     124.550  -999.25000   1048.0000  -999.25000    -999.250    -999.250    3235.555    3118.967    2624.236
     124.560  -999.25000   1048.0000  -999.25000    -999.250    -999.250    3235.629    3118.969    2624.224
     124.570  -999.25000   1048.0000  -999.25000    -999.250    -999.250    3235.703    3118.970    2624.210
     124.580  -999.25000   1048.0000  -999.25000    -999.250    -999.250    3235.775    3118.971    2624.193
     124.590  -999.25000   1048.0000  -999.25000    -999.250    -999.250    3235.846    3118.971    2624.175
     124.600  -999.25000   1048.0000  -999.25000    -999.250    -999.250    3235.914    3118.971    2624.156
     124.610  -999.25000   1048.0000  -999.25000    -999.250    -999.250    3235.981    3118.970    2624.136
     124.620  -999.25000   1048.0000  -999.25000    -999.250    -999.250    3236.044    3118.968    2624.115
     124.630  -999.25000   1048.0000  -999.25000    -999.250    -999.250    3236.105    3118.966    2624.093
     124.640  -999.25000   1048.0000  -999.25000    -999.250    -999.250    3236.162    3118.964    2624.071
     124.650  -999.25000   1048.0000  -999.25000    -999.250    -999.250    3236.216    3118.961    2624.048
     124.660  -999.25000   1048.0000  -999.25000    -999.250    -999.250    3236.267    3118.958    2624.026
     124.670  -999.25000   1048.0000  -999.25000    -999.250    -999.250    3236.314    3118.955    2624.003
     124.680  -999.25000   1048.0000  -999.25000    -999.250    -999.250    3236.358    3118.952    2623.981
     124.690  -999.25000   1048.0000  -999.25000    -999.250    -999.250    3236.399    3118.948    2623.959
