~VERSION INFORMATION SECTION
VERS.           2.0  :CWLS Log ASCII Standard - 2.0
WRAP.           NO   :One line per depth
#               Created in SeisLab
~WELL INFORMATION SECTION
#MNEM.UNIT  VALUE/NAME               :DESCRIPTION    
STRT.m  10                           :Start Depth    
STOP.m  125                          :Stop Depth     
STEP.m  0.01                         :Step           
NULL.    -999.25                     :Null Value     
WELL.    GDP1                        :Well Name      
CTRY.    Switzerland                 :Country        
CNTY.                                :County         
STAT.    Central Swiss Alps          :State          
API .                                :API number     
UWI .                                :Unique well ID 
LOC .    Grimsel Pass, Switzerland   :Well Location  
FLD .    n/a                         :Field          
COMP.    n/a                         :Company        
SRVC.    University of Lausanne      :Service Company
DATE.    2016                        :Date           
~PARAMETER INFORMATION SECTION
#MNEM .UNITS  VALUE   :DESCRIPTION OF PARAMETER
Casing.n/a    1       :slotted PVC casing      
~CURVE INFORMATION SECTION
#MNEM.UNITS  API CODES   :DESCRIPTION OF MNEMONIC
depth.m                  :measured depth         
NG   .cps                :Natural gamma          
Sp   .mV                 :Self potential         
Temp .DegC               :Temperature            
SPR  .Ohm                :Single point resistance
R8   .Ohm.m              :Normal resistivity     
R16  .Ohm.m              :Single point resistance
R32  .Ohm.m              :Normal resistivity     
R64  .Ohm.m              :Normal resistivity     
~A depth       NG          Sp          Temp        SPR         R8          R16         R32         R64         
# ...
      63.280   264.64840   1275.3454     6.61230    7889.010    2444.462    2001.806    1596.865    1890.481
      63.290   264.52398   1276.1034     6.60938    7901.050    2455.058    1992.780    1589.170    1899.084
      63.300   264.29785   1276.7544     6.60645    7913.090    2465.655    1983.509    1581.717    1907.692
      63.310   263.96929   1277.2163     6.59131    7836.175    2546.685    1974.033    1574.513    1916.272
      63.320   263.54307   1277.4038     6.57617    7759.260    2627.715    1964.391    1567.562    1924.795
      63.330   263.02959   1277.2312     6.57487    7762.103    2618.643    1954.621    1560.867    1933.230
      63.340   262.44406   1276.6164     6.57357    7764.947    2609.572    1944.760    1554.429    1941.548
      63.350   261.80469   1275.4837     6.57227    7767.790    2600.500    1934.845    1548.245    1949.721
      63.360   261.13060   1273.7667     6.57447    7745.798    2609.860    1924.911    1542.311    1957.723
      63.370   260.43984   1271.4109     6.57666    7723.805    2619.220    1914.992    1536.623    1965.529
      63.380   259.74803   1268.3759     6.57886    7701.812    2628.580    1905.118    1531.171    1973.115
      63.390   259.06770   1264.6368     6.58105    7679.820    2637.940    1895.319    1525.948    1980.461
      63.400   258.40814   1260.1853     6.59179    7659.203    2598.725    1885.623    1520.942    1987.548
      63.410   257.77558   1255.0302     6.60254    7638.587    2559.509    1876.055    1516.143    1994.360
      63.420   257.17358   1249.1974     6.61328    7617.970    2520.294    1866.636    1511.538    2000.882
      63.430   256.60367   1242.7290     6.60091    7664.347    2504.865    1857.388    1507.114    2007.103
      63.440   256.06631   1235.6823     6.58854    7710.723    2489.436    1848.327    1502.857    2013.014
      63.450   255.56228   1228.1283     6.57617    7757.100    2420.088    1839.467    1498.755    2018.609
      63.460   255.09390   1220.1496     6.58626    7776.153    2353.604    1830.820    1494.793    2023.885
      63.470   254.66593   1211.8388     6.59636    7795.207    2287.121    1822.394    1490.959    2028.840
      63.480   254.28588   1203.2965     6.60645    7814.260    2245.901    1814.195    1487.239    2033.476
      63.490   253.96349   1194.6287     6.60206    7823.035    2204.682    1806.224    1483.621    2037.798
      63.500   253.70996   1185.9449     6.59766    7831.810    2193.078    1798.483    1480.094    2041.812
      63.510   253.53696   1177.3553     6.59505    7747.167    2181.473    1790.968    1476.648    2045.529
      63.520   253.45581   1168.9683     6.59245    7662.523    2179.846    1783.673    1473.274    2048.958
      63.530   253.47697   1160.8871     6.58984    7577.880    2178.218    1776.590    1469.962    2052.115
      63.540   253.60976   1153.2078     6.58471    7537.995    2157.654    1769.708    1466.709    2055.015
      63.550   253.86232   1146.0158     6.57959    7498.110    2137.090    1763.013    1463.507    2057.675
      63.560   254.24149   1139.3837     6.57446    7458.225    2078.556    1756.492    1460.353    2060.116
      63.570   254.75282   1133.3694     6.56934    7418.340    2020.021    1750.126    1457.246    2062.356
      63.580   255.40035   1128.0149     6.57715    7288.797    1964.947    1743.897    1454.185    2064.420
      63.590   256.18646   1123.3453     6.58496    7159.253    1909.872    1737.785    1451.171    2066.330
      63.600   257.11158   1119.3690     6.59277    7029.710    1889.572    1731.768    1448.207    2068.110
      63.610   258.17394   1116.0788     6.59635    7004.612    1882.913    1725.825    1445.296    2069.785
      63.620   259.36930   1113.4532     6.59994    6979.514    1876.255    1719.931    1442.443    2071.379
      63.630   260.69072   1111.4586     6.60352    6954.416    1869.596    1714.065    1439.656    2072.920
      63.640   262.12817   1110.0512     6.59994    6929.318    1862.938    1708.202    1436.942    2074.431
      63.650   263.66814   1109.1796     6.59635    6904.220    1856.279    1702.320    1434.310    2075.939
      63.660   265.29296   1108.7870     6.59277    6879.121    1849.621    1696.395    1431.768    2077.469
      63.670   266.98032   1108.8135     6.59375    6854.023    1842.962    1690.405    1429.327    2079.045
      63.680   268.70322   1109.1981     6.59473    6828.925    1836.304    1684.329    1426.997    2080.690
      63.690   270.43063   1109.8804     6.59571    6803.827    1829.645    1678.147    1424.790    2082.429
      63.700   272.12929   1110.8022     6.59668    6778.729    1822.987    1671.840    1422.716    2084.282
      63.710   273.76649   1111.9089     6.59766    6753.631    1816.328    1665.391    1420.787    2086.272
      63.720   275.31311   1113.1502     6.60328    6728.533    1809.670    1658.785    1419.013    2088.416
      63.730   276.74622   1114.4809     6.60889    6703.435    1803.011    1652.008    1417.405    2090.734
      63.740   278.05056   1115.8616     6.61451    6678.337    1796.353    1645.048    1415.973    2093.241
      63.750   279.21877   1117.2585     6.62012    6653.239    1809.761    1637.897    1414.727    2095.954
      63.760   280.25065   1118.6436     6.61670    6628.140    1794.398    1630.547    1413.675    2098.885
      63.770   281.15184   1119.9945     6.61328    6603.042    1779.036    1622.993    1412.825    2102.045
      63.780   281.93231   1121.2943     6.60815    6577.944    1787.204    1615.233    1412.184    2105.446
      63.790   282.60470   1122.5308     6.60302    6552.846    1795.372    1607.267    1411.758    2109.093
      63.800   283.18283   1123.6962     6.59790    6527.748    1835.818    1599.096    1411.551    2112.995
      63.810   283.68020   1124.7867     6.59277    6502.650    1876.263    1590.726    1411.566    2117.154
      63.820   284.10865   1125.8017     6.59635    6477.552    1877.082    1582.162    1411.807    2121.573
      63.830   284.47708   1126.7431     6.59994    6452.454    1877.901    1573.413    1412.273    2126.253
      63.840   284.79034   1127.6153     6.60352    6427.356    1834.201    1564.491    1412.963    2131.191
      63.850   285.04868   1128.4239     6.60254    6402.258    1790.501    1555.408    1413.876    2136.384
      63.860   285.24775   1129.1759     6.60156    6377.160    1747.668    1546.178    1415.008    2141.827
      63.870   285.37945   1129.8787     6.60091    6352.061    1704.834    1536.817    1416.354    2147.512
      63.880   285.43321   1130.5400     6.60026    6326.963    1697.959    1527.343    1417.908    2153.429
      63.890   285.39743   1131.1675     6.59961    6301.865    1691.084    1517.776    1419.663    2159.569
      63.900   285.26071   1131.7686     6.59839    6276.767    1673.771    1508.135    1421.611    2165.918
      63.910   285.01264   1132.3498     6.59717    6251.669    1656.458    1498.441    1423.740    2172.461
      63.920   284.64407   1132.9172     6.59595    6226.571    1590.570    1488.716    1426.041    2179.181
      63.930   284.14702   1133.4759     6.59473    6201.473    1524.682    1478.983    1428.502    2186.061
      63.940   283.51461   1134.0301     6.60254    6176.375    1470.223    1469.265    1431.108    2193.081
      63.950   282.74127   1134.5833     6.61035    6151.277    1415.764    1459.586    1433.848    2200.219
      63.960   281.82333   1135.1380     6.60352    6126.179    1380.575    1449.969    1436.706    2207.453
      63.970   280.76007   1135.6958     6.59668    6101.080    1345.385    1440.437    1439.667    2214.758
      63.980   279.55501   1136.2579     6.58984    6075.982    1308.476    1431.015    1442.716    2222.108
      63.990   278.21704   1136.8247     6.58301    6050.884    1271.567    1421.725    1445.836    2229.476
      64.000   276.76118   1137.3962     6.58073    6025.786    1258.585    1412.590    1449.010    2236.835
      64.010   275.20862   1137.9721     6.57845    6000.688    1245.603    1403.631    1452.223    2244.155
