~VERSION INFORMATION SECTION
VERS.           2.0  :CWLS Log ASCII Standard - 2.0
WRAP.           NO   :One line per depth
#               Created in SeisLab
~WELL INFORMATION SECTION
#MNEM.UNIT  VALUE/NAME               :DESCRIPTION    
STRT.m  10                           :Start Depth    
STOP.m  124                          :Stop Depth     
STEP.m  0.01                         :Step           
NULL.    -999.25                     :Null Value     
WELL.    GDP1                        :Well Name      
CTRY.    Switzerland                 :Country        
CNTY.                                :County         
STAT.    Central Swiss Alps          :State          
API .                                :API number     
UWI .                                :Unique well ID 
LOC .    Grimsel pass, Switzerland   :Well Location  
FLD .    n/a                         :Field          
COMP.    n/a                         :Company        
SRVC.    University of Lausanne      :Service Company
DATE.    2015/2016                   :Date           
~PARAMETER INFORMATION SECTION
#MNEM .UNITS  VALUE   :DESCRIPTION OF PARAMETER
Casing.n/a    0       :open hole/cased hole    
~CURVE INFORMATION SECTION
#MNEM       .UNITS  API CODES   :DESCRIPTION OF MNEMONIC      
depth       .m                  :measured depth (interpolated)
BHR velocity.m/ns               :BHR velocity 2015            
BHR velocity.m/ns               :BHR velocity 2016            
~A depth       BHR_velocity BHR_velocity
# ...
      40.380     0.11246     0.11337
      40.390     0.11245     0.11332
      40.400     0.11246     0.11326
      40.410     0.11247     0.11320
      40.420     0.11248     0.11318
      40.430     0.11249     0.11316
      40.440     0.11253     0.11314
      40.450     0.11256     0.11312
      40.460     0.11258     0.11311
      40.470     0.11260     0.11314
      40.480     0.11262     0.11318
      40.490     0.11265     0.11322
      40.500     0.11263     0.11326
      40.510     0.11262     0.11330
      40.520     0.11261     0.11330
      40.530     0.11260     0.11330
      40.540     0.11260     0.11330
      40.550     0.11260     0.11330
      40.560     0.11260     0.11330
      40.570     0.11260     0.11332
      40.580     0.11260     0.11333
      40.590     0.11260     0.11335
      40.600     0.11266     0.11337
      40.610     0.11271     0.11339
      40.620     0.11275     0.11349
      40.630     0.11280     0.11358
      40.640     0.11282     0.11368
      40.650     0.11284     0.11378
      40.660     0.11289     0.11387
      40.670     0.11293     0.11389
      40.680     0.11295     0.11391
      40.690     0.11297     0.11393
      40.700     0.11296     0.11395
      40.710     0.11295     0.11397
      40.720     0.11294     0.11401
      40.730     0.11293     0.11405
      40.740     0.11293     0.11409
      40.750     0.11293     0.11412
      40.760     0.11290     0.11416
      40.770     0.11286     0.11416
      40.780     0.11285     0.11416
      40.790     0.11284     0.11416
      40.800     0.11283     0.11416
      40.810     0.11282     0.11416
      40.820     0.11280     0.11416
      40.830     0.11278     0.11416
      40.840     0.11273     0.11416
      40.850     0.11269     0.11416
      40.860     0.11263     0.11416
      40.870     0.11258     0.11409
      40.880     0.11253     0.11401
      40.890     0.11247     0.11393
      40.900     0.11241     0.11385
      40.910     0.11234     0.11378
      40.920     0.11228     0.11370
      40.930     0.11221     0.11362
      40.940     0.11216     0.11355
      40.950     0.11210     0.11347
      40.960     0.11204     0.11339
      40.970     0.11197     0.11330
      40.980     0.11189     0.11320
      40.990     0.11180     0.11311
      41.000     0.11174     0.11301
      41.010     0.11167     0.11292
      41.020     0.11159     0.11284
      41.030     0.11150     0.11276
      41.040     0.11141     0.11269
      41.050     0.11133     0.11261
      41.060     0.11125     0.11254
      41.070     0.11118     0.11244
      41.080     0.11112     0.11235
      41.090     0.11105     0.11226
      41.100     0.11099     0.11216
      41.110     0.11093     0.11207
      41.120     0.11089     0.11203
      41.130     0.11086     0.11199
      41.140     0.11083     0.11196
      41.150     0.11080     0.11192
      41.160     0.11076     0.11188
      41.170     0.11071     0.11181
      41.180     0.11067     0.11173
      41.190     0.11063     0.11166
      41.200     0.11060     0.11158
      41.210     0.11057     0.11151
      41.220     0.11051     0.11144
      41.230     0.11046     0.11136
      41.240     0.11039     0.11129
      41.250     0.11031     0.11121
      41.260     0.11027     0.11114
      41.270     0.11023     0.11109
      41.280     0.11019     0.11103
      41.290     0.11015     0.11097
      41.300     0.11008     0.11092
      41.310     0.11002     0.11086
      41.320     0.10996     0.11077
      41.330     0.10990     0.11068
      41.340     0.10986     0.11059
      41.350     0.10981     0.11050
      41.360     0.10977     0.11041
      41.370     0.10973     0.11039
      41.380     0.10967     0.11037
      41.390     0.10961     0.11035
      41.400     0.10957     0.11034
      41.410     0.10952     0.11032
      41.420     0.10949     0.11025
      41.430     0.10946     0.11017
      41.440     0.10945     0.11010
      41.450     0.10944     0.11003
      41.460     0.10942     0.10996
      41.470     0.10940     0.11005
      41.480     0.10940     0.11014
      41.490     0.10940     0.11023
      41.500     0.10939     0.11032
      41.510     0.10938     0.11041
      41.520     0.10938     0.11035
      41.530     0.10938     0.11030
      41.540     0.10937     0.11025
      41.550     0.10936     0.11019
      41.560     0.10936     0.11014
      41.570     0.10936     0.11014
      41.580     0.10937     0.11014
      41.590     0.10938     0.11014
      41.600     0.10938     0.11014
      41.610     0.10938     0.11014
      41.620     0.10938     0.11019
      41.630     0.10938     0.11025
      41.640     0.10937     0.11030
      41.650     0.10936     0.11035
      41.660     0.10936     0.11041
      41.670     0.10936     0.11043
      41.680     0.10937     0.11045
      41.690     0.10938     0.11046
      41.700     0.10939     0.11048
      41.710     0.10940     0.11050
      41.720     0.10941     0.11050
      41.730     0.10942     0.11050
      41.740     0.10944     0.11050
      41.750     0.10946     0.11050
      41.760     0.10949     0.11050
      41.770     0.10952     0.11054
      41.780     0.10950     0.11057
      41.790     0.10948     0.11061
      41.800     0.10950     0.11065
      41.810     0.10952     0.11068
      41.820     0.10955     0.11065
      41.830     0.10957     0.11061
      41.840     0.10959     0.11057
      41.850     0.10961     0.11054
      41.860     0.10961     0.11050
      41.870     0.10961     0.11065
      41.880     0.10965     0.11079
      41.890     0.10969     0.11094
      41.900     0.10969     0.11109
      41.910     0.10969     0.11123
      41.920     0.10973     0.11136
      41.930     0.10977     0.11149
      41.940     0.10981     0.11162
      41.950     0.10986     0.11175
      41.960     0.10990     0.11188
      41.970     0.10994     0.11192
      41.980     0.11001     0.11196
      41.990     0.11008     0.11199
      42.000     0.11017     0.11203
      42.010     0.11025     0.11207
      42.020     0.11031     0.11214
      42.030     0.11038     0.11222
      42.040     0.11045     0.11229
      42.050     0.11052     0.11237
      42.060     0.11060     0.11244
      42.070     0.11067     0.11248
      42.080     0.11072     0.11252
      42.090     0.11078     0.11256
      42.100     0.11085     0.11259
      42.110     0.11093     0.11263
      42.120     0.11099     0.11267
      42.130     0.11105     0.11271
      42.140     0.11112     0.11275
      42.150     0.11118     0.11278
      42.160     0.11124     0.11282
      42.170     0.11131     0.11288
      42.180     0.11137     0.11293
      42.190     0.11144     0.11299
      42.200     0.11149     0.11305
      42.210     0.11154     0.11311
      42.220     0.11157     0.11316
      42.230     0.11161     0.11322
      42.240     0.11164     0.11328
      42.250     0.11167     0.11333
      42.260     0.11169     0.11339
      42.270     0.11171     0.11341
      42.280     0.11174     0.11343
      42.290     0.11176     0.11345
      42.300     0.11176     0.11347
      42.310     0.11176     0.11349
      42.320     0.11177     0.11351
      42.330     0.11178     0.11353
      42.340     0.11178     0.11355
      42.350     0.11178     0.11356
      42.360     0.11178     0.11358
      42.370     0.11178     0.11364
      42.380     0.11179     0.11370
      42.390     0.11180     0.11376
      42.400     0.11182     0.11382
      42.410     0.11184     0.11387
      42.420     0.11189     0.11389
      42.430     0.11193     0.11391
      42.440     0.11197     0.11393
      42.450     0.11202     0.11395
      42.460     0.11207     0.11397
      42.470     0.11212     0.11407
      42.480     0.11218     0.11416
      42.490     0.11223     0.11426
      42.500     0.11230     0.11436
      42.510     0.11236     0.11446
      42.520     0.11239     0.11455
      42.530     0.11243     0.11465
      42.540     0.11247     0.11475
