~VERSION INFORMATION SECTION
VERS.           2.0  :CWLS Log ASCII Standard - 2.0
WRAP.           NO   :One line per depth
#               Created in SeisLab
~WELL INFORMATION SECTION
#MNEM.UNIT  VALUE/NAME               :DESCRIPTION    
STRT.m  10                           :Start Depth    
STOP.m  125                          :Stop Depth     
STEP.m  0.01                         :Step           
NULL.    -999.25                     :Null Value     
WELL.    GDP1                        :Well Name      
CTRY.    Switzerland                 :Country        
CNTY.                                :County         
STAT.    Central Swiss Alps          :State          
API .                                :API number     
UWI .                                :Unique well ID 
LOC .    Grimsel Pass, Switzerland   :Well Location  
FLD .    n/a                         :Field          
COMP.    n/a                         :Company        
SRVC.    University of Lausanne      :Service Company
DATE.    2015                        :Date           
~PARAMETER INFORMATION SECTION
#MNEM .UNITS    VALUE   :DESCRIPTION OF PARAMETER
Casing.n/a      0       :open hole               
Mud   .Polymer  1       :Mud type                
~CURVE INFORMATION SECTION
#MNEM.UNITS  API CODES   :DESCRIPTION OF MNEMONIC
depth.m                  :measured depth         
NG   .cps                :Natural gamma          
Sp   .mV                 :Self potential         
Temp .DegC               :Temperature            
SPR  .Ohm                :Single point resistance
R8   .Ohm.m              :Normal resistivity     
R16  .Ohm.m              :Single point resistance
R32  .Ohm.m              :Normal resistivity     
R64  .Ohm.m              :Normal resistivity     
~A depth       NG          Sp          Temp        SPR         R8          R16         R32         R64         
# ...
      47.740   218.14110    558.3937    11.04490    2704.866     733.634    1085.662    1593.067    2220.605
      47.750   217.94417    559.5162    11.02930    2734.123     734.376    1085.259    1589.103    2222.305
      47.760   217.85154    560.4577    11.03710    2764.709     735.336    1084.745    1585.049    2223.980
      47.770   217.85695    561.2003    11.04490    2796.535     736.515    1084.118    1580.925    2225.636
      47.780   217.95372    561.7334    11.04200    2829.507     737.914    1083.377    1576.749    2227.282
      47.790   218.13495    562.0539    11.03910    2863.523     739.533    1082.522    1572.544    2228.928
      47.800   218.39367    562.1658    11.03715    2898.477     741.371    1081.556    1568.330    2230.584
      47.810   218.72287    562.0794    11.03520    2934.256     743.425    1080.481    1564.132    2232.261
      47.820   219.11558    561.8108    11.01465    2970.741     745.692    1079.301    1559.974    2233.970
      47.830   219.56485    561.3802    10.99410    3007.808     748.167    1078.021    1555.880    2235.722
      47.840   220.06385    560.8111    11.03125    3045.329     750.846    1076.649    1551.878    2237.529
      47.850   220.60589    560.1291    11.06840    3083.169     753.721    1075.190    1547.993    2239.403
      47.860   221.18446    559.3610    11.05470    3121.191     756.785    1073.655    1544.255    2241.355
      47.870   221.79331    558.5337    11.04100    3159.252     760.028    1072.053    1540.691    2243.396
      47.880   222.42648    557.6738    11.04200    3197.207     763.441    1070.395    1537.330    2245.536
      47.890   223.07834    556.8062    11.04300    3234.907     767.011    1068.694    1534.201    2247.784
      47.900   223.74367    555.9533    11.04005    3272.200     770.728    1066.961    1531.333    2250.150
      47.910   224.41768    555.1340    11.03710    3308.932     774.575    1065.212    1528.757    2252.640
      47.920   225.09593    554.3634    11.04395    3344.948     778.539    1063.461    1526.502    2255.261
      47.930   225.77430    553.6524    11.05080    3380.091     782.604    1061.724    1524.597    2258.017
      47.940   226.44882    553.0079    11.04395    3414.204     786.753    1060.018    1523.070    2260.913
      47.950   227.11561    552.4332    11.03710    3447.129     790.967    1058.359    1521.951    2263.949
      47.960   227.77080    551.9290    11.05175    3478.712     795.228    1056.766    1521.266    2267.128
      47.970   228.41048    551.4938    11.06640    3508.797     799.517    1055.256    1521.042    2270.447
      47.980   229.03059    551.1248    11.04100    3537.232     803.814    1053.849    1521.304    2273.903
      47.990   229.62691    550.8185    11.01560    3563.869     808.097    1052.564    1522.076    2277.492
      48.000   230.19499    550.5712    11.04395    3588.564     812.346    1051.420    1523.381    2281.208
      48.010   230.73013    550.3795    11.07230    3611.176     816.541    1050.437    1525.240    2285.042
      48.020   231.22743    550.2408    11.05665    3631.573     820.659    1049.636    1527.670    2288.984
      48.030   231.68179    550.1529    11.04100    3649.628     824.680    1049.034    1530.689    2293.024
      48.040   232.08801    550.1139    11.03905    3665.223     828.584    1048.654    1534.311    2297.147
      48.050   232.44077    550.1208    11.03710    3678.248     832.351    1048.514    1538.547    2301.340
      48.060   232.73482    550.1682    11.01855    3688.606     835.961    1048.633    1543.406    2305.586
      48.070   232.96492    550.2471    11.00000    3696.207     839.397    1049.031    1548.895    2309.869
      48.080   233.12608    550.3437    11.01170    3700.978     842.641    1049.726    1555.017    2314.170
      48.090   233.21357    550.4398    11.02340    3702.855     845.677    1050.736    1561.771    2318.469
      48.100   233.22313    550.5134    11.03220    3701.792     848.494    1052.078    1569.154    2322.746
      48.110   233.15113    550.5407    11.04100    3697.756     851.077    1053.770    1577.160    2326.980
      48.120   232.99470    550.4982    11.03710    3690.733     853.418    1055.826    1585.778    2331.149
      48.130   232.75189    550.3658    11.03320    3680.724     855.509    1058.261    1594.995    2335.231
      48.140   232.42183    550.1286    11.03420    3667.751     857.345    1061.089    1604.792    2339.203
      48.150   232.00485    549.7795    11.03520    3651.854     858.924    1064.322    1615.150    2343.042
      48.160   231.50263    549.3205    11.04590    3633.091     860.247    1067.971    1626.043    2346.727
      48.170   230.91834    548.7628    11.05660    3611.545     861.317    1072.045    1637.444    2350.234
      48.180   230.25664    548.1261    11.05855    3587.318     862.142    1076.554    1649.321    2353.542
      48.190   229.52372    547.4376    11.06050    3560.533     862.733    1081.502    1661.638    2356.630
      48.200   228.72728    546.7293    11.02535    3531.336     863.103    1086.896    1674.358    2359.476
      48.210   227.87633    546.0353    10.99020    3499.896     863.270    1092.737    1687.439    2362.061
      48.220   226.98105    545.3890    10.99610    3466.402     863.256    1099.028    1700.836    2364.366
      48.230   226.05240    544.8194    11.00200    3431.069     863.086    1105.766    1714.501    2366.374
      48.240   225.10182    544.3494    11.01665    3394.130     862.789    1112.950    1728.386    2368.070
      48.250   224.14084    543.9927    11.03130    3355.841     862.397    1120.575    1742.437    2369.437
      48.260   223.18082    543.7533    11.02735    3316.480     861.947    1128.633    1756.601    2370.465
      48.270   222.23271    543.6248    11.02340    3276.344     861.479    1137.114    1770.821    2371.140
      48.280   221.30691    543.5910    11.02930    3235.748     861.035    1146.009    1785.040    2371.456
      48.290   220.41314    543.6281    11.03520    3195.026     860.663    1155.303    1799.199    2371.403
      48.300   219.56036    543.7070    11.03030    3154.529     860.413    1164.979    1813.239    2370.978
      48.310   218.75664    543.7964    11.02540    3114.623     860.337    1175.021    1827.099    2370.177
      48.320   218.00911    543.8659    11.02835    3075.686     860.491    1185.408    1840.722    2368.999
      48.330   217.32375    543.8886    11.03130    3038.108     860.931    1196.117    1854.046    2367.447
      48.340   216.70542    543.8433    11.02835    3002.288     861.718    1207.124    1867.015    2365.524
      48.350   216.15776    543.7154    11.02540    2968.634     862.914    1218.403    1879.570    2363.237
      48.360   215.68314    543.4976    11.03810    2937.556     864.579    1229.924    1891.655    2360.593
      48.370   215.28263    543.1894    11.05080    2909.468     866.778    1241.658    1903.218    2357.605
      48.380   214.95594    542.7954    11.02540    2884.784     869.573    1253.573    1914.207    2354.284
      48.390   214.70143    542.3246    11.00000    2863.914     873.029    1265.635    1924.573    2350.648
      48.400   214.51616    541.7876    11.00585    2847.262     877.207    1277.809    1934.270    2346.714
      48.410   214.39598    541.1956    11.01170    2835.224     882.169    1290.058    1943.257    2342.502
      48.420   214.33573    540.5584    11.00195    2828.184     887.974    1302.345    1951.494    2338.033
      48.430   214.32958    539.8838    10.99220    2826.510     894.679    1314.633    1958.947    2333.334
      48.440   214.37122    539.1777    10.99805    2830.556     902.339    1326.880    1965.585    2328.429
      48.450   214.45410    538.4447    11.00390    2840.652     911.004    1339.049    1971.381    2323.348
      48.460   214.57157    537.6895    11.01075    2857.105     920.721    1351.099    1976.315    2318.120
      48.470   214.71687    536.9182    11.01760    2880.196     931.532    1362.990    1980.368    2312.778
