~VERSION INFORMATION SECTION
VERS.           2.0  :CWLS Log ASCII Standard - 2.0
WRAP.           NO   :One line per depth
#               Created in SeisLab
~WELL INFORMATION SECTION
#MNEM.UNIT  VALUE/NAME               :DESCRIPTION    
STRT.m  10                           :Start Depth    
STOP.m  125                          :Stop Depth     
STEP.m  0.01                         :Step           
NULL.    -999.25                     :Null Value     
WELL.    GDP1                        :Well Name      
CTRY.    Switzerland                 :Country        
CNTY.                                :County         
STAT.    Central Swiss Alps          :State          
API .                                :API number     
UWI .                                :Unique well ID 
LOC .    Grimsel Pass, Switzerland   :Well Location  
FLD .    n/a                         :Field          
COMP.    n/a                         :Company        
SRVC.    University of Lausanne      :Service Company
DATE.    2015                        :Date           
~PARAMETER INFORMATION SECTION
#MNEM .UNITS    VALUE   :DESCRIPTION OF PARAMETER
Casing.n/a      0       :open hole               
Mud   .Polymer  1       :Mud type                
~CURVE INFORMATION SECTION
#MNEM.UNITS  API CODES   :DESCRIPTION OF MNEMONIC
depth.m                  :measured depth         
NG   .cps                :Natural gamma          
Sp   .mV                 :Self potential         
Temp .DegC               :Temperature            
SPR  .Ohm                :Single point resistance
R8   .Ohm.m              :Normal resistivity     
R16  .Ohm.m              :Single point resistance
R32  .Ohm.m              :Normal resistivity     
R64  .Ohm.m              :Normal resistivity     
~A depth       NG          Sp          Temp        SPR         R8          R16         R32         R64         
# ...
     101.020   280.44519    626.0191     9.97265   12851.316    6090.512    3814.047    3285.948    3059.337
     101.030   279.96216    625.2562     9.99609   12695.261    6008.493    3794.561    3306.479    3078.105
     101.040   279.41972    624.2248     9.98438   12532.831    5924.758    3776.387    3327.074    3095.510
     101.050   278.82828    622.9710     9.97266   12365.068    5839.812    3759.588    3347.567    3111.463
     101.060   278.19785    621.5454     9.95898   12193.041    5754.154    3744.212    3367.789    3125.879
     101.070   277.53781    620.0003     9.94531   12017.842    5668.279    3730.294    3387.575    3138.681
     101.080   276.85678    618.3889     9.94726   11840.576    5582.674    3717.852    3406.760    3149.801
     101.090   276.16253    616.7627     9.94922   11662.354    5497.810    3706.890    3425.183    3159.182
     101.100   275.46202    615.1709     9.96191   11484.283    5414.143    3697.397    3442.691    3166.773
     101.110   274.76141    613.6589     9.97461   11307.459    5332.111    3689.347    3459.135    3172.538
     101.120   274.06624    612.2686     9.98047   11132.957    5252.124    3682.700    3474.375    3176.450
     101.130   273.38152    611.0380     9.98633   10961.827    5174.571    3677.402    3488.278    3178.491
     101.140   272.71201    610.0013     9.99219   10795.080    5099.809    3673.387    3500.724    3178.660
     101.150   272.06236    609.1888     9.99805   10633.685    5028.165    3670.574    3511.603    3176.962
     101.160   271.43725    608.6256     9.97754   10478.561    4959.932    3668.872    3520.817    3173.420
     101.170   270.84145    608.3309     9.95703   10330.569    4895.368    3668.182    3528.281    3168.063
     101.180   270.27977    608.3160     9.95312   10190.503    4834.692    3668.390    3533.926    3160.937
     101.190   269.75690    608.5825     9.94922   10059.091    4778.089    3669.378    3537.696    3152.098
     101.200   269.27718    609.1202     9.95215    9936.983    4725.700    3671.020    3539.553    3141.612
     101.210   268.84443    609.9060     9.95508    9824.748    4677.631    3673.182    3539.471    3129.558
     101.220   268.46171    610.9034     9.95703    9722.874    4633.946    3675.728    3537.444    3116.025
     101.230   268.13125    612.0643     9.95898    9631.757    4594.668    3678.516    3533.481    3101.114
     101.240   267.85432    613.3308     9.95898    9551.703    4559.783    3681.405    3527.609    3084.931
     101.250   267.63136    614.6389     9.95898    9482.927    4529.238    3684.251    3519.870    3067.595
     101.260   267.46203    615.9217     9.95215    9425.547    4502.944    3686.912    3510.324    3049.232
     101.270   267.34549    617.1122     9.94531    9379.589    4480.774    3689.248    3499.047    3029.972
     101.280   267.28053    618.1457     9.95508    9344.981    4462.568    3691.124    3486.130    3009.956
     101.290   267.26581    618.9610     9.96484    9321.562    4448.135    3692.409    3471.678    2989.326
     101.300   267.30000    619.5016     9.95020    9309.075    4437.253    3692.977    3455.814    2968.230
     101.310   267.38187    619.7162     9.93555    9307.175    4429.674    3692.713    3438.670    2946.819
     101.320   267.51047    619.5588     9.93945    9315.433    4425.124    3691.508    3420.394    2925.245
     101.330   267.68519    618.9901     9.94336    9333.334    4423.309    3689.263    3401.142    2903.661
     101.340   267.90584    617.9782     9.95410    9360.290    4423.916    3685.894    3381.082    2882.221
     101.350   268.17264    616.5002     9.96484    9395.637    4426.615    3681.323    3360.390    2861.077
     101.360   268.48594    614.5443     9.95508    9438.647    4431.066    3675.489    3339.249    2840.378
     101.370   268.84595    612.1115     9.94531    9488.532    4436.919    3668.344    3317.848    2820.271
     101.380   269.25227    609.2174     9.95898    9544.450    4443.819    3659.853    3296.381    2800.898
     101.390   269.70360    605.8932     9.97266    9605.514    4451.408    3649.995    3275.041    2782.395
     101.400   270.19755    602.1853     9.97266    9670.798    4459.330    3638.766    3254.027    2764.893
     101.410   270.73052    598.1551     9.97266    9739.348    4467.232    3626.176    3233.533    2748.516
     101.420   271.29782    593.8772     9.95801    9810.187    4474.771    3612.249    3213.752    2733.378
     101.430   271.89373    589.4370     9.94336    9882.325    4481.612    3597.025    3194.874    2719.588
     101.440   272.51175    584.9286     9.94336    9954.768    4487.436    3580.560    3177.082    2707.242
     101.450   273.14475    580.4516     9.94336   10026.526    4491.939    3562.921    3160.554    2696.429
     101.460   273.78523    576.1081     9.95215   10096.620    4494.836    3544.193    3145.456    2687.225
     101.470   274.42559    572.0000     9.96094   10164.093    4495.865    3524.470    3131.947    2679.699
     101.480   275.05833    568.2258     9.95703   10228.017    4494.785    3503.862    3120.174    2673.904
     101.490   275.67631    564.8775     9.95313   10287.503    4491.382    3482.487    3110.271    2669.884
     101.500   276.27287    562.0379     9.96582   10341.705    4485.470    3460.477    3102.359    2667.671
     101.510   276.84204    559.7769     9.97852   10389.828    4476.891    3437.970    3096.543    2667.285
     101.520   277.37858    558.1487     9.97364   10431.141    4465.517    3415.115    3092.914    2668.734
     101.530   277.87806    557.1884     9.96875   10464.974    4451.250    3392.065    3091.547    2672.011
     101.540   278.33691    556.9103     9.97461   10490.730    4434.025    3368.981    3092.498    2677.102
     101.550   278.75234    557.3057     9.98047   10507.889    4413.809    3346.027    3095.808    2683.975
     101.560   279.12228    558.3428     9.97168   10516.012    4390.599    3323.369    3101.499    2692.592
     101.570   279.44534    559.9669     9.96289   10514.746    4364.425    3301.174    3109.576    2702.897
     101.580   279.72063    562.1022     9.94726   10503.824    4335.350    3279.610    3120.025    2714.829
     101.590   279.94771    564.6541     9.93164   10483.071    4303.464    3258.842    3132.815    2728.310
     101.600   280.12657    567.5132     9.94824   10452.406    4268.891    3239.032    3147.897    2743.256
     101.610   280.25759    570.5593     9.96484   10411.839    4231.780    3220.338    3165.205    2759.569
     101.620   280.34154    573.6668     9.96680   10361.473    4192.308    3202.910    3184.656    2777.144
     101.630   280.37953    576.7101     9.96875   10301.505    4150.681    3186.892    3206.150    2795.866
     101.640   280.37296    579.5692     9.96094   10232.222    4107.124    3172.418    3229.574    2815.610
     101.650   280.32353    582.1357     9.95313   10154.000    4061.887    3159.614    3254.797    2836.245
     101.660   280.23317    584.3169     9.95118   10067.301    4015.239    3148.593    3281.676    2857.632
     101.670   280.10398    586.0402     9.94922    9972.669    3967.468    3139.455    3310.057    2879.624
     101.680   279.93817    587.2557     9.94922    9870.724    3918.874    3132.291    3339.772    2902.072
     101.690   279.73799    587.9383     9.94922    9762.160    3869.775    3127.174    3370.644    2924.818
     101.700   279.50567    588.0882     9.92871    9647.737    3820.495    3124.166    3402.486    2947.703
     101.710   279.24345    587.7309     9.90820    9528.276    3771.368    3123.310    3435.105    2970.564
     101.720   278.95352    586.9162     9.93359    9404.652    3722.735    3124.637    3468.300    2993.235
     101.730   278.63808    585.7156     9.95898    9277.787    3674.936    3128.163    3501.866    3015.551
     101.740   278.29939    584.2193     9.94238    9148.641    3628.316    3133.884    3535.596    3037.345
     101.750   277.94001    582.5313     9.92578    9018.206    3583.214    3141.784    3569.279    3058.452
