~VERSION INFORMATION SECTION
VERS.           2.0  :CWLS Log ASCII Standard - 2.0
WRAP.           NO   :One line per depth
#               Created in SeisLab
~WELL INFORMATION SECTION
#MNEM.UNIT  VALUE/NAME               :DESCRIPTION    
STRT.m  10                           :Start Depth    
STOP.m  124                          :Stop Depth     
STEP.m  0.01                         :Step           
NULL.    -999.25                     :Null Value     
WELL.    GDP1                        :Well Name      
CTRY.    Switzerland                 :Country        
CNTY.                                :County         
STAT.    Central Swiss Alps          :State          
API .                                :API number     
UWI .                                :Unique well ID 
LOC .    Grimsel pass, Switzerland   :Well Location  
FLD .    n/a                         :Field          
COMP.    n/a                         :Company        
SRVC.    University of Lausanne      :Service Company
DATE.    2015                        :Date           
~PARAMETER INFORMATION SECTION
#MNEM .UNITS    VALUE   :DESCRIPTION OF PARAMETER
Casing.n/a      0       :open hole               
Mud   .Polymer  1       :Mud type                
~CURVE INFORMATION SECTION
#MNEM.UNITS  API CODES   :DESCRIPTION OF MNEMONIC      
depth.m                  :measured depth (interpolated)
Cal  .mm                 :Caliper                      
NN   .cps                :Neutron-Neutron              
GG   .cps                :Gamma-Gamma                  
~A depth       Cal         NN          GG          
# ...
      32.960   103.97525    500.4620   1160.8395
      32.970   103.32170    512.9266   1157.6620
      32.980   103.34065    509.0819   1163.3670
      32.990   103.35960    505.2373   1169.0720
      33.000   103.67015    489.9982   1208.8590
      33.010   103.98070    474.7591   1248.6460
      33.020   104.84090    478.4125   1238.2980
      33.030   105.70110    482.0660   1227.9500
      33.040   106.40725    486.5822   1210.9815
      33.050   107.11340    491.0985   1194.0130
      33.060   105.71320    495.3514   1196.7380
      33.070   104.31300    499.6042   1199.4630
      33.080   103.61215    489.9593   1188.5275
      33.090   102.91130    480.3143   1177.5920
      33.100   102.90550    479.2255   1173.6005
      33.110   102.89970    478.1367   1169.6090
      33.120   102.89915    483.2537   1193.6120
      33.130   102.89860    488.3707   1217.6150
      33.140   102.89870    487.0395   1224.9645
      33.150   102.89880    485.7084   1232.3140
      33.160   102.89885    486.2942   1228.0690
      33.170   102.89890    486.8800   1223.8240
      33.180   102.89945    488.7556   1201.8125
      33.190   102.90000    490.6312   1179.8010
      33.200   102.90065    489.5476   1179.4765
      33.210   102.90130    488.4641   1179.1520
      33.220   102.90385    487.1205   1180.5525
      33.230   102.90640    485.7768   1181.9530
      33.240   102.91485    484.8106   1171.8875
      33.250   102.92330    483.8445   1161.8220
      33.260   102.90095    491.5074   1153.3490
      33.270   102.87860    499.1703   1144.8760
      33.280   102.88145    501.6191   1139.4125
      33.290   102.88430    504.0679   1133.9490
      33.300   102.89365    502.0363   1135.0990
      33.310   102.90300    500.0047   1136.2490
      33.320   102.90940    491.5100   1132.5440
      33.330   102.91580    483.0152   1128.8390
      33.340   102.94860    480.0195   1126.3120
      33.350   102.98140    477.0238   1123.7850
      33.360   103.20000    477.4087   1127.8705
      33.370   103.41860    477.7937   1131.9560
      33.380   103.89110    464.9282   1132.7270
      33.390   104.36360    452.0627   1133.4980
      33.400   104.50800    448.9041   1138.7140
      33.410   104.65240    445.7455   1143.9300
      33.420   104.35665    450.0462   1163.0890
      33.430   104.06090    454.3469   1182.2480
      33.440   103.50940    457.4572   1176.7925
      33.450   102.95790    460.5675   1171.3370
      33.460   102.98565    464.6060   1161.2580
      33.470   103.01340    468.6444   1151.1790
      33.480   102.99095    472.8269   1147.2250
      33.490   102.96850    477.0094   1143.2710
      33.500   102.91035    472.5879   1127.6825
      33.510   102.85220    468.1664   1112.0940
      33.520   102.84645    465.3478   1102.9720
      33.530   102.84070    462.5292   1093.8500
      33.540   102.83925    460.9210   1109.9990
      33.550   102.83780    459.3127   1126.1480
      33.560   102.83690    457.2014   1119.4345
      33.570   102.83600    455.0902   1112.7210
      33.580   102.84110    469.3078   1105.5570
      33.590   102.84620    483.5254   1098.3930
      33.600   102.92105    507.0279   1106.8305
      33.610   102.99590    530.5305   1115.2680
      33.620   103.03630    503.4524   1115.0875
      33.630   103.07670    476.3744   1114.9070
      33.640   103.06085    467.8537   1112.5815
      33.650   103.04500    459.3330   1110.2560
      33.660   103.08830    465.1850   1108.7130
      33.670   103.13160    471.0370   1107.1700
      33.680   103.06940    476.4218   1089.2415
      33.690   103.00720    481.8067   1071.3130
      33.700   102.93320    481.8995   1052.5645
      33.710   102.85920    481.9922   1033.8160
      33.720   102.85945    478.9826   1024.9860
      33.730   102.85970    475.9729   1016.1560
      33.740   102.85600    487.8728   1028.8205
      33.750   102.85230    499.7726   1041.4850
      33.760   102.85120    494.3615   1062.6975
      33.770   102.85010    488.9505   1083.9100
      33.780   102.84895    471.8140   1111.4485
      33.790   102.84780    454.6775   1138.9870
      33.800   102.84700    463.1429   1124.9885
      33.810   102.84620    471.6084   1110.9900
      33.820   102.86485    473.6549   1091.7565
      33.830   102.88350    475.7015   1072.5230
      33.840   102.91600    473.0694   1070.3025
      33.850   102.94850    470.4373   1068.0820
      33.860   103.05080    472.3905   1073.5965
      33.870   103.15310    474.3437   1079.1110
      33.880   103.97390    469.5510   1085.8555
      33.890   104.79470    464.7583   1092.6000
      33.900   104.21275    456.3276   1096.8425
      33.910   103.63080    447.8969   1101.0850
      33.920   104.09425    463.1712   1083.1330
      33.930   104.55770    478.4455   1065.1810
      33.940   104.37265    483.7342   1052.5430
      33.950   104.18760    489.0230   1039.9050
      33.960   103.87125    486.1812   1057.2660
      33.970   103.55490    483.3394   1074.6270
      33.980   103.55140    474.8894   1077.8640
      33.990   103.54790    466.4394   1081.1010
      34.000   103.20865    472.6491   1080.3200
      34.010   102.86940    478.8589   1079.5390
      34.020   102.85175    494.4493   1078.7580
      34.030   102.83410    510.0398   1077.9770
      34.040   102.83520    495.7749   1097.2925
      34.050   102.83630    481.5099   1116.6080
      34.060   102.83580    476.7549   1132.8175
      34.070   102.83530    472.0000   1149.0270
      34.080   102.84075    475.0702   1142.4360
      34.090   102.84620    478.1405   1135.8450
      34.100   102.85615    487.8108   1131.6305
      34.110   102.86610    497.4811   1127.4160
      34.120   102.88320    501.7701   1130.9670
      34.130   102.90030    506.0591   1134.5180
      34.140   102.91620    504.9567   1156.3875
      34.150   102.93210    503.8543   1178.2570
      34.160   102.94490    484.6538   1188.9065
      34.170   102.95770    465.4532   1199.5560
      34.180   103.04155    470.3037   1203.5265
      34.190   103.12540    475.1542   1207.4970
      34.200   103.23805    497.0439   1202.4410
      34.210   103.35070    518.9335   1197.3850
      34.220   103.39830    516.3932   1193.4265
      34.230   103.44590    513.8529   1189.4680
      34.240   103.22250    504.5907   1186.6370
      34.250   102.99910    495.3286   1183.8060
      34.260   102.85025    481.7590   1183.0840
      34.270   102.70140    468.1895   1182.3620
      34.280   102.70055    468.1148   1175.3140
      34.290   102.69970    468.0401   1168.2660
      34.300   102.69955    463.3856   1164.2575
      34.310   102.69940    458.7311   1160.2490
      34.320   102.69970    452.4133   1168.7385
      34.330   102.70000    446.0955   1177.2280
      34.340   102.70110    468.1061   1190.9975
      34.350   102.70220    490.1166   1204.7670
      34.360   102.70160    491.8773   1214.5980
      34.370   102.70100    493.6379   1224.4290
      34.380   102.70140    480.1037   1220.1845
      34.390   102.70180    466.5695   1215.9400
      34.400   102.70140    459.4825   1220.0835
      34.410   102.70100    452.3955   1224.2270
      34.420   102.70155    456.0613   1224.4840
      34.430   102.70210    459.7271   1224.7410
      34.440   102.70330    471.1369   1208.7840
      34.450   102.70450    482.5468   1192.8270
      34.460   102.70505    485.0367   1200.6845
      34.470   102.70560    487.5266   1208.5420
      34.480   102.70545    476.4000   1226.3390
      34.490   102.70530    465.2735   1244.1360
      34.500   102.70680    445.5258   1270.1500
      34.510   102.70830    425.7781   1296.1640
      34.520   102.70765    435.1088   1283.7290
      34.530   102.70700    444.4395   1271.2940
      34.540   102.70805    450.9941   1253.2420
      34.550   102.70910    457.5487   1235.1900
      34.560   102.70905    461.8809   1230.8435
      34.570   102.70900    466.2130   1226.4970
      34.580   102.71110    469.5576   1243.0380
      34.590   102.71320    472.9023   1259.5790
