~VERSION INFORMATION SECTION
VERS.           2.0  :CWLS Log ASCII Standard - 2.0
WRAP.           NO   :One line per depth
#               Created in SeisLab
~WELL INFORMATION SECTION
#MNEM.UNIT  VALUE/NAME               :DESCRIPTION    
STRT.m  24.75                        :Start Depth    
STOP.m  125.11                       :Stop Depth     
STEP.m  0.02                         :Step           
NULL.    -999.25                     :Null Value     
WELL.    GDP1                        :Well Name      
CTRY.    Switzerland                 :Country        
CNTY.                                :County         
STAT.    Central Swiss Alps          :State          
API .                                :API number     
UWI .                                :Unique well ID 
LOC .    Grimsel Pass, Switzerland   :Well Location  
FLD .    n/a                         :Field          
COMP.    n/a                         :Company        
SRVC.    University of Lausanne      :Service Company
DATE.    2015                        :Date           
~PARAMETER INFORMATION SECTION
#MNEM .UNITS    VALUE   :DESCRIPTION OF PARAMETER
Casing.n/a      0       :open hole               
Mud   .Polymer  1       :Mud type                
~CURVE INFORMATION SECTION
#MNEM.UNITS  API CODES   :DESCRIPTION OF MNEMONIC
depth.m                  :measured depth         
NG   .cps                :Natural gamma          
Sp   .mV                 :Self potential         
Temp .DegC               :Temperature            
SPR  .Ohm                :Single point resistance
R8   .Ohm.m              :Normal resistivity     
R16  .Ohm.m              :Single point resistance
R32  .Ohm.m              :Normal resistivity     
R64  .Ohm.m              :Normal resistivity     
~A depth       NG          Sp          Temp        SPR         R8          R16         R32         R64         
# ...
     103.190   3768.2700    581.1250     9.84180   21370.900   11494.700    6006.680    5126.680    3435.210
     103.210   3361.9500    570.3750     9.86914   20301.600   10873.000    6038.100    4827.040    3282.170
     103.230   2775.9100    577.1250     9.90234   19670.900   10216.900    6271.060    4530.270    3443.950
     103.250   3252.7200    576.7500     9.83008   18459.100    9565.650    6372.300    4258.470    3257.540
     103.270   3408.0400    563.3750     9.83594   16997.400    9002.170    6498.330    4114.770    3556.720
     103.290   3612.1700    553.2500     9.80859   15815.500    8570.780    6492.510    4123.050    4789.770
     103.310   3545.1600    545.1250     9.79883   14822.400    8356.020    6431.230    4100.360    4713.350
     103.330   2545.0500    544.2500     9.81055   13847.200    8234.550    6657.250    4360.720    4191.810
     103.350   3463.4300    557.1250     9.83789   12930.200    8122.770    7098.780    4631.630    5518.010
     103.370   3415.0100    564.2500     9.85547   12312.600    8075.580    7322.980    4382.850    6420.580
     103.390   2233.5400    559.7500     9.85156   12047.700    7935.060    7092.740    3990.800    6324.890
     103.410   3032.7100    567.6250     9.83203   12065.300    7769.560    6629.620    3927.770    5570.190
     103.430   3083.2600    603.8750     9.81055   12150.200    7805.980    6271.370    4196.370    4484.780
     103.450   2854.7300    627.6250     9.82031   12347.600    7964.320    5919.480    4284.560    4016.790
     103.470   2399.6100    626.8750     9.84570   12724.100    8051.950    5598.150    4194.630    3764.800
     103.490   3400.6800    626.1250     9.86133   13093.300    7807.470    5438.990    4398.040    3693.780
     103.510   2678.4900    626.3750     9.86523   13483.300    7380.260    5286.870    4548.230    3009.840
     103.530   3154.5300    627.6250     9.83789   13960.000    7069.710    5282.490    4495.410    2456.810
     103.550   2360.9700    629.8750     9.85938   14343.400    6718.480    5257.930    4346.300    2185.210
     103.570   2937.4300    629.2500     9.85156   14536.200    6359.640    4986.410    3964.340    2755.750
     103.590   2947.8900    623.2500     9.82422   14130.700    6178.200    4667.210    3749.340    3638.530
     103.610   3286.6100    611.2500     9.82422   13295.500    6043.210    4508.900    4004.290    3726.780
     103.630   2531.4000    582.7500     9.85547   12604.100    5990.710    4544.900    4282.090    3992.610
     103.650   2771.4500    562.2500     9.89258   11721.000    5889.650    4473.860    4225.890    4052.800
     103.670   3115.0200    555.8750     9.88477   10833.000    5634.100    4312.450    4057.270    3345.380
     103.690   2591.2400    555.6250     9.85156   10363.500    5348.390    4349.880    3958.780    2285.900
     103.710   2948.0800    566.2500     9.85156   10127.300    5098.200    4390.970    4074.930    2247.220
     103.730   3143.3000    568.2500     9.83008   10095.000    4946.680    4356.860    3978.860    2811.540
     103.750   2987.5900    552.3750     9.86914    9999.480    4746.150    4307.770    3632.410    2830.660
     103.770   3322.2500    543.6250     9.84375    9769.130    4543.070    4086.910    3440.360    2902.940
     103.790   3440.5800    549.0000     9.84766    9509.160    4507.020    3890.890    3461.380    2620.110
     103.810   3313.9200    564.0000     9.85156    9156.680    4500.430    3961.680    3713.010    2224.890
     103.830   2338.8000    601.6250     9.83203    8845.110    4506.580    4126.620    3975.310    2707.660
     103.850   2835.7500    616.7500     9.86133    8523.410    4513.520    4125.410    3864.930    3875.370
     103.870   2818.3200    587.1250     9.80859    8306.020    4400.210    3953.020    3649.230    4368.070
     103.890   2544.3800    576.2500     9.82813    8336.250    4283.170    3828.310    3635.900    4138.640
     103.910   2797.0200    602.0000     9.87695    8479.230    4318.990    3878.240    3694.830    3862.680
     103.930   3085.9700    608.2500     9.86523    8780.170    4427.160    3792.560    3764.430    3444.590
     103.950   3222.1200    573.8750     9.87695    9106.880    4441.550    3572.590    3656.240    3034.680
     103.970   3100.8800    564.0000     9.83008    9238.400    4333.020    3466.170    3482.430    2929.840
     103.990   3301.1400    603.2500     9.83789    9271.370    4257.430    3529.800    3465.830    2937.680
     104.010   3397.7800    626.8750     9.81250    9372.290    4296.590    3723.300    3436.900    2741.120
     104.030   2202.9400    621.8750     9.81836    9569.840    4238.610    3837.000    3431.020    3015.610
     104.050   3150.0800    617.5000     9.79688    9691.850    4118.740    3710.300    3659.780    3411.940
     104.070   3087.9100    613.2500     9.81055    9590.930    4058.040    3576.630    3598.090    2886.680
     104.090   3654.5800    612.7500     9.86133    9409.260    4093.960    3587.210    3380.880    2065.430
     104.110   2440.9600    616.5000     9.83008    9251.590    4202.590    3601.930    3331.330    1941.890
     104.130   2676.7500    608.8750     9.80469    8948.520    4257.750    3662.650    3301.720    2503.550
     104.150   3017.4100    574.3750     9.81055    8697.870    4216.810    3641.630    3347.810    2774.230
     104.170   2920.3800    549.8750     9.84570    8552.650    4176.520    3564.870    3368.580    2676.210
     104.190   3380.5400    543.1250     9.83398    8501.230    4195.640    3614.580    3475.680    3065.270
     104.210   2626.0100    542.8750     9.82617    8497.800    4195.240    3612.520    3340.870    3340.110
     104.230   3426.2500    556.2500     9.82813    8435.420    4207.040    3578.770    3043.780    3194.090
     104.250   2781.9100    565.8750     9.87695    8437.090    4185.900    3679.330    2982.730    2816.230
     104.270   3238.1900    570.6250     9.79883    8560.440    4105.120    3592.310    2823.630    2097.110
     104.290   2542.3400    569.7500     9.81445    8806.170    4069.980    3436.520    2828.390    1810.520
     104.310   2825.6800    555.1250     9.83398    9014.080    4004.930    3381.360    2987.300    2382.710
     104.330   3077.8400    552.7500     9.79492    9200.580    3904.810    3299.670    3036.500    2900.010
     104.350   3258.7200    575.0000     9.82813    9415.460    3877.890    3246.180    3225.110    2857.560
     104.370   2570.6200    584.2500     9.80469    9481.560    3758.520    3181.500    3348.070    2766.710
     104.390   2699.9900    566.2500     9.83789    9437.270    3623.610    3187.150    3279.580    2778.690
     104.410   2961.0500    557.5000     9.84961    9281.120    3558.020    3062.700    3055.280    3134.050
     104.430   3343.5500    568.0000     9.85156    9015.420    3465.370    2855.770    2832.240    3116.220
     104.450   3097.2000    574.3750     9.81055    8737.730    3377.230    2794.040    2741.700    2578.760
     104.470   2594.2500    573.5000     9.81641    8366.590    3287.750    2657.500    2685.640    2309.330
     104.490   2600.4400    570.2500     9.85156    8066.250    3217.790    2627.900    2688.850    2356.720
     104.510   3322.8300    561.7500     9.84961    7938.050    3062.700    2688.340    2716.960    2785.310
     104.530   2943.8200    554.2500     9.79688    7787.190    2874.900    2680.980    2824.670    3356.550
     104.550   2882.2300    549.1250     9.78516    7593.980    2766.220    2757.760    2847.830    3249.310
     104.570   3140.7800    548.1250     9.85547    7404.090    2627.500    2805.240    2679.350    2827.500
     104.590   3306.5600    553.0000     9.83008    7166.080    2560.980    2776.060    2604.200    2678.710
     104.610   3354.2000    555.7500     9.82617    6861.230    2553.420    2663.960    2717.850    2752.100
     104.630   2882.0400    556.3750     9.86914    6581.240    2527.340    2502.760    2824.440    2913.540
     104.650   2961.0500    555.1250     9.87109    6364.860    2552.270    2395.990    2919.160    2708.310
