~VERSION INFORMATION SECTION
VERS.           2.0  :CWLS Log ASCII Standard - 2.0
WRAP.           NO   :One line per depth
#               Created in SeisLab
~WELL INFORMATION SECTION
#MNEM.UNIT  VALUE/NAME               :DESCRIPTION    
STRT.m  10                           :Start Depth    
STOP.m  124                          :Stop Depth     
STEP.m  0.01                         :Step           
NULL.    -999.25                     :Null Value     
WELL.    GDP1                        :Well Name      
CTRY.    Switzerland                 :Country        
CNTY.                                :County         
STAT.    Central Swiss Alps          :State          
API .                                :API number     
UWI .                                :Unique well ID 
LOC .    Grimsel pass, Switzerland   :Well Location  
FLD .    n/a                         :Field          
COMP.    n/a                         :Company        
SRVC.    University of Lausanne      :Service Company
DATE.    2015                        :Date           
~PARAMETER INFORMATION SECTION
#MNEM .UNITS    VALUE   :DESCRIPTION OF PARAMETER
Casing.n/a      0       :open hole               
Mud   .Polymer  1       :Mud type                
~CURVE INFORMATION SECTION
#MNEM.UNITS  API CODES   :DESCRIPTION OF MNEMONIC      
depth.m                  :measured depth (interpolated)
Cal  .mm                 :Caliper                      
NN   .cps                :Neutron-Neutron              
GG   .cps                :Gamma-Gamma                  
~A depth       Cal         NN          GG          
# ...
      77.240   115.83520    610.1039    446.4047
      77.250   115.39270    607.8007    449.2780
      77.260   115.26210    613.4612    450.8074
      77.270   115.13150    619.1218    452.3368
      77.280   114.90670    630.4937    443.0999
      77.290   114.68190    641.8657    433.8631
      77.300   114.18000    646.0888    422.9178
      77.310   113.67810    650.3119    411.9724
      77.320   114.33445    644.5343    408.3120
      77.330   114.99080    638.7567    404.6516
      77.340   115.22805    626.5720    421.0593
      77.350   115.46530    614.3873    437.4669
      77.360   115.25315    622.3528    430.8402
      77.370   115.04100    630.3182    424.2136
      77.380   113.32310    636.1912    409.6306
      77.390   111.60520    642.0643    395.0475
      77.400   111.00115    646.9302    376.8351
      77.410   110.39710    651.7960    358.6227
      77.420   110.67255    665.9158    364.9707
      77.430   110.94800    680.0356    371.3187
      77.440   111.56325    673.6433    379.0474
      77.450   112.17850    667.2510    386.7761
      77.460   112.13665    646.9985    380.0161
      77.470   112.09480    626.7460    373.2562
      77.480   112.41450    636.9120    376.6230
      77.490   112.73420    647.0781    379.9899
      77.500   114.72445    639.2013    386.2834
      77.510   116.71355    631.3129    392.5771
      77.520   117.56688    611.8895    398.9873
      77.530   118.42020    592.4661    405.3975
      77.540   115.69210    609.7099    406.5749
      77.550   112.96400    626.9538    407.7524
      77.560   111.21915    630.5564    402.2776
      77.570   109.47430    634.1590    396.8028
      77.580   109.42940    627.0537    377.9743
      77.590   109.38450    619.9483    359.1458
      77.600   109.43770    611.1296    357.8702
      77.610   109.49090    602.3108    356.5946
      77.620   109.35860    602.7563    360.6105
      77.630   109.22630    603.2018    364.6264
      77.640   109.09385    609.7288    369.4334
      77.650   108.96140    616.2559    374.2404
      77.660   107.91640    606.1598    373.0132
      77.670   106.87140    596.0637    371.7859
      77.680   106.58391    589.5007    373.5659
      77.690   106.29728    582.9411    375.3581
      77.700   106.87969    579.7176    389.3310
      77.710   107.46210    576.4942    403.3040
      77.720   107.29810    582.0308    404.9085
      77.730   107.13410    587.5674    406.5129
      77.740   107.04515    584.4714    405.2100
      77.750   106.95620    581.3754    403.9072
      77.760   106.32445    572.3801    404.1588
      77.770   105.69270    563.3848    404.4105
      77.780   105.57325    566.3161    403.5689
      77.790   105.45380    569.2473    402.7273
      77.800   105.67265    560.0192    401.6515
      77.810   105.89150    550.7910    400.5757
      77.820   105.54835    534.1927    399.6957
      77.830   105.20520    517.5944    398.8156
      77.840   105.13195    531.5988    404.0306
      77.850   105.05870    545.6031    409.2455
      77.860   105.06310    547.2089    410.5134
      77.870   105.06750    548.8147    411.7812
      77.880   105.46070    541.0209    398.3330
      77.890   105.85390    533.2270    384.8848
      77.900   106.33495    528.7349    392.3094
      77.910   106.81600    524.2429    399.7339
      77.920   106.83835    528.7704    409.3011
      77.930   106.86070    533.2979    418.8683
      77.940   106.59085    543.5312    418.6252
      77.950   106.32100    553.7645    418.3821
      77.960   105.55280    544.7331    412.4552
      77.970   104.78460    535.7017    406.5284
      77.980   104.77795    535.6920    402.0264
      77.990   104.77130    535.6824    397.5244
      78.000   104.72223    541.8727    400.8743
      78.010   104.67342    548.0510    404.2254
      78.020   104.89696    542.1066    408.7612
      78.030   105.12050    536.1622    413.2969
      78.040   105.25555    547.7369    416.5173
      78.050   105.39060    559.3117    419.7377
      78.060   105.59990    582.2264    418.6830
      78.070   105.80920    605.1411    417.6283
      78.080   105.85900    594.0835    429.3744
      78.090   105.90880    583.0259    441.1205
      78.100   105.88970    573.1033    446.2531
      78.110   105.87060    563.1807    451.3857
      78.120   105.86730    553.8379    430.0142
      78.130   105.86400    544.4952    408.6427
      78.140   105.90445    530.5626    430.1160
      78.150   105.94490    516.6300    451.5893
      78.160   105.98900    520.8927    470.0299
      78.170   106.03310    525.1555    488.4706
      78.180   106.50003    541.9612    467.6230
      78.190   106.96658    558.7434    446.8022
      78.200   107.05084    552.0782    452.7783
      78.210   107.13510    545.4130    458.7545
      78.220   107.45160    542.9693    466.8239
      78.230   107.76810    540.5256    474.8934
      78.240   108.25700    542.3483    468.6082
      78.250   108.74590    544.1710    462.3231
      78.260   108.55965    560.7390    459.4342
      78.270   108.37340    577.3071    456.5452
      78.280   108.10405    576.0922    458.0383
      78.290   107.83470    574.8773    459.5313
      78.300   107.94035    560.8495    469.8629
      78.310   108.04600    546.8217    480.1946
      78.320   108.47115    547.5799    479.6325
      78.330   108.89630    548.3381    479.0704
      78.340   109.53410    557.8906    475.6132
      78.350   110.17190    567.4430    472.1560
      78.360   110.81860    582.5339    469.2129
      78.370   111.46530    597.6248    466.2697
      78.380   111.05185    593.3205    460.7563
      78.390   110.63840    589.0161    455.2428
      78.400   110.69160    582.0596    453.2965
      78.410   110.74480    575.1032    451.3503
      78.420   110.99785    566.5219    460.5112
      78.430   111.25090    557.9405    469.6720
      78.440   110.75990    555.9161    477.2077
      78.450   110.26890    553.8917    484.7434
      78.460   110.09465    551.8196    487.6400
      78.470   109.92040    549.7475    490.5365
      78.480   109.83290    548.8328    482.6380
      78.490   109.74540    547.9180    474.7395
      78.500   108.73164    564.7688    475.6985
      78.510   107.71835    581.6026    476.6554
      78.520   107.16362    581.4229    475.5251
      78.530   106.60890    581.2431    474.3948
      78.540   106.29930    569.1548    461.3498
      78.550   105.98970    557.0664    448.3048
      78.560   105.99215    564.4474    451.6004
      78.570   105.99460    571.8284    454.8959
      78.580   106.00645    572.3189    456.4085
      78.590   106.01830    572.8094    457.9211
      78.600   106.49805    568.4082    442.7906
      78.610   106.97780    564.0070    427.6601
      78.620   107.38790    566.3106    432.8803
      78.630   107.79800    568.6142    438.1005
      78.640   108.94530    563.6111    444.0096
      78.650   110.09260    558.6080    449.9188
      78.660   110.20120    549.3509    442.6463
      78.670   110.30980    540.0938    435.3737
      78.680   110.41325    551.9138    434.8377
      78.690   110.51613    563.7250    434.3028
      78.700   110.04907    566.8227    434.8457
      78.710   109.58200    569.9205    435.3886
      78.720   110.61775    567.5554    433.7695
      78.730   111.65350    565.1904    432.1503
      78.740   113.40075    582.3680    425.6365
      78.750   115.14800    599.5455    419.1228
      78.760   114.24545    605.4206    412.6164
      78.770   113.34290    611.2957    406.1100
      78.780   114.99210    609.8163    403.2075
      78.790   116.64130    608.3368    400.3050
      78.800   116.25090    628.0406    401.3611
      78.810   115.86050    647.7444    402.4173
      78.820   116.43340    654.3025    408.2363
      78.830   117.00630    660.8606    414.0553
      78.840   118.00115    656.9062    429.2666
      78.850   118.99600    652.9518    444.4779
      78.860   119.93605    644.5111    443.8247
      78.870   120.87610    636.0703    443.1716
