~VERSION INFORMATION SECTION
VERS.           2.0  :CWLS Log ASCII Standard - 2.0
WRAP.           NO   :One line per depth
#               Created in SeisLab
~WELL INFORMATION SECTION
#MNEM.UNIT  VALUE/NAME               :DESCRIPTION    
STRT.m  24.75                        :Start Depth    
STOP.m  125.11                       :Stop Depth     
STEP.m  0.02                         :Step           
NULL.    -999.25                     :Null Value     
WELL.    GDP1                        :Well Name      
CTRY.    Switzerland                 :Country        
CNTY.                                :County         
STAT.    Central Swiss Alps          :State          
API .                                :API number     
UWI .                                :Unique well ID 
LOC .    Grimsel Pass, Switzerland   :Well Location  
FLD .    n/a                         :Field          
COMP.    n/a                         :Company        
SRVC.    University of Lausanne      :Service Company
DATE.    2015                        :Date           
~PARAMETER INFORMATION SECTION
#MNEM .UNITS    VALUE   :DESCRIPTION OF PARAMETER
Casing.n/a      0       :open hole               
Mud   .Polymer  1       :Mud type                
~CURVE INFORMATION SECTION
#MNEM.UNITS  API CODES   :DESCRIPTION OF MNEMONIC
depth.m                  :measured depth         
NG   .cps                :Natural gamma          
Sp   .mV                 :Self potential         
Temp .DegC               :Temperature            
SPR  .Ohm                :Single point resistance
R8   .Ohm.m              :Normal resistivity     
R16  .Ohm.m              :Single point resistance
R32  .Ohm.m              :Normal resistivity     
R64  .Ohm.m              :Normal resistivity     
~A depth       NG          Sp          Temp        SPR         R8          R16         R32         R64         
# ...
      46.950   2787.7200    560.0000    11.06050    3463.040     851.567    1021.130    1573.800    2489.230
      46.970   2704.4400    549.8750    11.03710    3308.540     878.134    1069.130    1526.700    2265.170
      46.990   2769.1300    548.7500    11.04880    3195.120     915.411    1158.650    1498.030    2407.230
      47.010   1942.0700    565.8750    11.04690    3152.420     914.190    1164.000    1505.890    2675.540
      47.030   2400.1900    573.8750    11.01560    3281.990     873.770    1090.420    1509.730    2728.230
      47.050   2796.0500    562.5000    11.06640    3574.310     850.816    1107.910    1546.790    2718.620
      47.070   2742.4000    560.6250    11.04880    3944.340     869.372    1145.900    1604.250    2792.400
      47.090   3095.4600    578.6250    11.04100    4155.390     904.609    1119.660    1662.450    2735.910
      47.110   2158.8800    585.2500    11.02540    4053.180     895.713    1099.040    1633.500    2534.680
      47.130   2618.8400    568.6250    11.05270    3801.710     842.157    1121.920    1569.500    2551.140
      47.150   2735.0400    559.2500    11.04300    3539.510     842.968    1143.660    1550.690    2518.570
      47.170   2936.4600    562.1250    11.02150    3370.470     867.232    1100.570    1540.800    2341.060
      47.190   2437.8600    565.6250    11.04490    3315.030     857.143    1071.390    1591.220    2191.860
      47.210   2383.5300    569.5000    11.05270    3295.530     851.341    1069.190    1580.920    2121.320
      47.230   2931.6200    564.7500    11.05660    3256.200     866.760    1049.970    1546.870    2142.150
      47.250   2985.6500    541.8750    11.03320    3196.740     877.166    1072.330    1601.300    2198.460
      47.270   2911.6700    534.8750    11.02540    3102.960     846.196    1112.630    1599.360    2360.360
      47.290   3024.0000    559.8750    11.05080    3002.080     814.681    1133.190    1606.670    2380.610
      47.310   2552.6100    568.6250    11.01760    2930.690     798.586    1117.910    1596.700    2277.590
      47.330   2403.9700    544.3750    11.01370    2890.430     782.383    1089.790    1506.650    2238.840
      47.350   2732.5300    531.8750    11.03130    2850.870     786.313    1077.990    1525.540    2095.800
      47.370   2683.7200    541.2500    11.02150    2774.300     796.735    1065.260    1658.120    2025.540
      47.390   3021.2900    550.1250    11.04300    2686.310     798.927    1091.610    1758.510    2210.060
      47.410   2439.5000    561.1250    11.00590    2618.280     784.150    1081.900    1790.100    2285.890
      47.430   2202.6500    566.2500    11.03320    2582.930     767.402    1049.910    1707.460    2151.590
      47.450   2338.4100    559.0000    11.02730    2569.450     760.159    1071.750    1563.360    2090.980
      47.470   2975.3900    551.6250    11.02150    2548.340     752.511    1063.530    1487.530    2180.540
      47.490   2363.1000    544.3750    11.03710    2518.980     767.837    1055.230    1534.200    2411.750
      47.510   2705.8000    542.1250    10.99410    2505.930     762.459    1052.690    1674.600    2458.000
      47.530   2921.3500    550.3750    11.00980    2503.060     745.810    1014.970    1691.680    2190.110
      47.550   2048.4900    549.6250    11.01560    2493.800     759.254    1021.080    1563.310    2168.740
      47.570   2833.4300    529.6250    11.02540    2479.830     754.412    1084.890    1572.450    2271.550
      47.590   2172.4400    523.3750    11.00980    2472.290     751.026    1148.420    1721.240    2206.220
      47.610   1983.5100    543.6250    11.05470    2463.810     751.920    1180.180    1778.900    2157.070
      47.630   2515.6200    553.3750    11.06050    2478.330     732.332    1150.640    1703.720    2202.580
      47.650   2256.6800    542.5000    11.03520    2521.860     737.380    1077.540    1633.970    2255.800
      47.670   2320.4000    537.3750    11.02930    2537.520     769.445    1025.750    1657.950    2169.180
      47.690   1548.8200    545.5000    11.04880    2533.050     797.987    1034.800    1601.960    2111.080
      47.710   1895.3000    552.6250    11.03130    2526.210     810.994    1095.920    1442.620    2120.530
      47.730   1800.4000    561.8750    11.06050    2527.190     787.720    1109.890    1402.360    2131.560
      47.750   2338.8000    569.1250    11.02930    2581.950     737.988    1046.960    1448.060    2185.540
      47.770   2535.1800    571.8750    11.04490    2709.550     703.950    1042.980    1493.050    2299.230
      47.790   2131.7700    570.7500    11.03910    2946.580     704.807    1119.340    1599.300    2442.100
      47.810   2072.2100    560.8750    11.03520    3221.020     734.920    1176.450    1748.660    2377.420
      47.830   2139.1200    556.1250    10.99410    3404.890     744.074    1162.920    1793.880    2232.970
      47.850   2242.8300    561.8750    11.06840    3456.440     714.300    1124.120    1660.320    2203.410
      47.870   1949.4300    561.8750    11.04100    3352.490     719.299    1123.460    1477.860    2184.040
      47.890   2640.1500    549.2500    11.04300    3215.360     774.500    1075.310    1426.080    2255.240
      47.910   2196.7400    543.2500    11.03710    3177.090     815.091     965.279    1462.650    2215.660
      47.930   2011.2100    550.6250    11.05080    3257.860     817.096     920.454    1523.880    2148.080
      47.950   2422.4600    555.0000    11.03710    3380.090     805.798     942.014    1568.710    2248.560
      47.970   2083.4400    551.6250    11.06640    3453.530     810.207     978.122    1572.350    2250.280
      47.990   2181.3400    552.6250    11.01560    3456.550     789.885    1051.610    1598.470    2290.160
      48.010   2265.0100    564.2500    11.07230    3430.630     738.219    1152.450    1589.740    2263.460
      48.030   2249.8100    564.0000    11.04100    3394.060     731.913    1182.750    1519.320    2057.480
      48.050   2295.6100    536.0000    11.03710    3354.160     765.435    1111.510    1507.010    2099.180
      48.070   2129.3400    522.2500    11.00000    3335.520     790.438    1021.480    1566.510    2383.270
      48.090   2402.4200    537.7500    11.02340    3328.990     824.022     992.679    1595.170    2573.850
      48.110   2348.6700    552.7500    11.04100    3382.860     878.151    1015.010    1617.490    2611.550
      48.130   2160.7200    568.3750    11.03320    3551.500     896.940    1062.540    1578.450    2495.180
      48.150   2701.7300    575.7500    11.03520    3762.420     864.966    1096.700    1537.330    2228.590
      48.170   2165.3700    565.5000    11.05660    3868.850     824.454    1107.450    1638.180    2047.850
      48.190   2881.4600    554.0000    11.06050    3802.520     810.828    1134.130    1698.540    2168.600
      48.210   2318.7500    538.1250    10.99020    3717.620     830.562    1143.070    1616.160    2467.310
      48.230   2004.0400    526.0000    11.00200    3619.680     862.082    1108.230    1560.440    2484.630
      48.250   1924.0600    518.2500    11.03130    3510.600     890.721    1095.060    1603.130    2238.670
      48.270   2129.3400    520.5000    11.02340    3444.750     911.224    1124.460    1692.490    2293.600
      48.290   2351.6800    545.1250    11.03520    3391.720     935.324    1155.410    1704.000    2596.670
      48.310   1831.8700    561.6250    11.02540    3320.230     941.662    1188.550    1669.440    2673.250
      48.330   2250.0000    564.0000    11.03130    3208.760     924.464    1173.270    1796.830    2472.070
      48.350   2016.9200    561.5000    11.02540    3111.460     922.944    1173.460    1922.630    2342.820
      48.370   2034.3500    547.7500    11.05080    3096.030     941.959    1256.360    1888.000    2419.790
      48.390   1577.3900    534.5000    11.00000    3177.800     960.234    1285.530    1985.240    2327.260
      48.410   2111.9100    520.7500    11.01170    3245.770     979.707    1236.850    2167.920    2064.560
