~VERSION INFORMATION SECTION
VERS.           2.0  :CWLS Log ASCII Standard - 2.0
WRAP.           NO   :One line per depth
#               Created in SeisLab
~WELL INFORMATION SECTION
#MNEM.UNIT  VALUE/NAME               :DESCRIPTION    
STRT.m  24.75                        :Start Depth    
STOP.m  125.11                       :Stop Depth     
STEP.m  0.02                         :Step           
NULL.    -999.25                     :Null Value     
WELL.    GDP1                        :Well Name      
CTRY.    Switzerland                 :Country        
CNTY.                                :County         
STAT.    Central Swiss Alps          :State          
API .                                :API number     
UWI .                                :Unique well ID 
LOC .    Grimsel Pass, Switzerland   :Well Location  
FLD .    n/a                         :Field          
COMP.    n/a                         :Company        
SRVC.    University of Lausanne      :Service Company
DATE.    2015                        :Date           
~PARAMETER INFORMATION SECTION
#MNEM .UNITS    VALUE   :DESCRIPTION OF PARAMETER
Casing.n/a      0       :open hole               
Mud   .Polymer  1       :Mud type                
~CURVE INFORMATION SECTION
#MNEM.UNITS  API CODES   :DESCRIPTION OF MNEMONIC
depth.m                  :measured depth         
NG   .cps                :Natural gamma          
Sp   .mV                 :Self potential         
Temp .DegC               :Temperature            
SPR  .Ohm                :Single point resistance
R8   .Ohm.m              :Normal resistivity     
R16  .Ohm.m              :Single point resistance
R32  .Ohm.m              :Normal resistivity     
R64  .Ohm.m              :Normal resistivity     
~A depth       NG          Sp          Temp        SPR         R8          R16         R32         R64         
# ...
      83.950   2114.0400    570.6250    10.57420    3335.770     428.643     484.449     601.046    1267.280
      83.970   2302.0000    577.7500    10.62300    3043.100     439.974     464.613     618.986    1275.400
      83.990   2937.0400    554.8750    10.58010    2807.300     449.991     438.797     639.180    1084.860
      84.010   1911.3700    543.5000    10.59180    2652.770     463.218     471.963     583.656     906.706
      84.030   2799.9200    547.0000    10.62890    2561.770     448.250     552.252     595.324     963.481
      84.050   2740.8500    554.3750    10.61520    2512.780     420.252     569.996     712.531     931.029
      84.070   2814.2500    571.8750    10.60550    2485.350     405.790     553.076     726.601     745.110
      84.090   2196.5500    572.3750    10.58400    2488.510     387.385     512.178     667.642     620.988
      84.110   2632.9800    545.2500    10.60160    2487.460     400.070     431.260     620.406     794.914
      84.130   2054.2000    532.5000    10.61130    2473.000     437.982     435.113     599.669    1024.780
      84.150   2325.1400    541.7500    10.58790    2466.110     443.800     486.406     585.747     997.833
      84.170   1629.9700    556.8750    10.58010    2478.810     431.735     493.941     552.934    1084.150
      84.190   2555.0300    582.5000    10.58790    2492.180     408.675     495.715     557.713    1067.690
      84.210   2563.5500    590.0000    10.54690    2523.870     364.709     458.214     629.311     931.071
      84.230   1959.1100    568.0000    10.58010    2544.840     363.427     463.247     723.556    1012.570
      84.250   2560.0600    562.5000    10.56640    2520.780     387.170     537.006     712.318     885.651
      84.270   2073.9600    583.5000    10.56050    2494.900     389.985     563.703     602.797     667.730
      84.290   2068.5300    590.3750    10.57030    2467.470     391.621     536.531     640.768     681.670
      84.310   2223.1800    577.7500    10.58200    2431.710     371.702     504.793     705.601     717.385
      84.330   2040.1600    567.7500    10.55470    2430.990     374.195     489.220     632.062     780.996
      84.350   2722.0700    560.5000    10.53520    2456.080     412.430     463.736     631.888     848.130
      84.370   2453.9300    559.3750    10.55270    2471.430     424.596     419.467     728.052     926.065
      84.390   2280.1200    571.0000    10.55470    2482.990     408.742     423.062     749.593    1081.630
      84.410   2773.3900    569.8750    10.54880    2483.180     391.582     471.501     738.152    1152.200
      84.430   1894.4200    547.3750    10.59960    2504.470     382.072     520.206     706.968     970.711
      84.450   1851.0400    540.6250    10.53520    2537.720     367.687     520.928     574.640     825.941
      84.470   1926.9600    559.1250    10.58010    2541.150     343.498     471.662     546.388     843.231
      84.490   1929.3800    573.0000    10.53520    2522.660     344.553     485.454     606.201     770.586
      84.510   2519.7800    579.8750    10.58790    2512.370     370.253     499.068     624.635     861.204
      84.530   2079.6700    577.7500    10.52730    2522.330     398.016     446.420     621.020    1069.950
      84.550   2192.8700    556.8750    10.55270    2516.000     401.480     460.239     540.605    1088.220
      84.570   2753.8300    550.5000    10.54490    2482.480     377.390     535.355     560.024    1078.440
      84.590   2039.1900    566.3750    10.54300    2465.140     387.134     542.372     634.823     942.354
      84.610   1700.4600    576.7500    10.60550    2471.990     396.430     519.115     633.257     625.048
      84.630   1876.3200    576.8750    10.53910    2490.280     369.397     510.057     695.875     598.611
      84.650   2392.1500    576.3750    10.53910    2509.870     377.471     443.336     715.056     738.496
      84.670   2216.6900    575.8750    10.55860    2535.680     416.074     423.763     710.540     787.989
      84.690   2329.4000    568.3750    10.57420    2610.630     420.385     453.442     717.416     834.841
      84.710   1941.3900    546.3750    10.52540    2686.560     409.677     449.648     693.539     731.322
      84.730   2562.8700    534.3750    10.55660    2693.860     404.358     447.897     754.011     774.626
      84.750   2505.4500    538.8750    10.53320    2685.440     366.118     408.920     770.761     985.720
      84.770   1960.2700    553.1250    10.55860    2677.150     350.780     416.544     652.021     977.540
      84.790   1803.0100    586.2500    10.51760    2671.200     364.978     459.962     585.542     853.585
      84.810   2297.4500    600.1250    10.52930    2747.770     362.871     451.169     644.998     769.351
      84.830   2555.2200    583.2500    10.53520    2891.880     360.541     485.773     712.854     740.883
      84.850   2702.5100    571.3750    10.55080    2957.970     338.824     502.489     754.869     740.326
      84.870   2692.8200    567.0000    10.56640    2895.390     340.979     488.674     733.804     715.299
      84.890   1971.6000    571.2500    10.57810    2796.320     364.046     499.652     685.155     719.620
      84.910   2276.0500    591.2500    10.55080    2755.720     361.371     500.226     712.884     830.174
      84.930   2483.1800    604.6250    10.53320    2756.250     380.485     526.707     697.623    1020.950
      84.950   2312.9400    609.0000    10.55470    2717.900     393.432     534.377     670.655     994.198
      84.970   2651.3800    605.5000    10.54490    2668.130     390.876     474.751     719.859     756.292
      84.990   2401.1600    588.2500    10.50590    2654.760     398.071     426.447     716.911     824.042
      85.010   2353.4200    574.5000    10.54490    2666.230     399.990     436.026     654.494     969.102
      85.030   2656.6100    564.1250    10.54690    2697.630     415.049     477.059     609.540     844.583
      85.050   2504.9600    559.2500    10.56050    2709.700     422.331     517.897     606.172     833.477
      85.070   2915.9300    561.3750    10.54490    2711.250     394.611     509.104     651.265     993.538
      85.090   2631.4300    570.7500    10.51760    2732.530     369.851     486.902     702.903    1039.080
      85.110   3018.1900    593.5000    10.50980    2745.260     373.091     504.360     663.807    1037.750
      85.130   2507.3900    596.5000    10.53520    2747.680     387.884     485.247     615.089     962.819
      85.150   2830.7200    566.0000    10.53910    2753.480     399.594     459.786     619.600     711.102
      85.170   2391.3800    545.3750    10.57030    2789.650     387.906     489.478     600.250     675.423
      85.190   2386.6300    538.8750    10.54300    2903.260     371.340     495.041     627.687     800.373
      85.210   2997.2700    542.2500    10.55470    3135.490     376.038     461.468     639.182     858.535
      85.230   2309.8400    564.0000    10.50780    3362.760     363.288     422.583     570.805     843.221
      85.250   2675.0100    573.7500    10.53520    3394.240     350.275     425.314     515.760     683.790
      85.270   2055.8500    562.5000    10.55860    3261.130     365.253     475.563     522.546     718.492
      85.290   2440.6700    566.0000    10.50780    3048.510     370.056     505.444     632.789     846.119
      85.310   2860.5400    595.6250    10.54880    2899.560     357.978     469.480     698.387     857.750
      85.330   2400.5800    610.7500    10.49410    2817.280     340.181     435.758     618.644     984.628
      85.350   2466.0400    603.0000    10.52340    2769.210     341.179     437.011     519.540    1019.720
      85.370   2252.1300    598.1250    10.54690    2791.410     366.641     422.118     489.890    1027.670
      85.390   1954.1700    599.3750    10.51950    2852.220     382.250     443.404     497.806    1032.790
      85.410   2225.0200    596.6250    10.53710    2939.040     363.878     461.912     491.371     967.359
