~VERSION INFORMATION SECTION
VERS.           2.0  :CWLS Log ASCII Standard - 2.0
WRAP.           NO   :One line per depth
#               Created in SeisLab
~WELL INFORMATION SECTION
#MNEM.UNIT  VALUE/NAME               :DESCRIPTION    
STRT.m  47.59                        :Start Depth    
STOP.m  123.23                       :Stop Depth     
STEP.m  0.02                         :Step           
NULL.    -999.25                     :Null Value     
WELL.    GDP1                        :Well Name      
CTRY.    Switzerland                 :Country        
CNTY.                                :County         
STAT.    Central Swiss Alps          :State          
API .                                :API number     
UWI .                                :Unique well ID 
LOC .    Grimsel Pass, Switzerland   :Well Location  
FLD .    n/a                         :Field          
COMP.    n/a                         :Company        
SRVC.    University of Lausanne      :Service Company
DATE.    2017                        :Date           
~PARAMETER INFORMATION SECTION
#MNEM .UNITS  VALUE   :DESCRIPTION OF PARAMETER
Casing.n/a    1       :slotted PVC casing      
~CURVE INFORMATION SECTION
#MNEM.UNITS  API CODES   :DESCRIPTION OF MNEMONIC
depth.m                  :measured depth         
NG   .cps                :Natural gamma          
Sp   .mV                 :Self potential         
Temp .DegC               :Temperature            
SPR  .Ohm                :Single point resistance
R8   .Ohm.m              :Normal resistivity     
R16  .Ohm.m              :Single point resistance
R32  .Ohm.m              :Normal resistivity     
R64  .Ohm.m              :Normal resistivity     
~A depth       NG          Sp          Temp        SPR         R8          R16         R32         R64         
# ...
      87.550   232.64800   1001.0000     6.89258      4537.7       693.8     1643.70     1194.67     1304.03
      87.570   258.15600    996.0000     6.91504      4453.4       714.3     2850.30     1064.83     1313.56
      87.590   233.22700    990.0000     6.87793      4363.3       762.1     9401.09     1020.54     1314.47
      87.610   281.28100    971.3750     6.88574      4305.4       875.2   -13153.90     1005.94     1320.05
      87.630   279.68800    950.2500     6.90137      4309.0      1124.2    -5989.57     1006.87     1331.37
      87.650   282.87500    914.5000     6.90527      4443.1      1713.2    -5713.92     1013.28     1331.35
      87.670   265.67200    875.7500     6.88574      4952.7      3375.2    -9971.41     1017.39     1327.06
      87.690   267.18800    831.7500     6.90137      7135.4     13256.7    17288.40     1022.66     1327.01
      87.710   267.21900    787.2500     6.88574      5927.9    -23186.8     3264.43     1028.03     1328.46
      87.730   247.51600    742.1250     6.89160      -781.5    -14347.9     1581.96     1033.76     1317.59
      87.750   251.87500    697.2500     6.89648     -3295.3    -19537.9     1121.41     1034.78     1311.67
      87.770   227.43800    683.2500     6.89648     -7668.3    -49996.9      972.98     1035.07     1320.72
      87.790   253.78100    674.8750     6.89258    -31112.3    122274.0      919.99     1038.69     1321.85
      87.810   229.32000    672.3750     6.91992     48727.3     29840.6      898.33     1041.75     1314.87
      87.830   229.76600    670.7500     6.90137     23350.7     14551.2      894.42     1037.07     1311.44
      87.850   248.71900    679.1250     6.90820     22089.7      8545.2      901.57     1032.20     1309.62
      87.870   252.16400    689.2500     6.90137     36212.7      6007.2      916.95     1031.04     1310.27
      87.890   203.85900    735.2500     6.90332    -54497.7      4530.1      948.78     1028.50     1312.47
      87.910   245.18000    787.5000     6.88477     -8236.3      3397.9     1001.91     1023.38     1304.08
      87.930   248.75800    850.3750     6.89258     -2759.2      2567.1     1064.41     1016.48     1304.49
      87.950   279.29700    914.1250     6.88770     12064.9      2009.8     1114.30     1018.92     1312.29
      87.970   224.62500    969.0000     6.87793     12132.3      1647.9     1148.28     1024.74     1308.80
      87.990   254.37500   1022.8800     6.88574      6139.0      1413.9     1165.76     1029.94     1302.13
      88.010   201.59400   1048.5000     6.91895      4976.0      1264.3     1167.04     1031.08     1302.88
      88.030   285.04700   1069.1300     6.91211      4732.9      1163.0     1153.83     1034.74     1314.87
      88.050   220.98400   1073.0000     6.91211      4713.1      1088.5     1134.64     1040.30     1322.66
      88.070   261.84400   1073.6300     6.89941      4784.4      1041.8     1112.69     1038.50     1314.98
      88.090   231.87500   1069.3800     6.90625      4895.5      1032.1     1088.43     1033.37     1308.63
      88.110   259.45300   1064.3800     6.90527      5035.1      1052.4     1062.87     1032.18     1316.21
      88.130   260.39100   1064.7500     6.91016      5190.3      1089.1     1037.72     1034.06     1317.99
      88.150   226.39800   1067.0000     6.90527      5355.7      1131.7     1018.11     1030.83     1310.66
      88.170   244.02300   1065.0000     6.89844      5542.2      1172.5     1003.06     1030.20     1311.69
      88.190   202.75000   1062.8800     6.91895      5739.0      1207.9      999.74     1035.65     1320.80
      88.210   254.95300   1058.2500     6.89648      5899.5      1237.9     1008.03     1036.12     1314.07
      88.230   276.31300   1052.6300     6.91211      5994.9      1264.9     1026.20     1030.64     1303.45
      88.250   259.87500   1058.8800     6.92188      6017.9      1297.1     1047.49     1028.72     1306.01
      88.270   204.89100   1067.1300     6.89453      5969.4      1333.6     1062.24     1028.06     1311.64
      88.290   248.53100   1072.5000     6.91211      5885.9      1374.3     1070.98     1029.01     1303.37
      88.310   219.35200   1076.7500     6.89160      5825.6      1417.0     1075.58     1029.64     1289.01
      88.330   273.53100   1075.1300     6.89941      5846.0      1458.7     1079.46     1023.43     1291.97
      88.350   237.07800   1072.1300     6.89160      5996.9      1490.3     1082.00     1020.90     1295.34
      88.370   260.85900   1069.7500     6.90527      6258.3      1501.9     1086.16     1021.47     1299.24
      88.390   244.40600   1067.8800     6.91504      6596.1      1495.5     1092.84     1017.30     1288.20
      88.410   242.47700   1061.8800     6.91016      6931.2      1485.2     1094.93     1012.60     1279.71
      88.430   259.64100   1055.0000     6.91211      7299.4      1490.8     1091.66     1012.86     1285.36
      88.450   256.84400   1044.0000     6.88965      7614.8      1510.8     1087.42     1019.20     1300.26
      88.470   241.93800   1031.3800     6.91211      7565.8      1534.4     1081.94     1023.17     1290.70
      88.490   244.82000   1027.2500     6.89648      7284.8      1552.7     1076.02     1020.25     1302.60
      88.510   251.80500   1025.2500     6.90820      6933.2      1555.2     1072.27     1018.34     1301.10
      88.530   288.32800   1018.3800     6.91211      6524.6      1540.5     1070.87     1023.76     1309.12
      88.550   245.63300   1010.8800     6.89258      6233.9      1516.3     1079.33     1026.32     1328.01
      88.570   262.76600   1017.0000     6.90527      6099.2      1487.3     1093.64     1023.26     1319.13
      88.590   224.53900   1024.7500     6.90137      6005.6      1452.7     1104.25     1024.62     1328.90
      88.610   259.06300   1030.5000     6.90527      5901.4      1412.4     1111.23     1031.13     1317.45
      88.630   297.82800   1035.1300     6.91211      5789.5      1371.3     1114.86     1029.43     1309.36
      88.650   227.59400   1042.7500     6.92383      5684.1      1342.7     1116.06     1025.86     1296.44
      88.670   228.60200   1051.5000     6.88965      5611.0      1325.5     1112.53     1029.41     1301.03
      88.690   246.76600   1057.0000     6.89453      5574.5      1310.6     1103.25     1034.43     1296.29
      88.710   276.35900   1061.5000     6.92578      5548.5      1295.3     1092.75     1031.64     1305.73
      88.730   262.70300   1062.8800     6.87891      5530.2      1279.7     1085.88     1026.49     1295.34
      88.750   252.87500   1063.8800     6.89844      5550.7      1265.3     1077.93     1032.25     1300.46
      88.770   235.63300   1064.0000     6.90625      5627.6      1255.4     1068.07     1038.19     1289.01
      88.790   254.75800   1063.3800     6.90625      5747.2      1252.6     1062.77     1043.96     1262.51
      88.810   254.52300   1063.5000     6.90332      5859.3      1258.6     1061.91     1040.77     1261.60
      88.830   239.60900   1063.1300     6.92578      5905.8      1272.7     1057.85     1037.91     1258.11
      88.850   273.75000   1064.2500     6.89941      5871.6      1289.5     1054.63     1042.98     1292.49
      88.870   302.89100   1065.1300     6.88086      5801.6      1306.3     1058.81     1055.00     1342.72
      88.890   243.78100   1063.6300     6.90625      5740.1      1325.0     1068.04     1053.83     1525.99
      88.910   229.94500   1061.5000     6.90332      5702.1      1343.5     1076.89     1064.41     1981.30
      88.930   238.19500   1065.3800     6.89844      5687.8      1354.3     1086.30     1068.72     2186.94
      88.950   235.11700   1070.2500     6.90332      5678.1      1358.9     1103.44     1079.00    12929.60
      88.970   269.90600   1069.1300     6.90332      5654.1      1365.8     1120.16     1093.51     4900.21
      88.990   285.84400   1067.1300     6.91504      5629.3      1378.8     1133.76     1090.86     4102.16
      89.010   227.30500   1066.5000     6.89941      5627.8      1394.0     1138.39     1097.03     3924.59
