~VERSION INFORMATION SECTION
VERS.           2.0  :CWLS Log ASCII Standard - 2.0
WRAP.           NO   :One line per depth
#               Created in SeisLab
~WELL INFORMATION SECTION
#MNEM.UNIT  VALUE/NAME               :DESCRIPTION    
STRT.m  24.75                        :Start Depth    
STOP.m  125.11                       :Stop Depth     
STEP.m  0.02                         :Step           
NULL.    -999.25                     :Null Value     
WELL.    GDP1                        :Well Name      
CTRY.    Switzerland                 :Country        
CNTY.                                :County         
STAT.    Central Swiss Alps          :State          
API .                                :API number     
UWI .                                :Unique well ID 
LOC .    Grimsel Pass, Switzerland   :Well Location  
FLD .    n/a                         :Field          
COMP.    n/a                         :Company        
SRVC.    University of Lausanne      :Service Company
DATE.    2015                        :Date           
~PARAMETER INFORMATION SECTION
#MNEM .UNITS    VALUE   :DESCRIPTION OF PARAMETER
Casing.n/a      0       :open hole               
Mud   .Polymer  1       :Mud type                
~CURVE INFORMATION SECTION
#MNEM.UNITS  API CODES   :DESCRIPTION OF MNEMONIC
depth.m                  :measured depth         
NG   .cps                :Natural gamma          
Sp   .mV                 :Self potential         
Temp .DegC               :Temperature            
SPR  .Ohm                :Single point resistance
R8   .Ohm.m              :Normal resistivity     
R16  .Ohm.m              :Single point resistance
R32  .Ohm.m              :Normal resistivity     
R64  .Ohm.m              :Normal resistivity     
~A depth       NG          Sp          Temp        SPR         R8          R16         R32         R64         
# ...
      97.270   2197.7100    612.0000    10.17190    6977.440    3158.370    2979.740    2531.130    1090.520
      97.290   2453.6400    614.6250    10.15230    7213.970    3219.020    2791.700    2489.910    1229.870
      97.310   2724.0000    590.3750    10.14650    7561.270    3189.390    2673.330    2295.370    1228.450
      97.330   3146.9800    580.3750    10.17770    8168.380    3301.820    2696.110    2131.930    1085.720
      97.350   2493.2500    595.8750    10.17380    8959.220    3493.670    2752.290    2051.690    1308.380
      97.370   2796.0500    609.7500    10.12300    9803.130    3547.900    2735.570    2167.260    1785.110
      97.390   3141.3600    619.8750    10.14650   10445.100    3558.990    2618.440    2277.830    1759.530
      97.410   2045.5800    621.8750    10.11720   10748.400    3664.500    2558.810    2414.500    1310.880
      97.430   2525.6900    609.3750    10.13480   10914.800    3876.610    2555.700    2581.620    1393.340
      97.450   3048.2100    594.0000    10.16210   10875.400    4056.660    2541.840    2485.050    1940.330
      97.470   2735.8200    569.1250    10.15430   10660.900    4124.740    2631.900    2484.370    2095.730
      97.490   2589.6900    552.3750    10.15040   10612.600    4066.490    2624.920    2713.510    1847.490
      97.510   2402.3200    549.6250    10.11910   10765.900    3940.470    2501.000    2771.380    1559.330
      97.530   2232.9600    557.3750    10.08400   10918.100    3810.020    2436.400    2495.480    1447.630
      97.550   2940.1400    586.7500    10.12300   10802.200    3691.330    2496.510    2175.330    1504.720
      97.570   2361.2600    596.6250    10.04690   10450.300    3659.890    2666.120    2127.140    1755.060
      97.590   2460.9100    572.7500    10.02540    9979.730    3581.380    2745.360    2256.360    2097.590
      97.610   2536.5300    562.5000    10.00980    9352.500    3477.670    2852.830    2230.550    2226.280
      97.630   3060.0200    577.1250    10.03130    8741.840    3435.510    3032.520    2199.410    1971.930
      97.650   2378.8900    587.8750    10.07230    8294.560    3472.690    3020.970    2447.850    1712.110
      97.670   2745.8900    592.8750    10.08200    8038.610    3607.940    3009.360    2491.460    2090.480
      97.690   2684.8800    593.1250    10.14260    7844.500    3679.630    3131.280    2126.320    2038.950
      97.710   2186.2800    584.5000    10.12300    7780.600    3777.660    3129.110    1943.850    1292.470
      97.730   2411.8100    575.6250    10.13480    7914.970    3924.890    2929.980    2084.520    1486.310
      97.750   2056.8200    565.1250    10.12500    8238.540    3953.970    2767.290    2361.500    2440.170
      97.770   2406.2900    570.6250    10.08590    8818.580    3982.820    2754.810    2489.300    2708.420
      97.790   2763.3200    609.5000    10.12500    9339.890    4085.540    2834.510    2548.810    2104.180
      97.810   3030.1900    627.2500    10.10160    9857.170    4139.480    2837.580    2754.480    1375.840
      97.830   2423.4300    605.8750    10.11720   10371.400    4062.290    2823.970    2876.110    1364.230
      97.850   2872.9400    599.3750    10.10550   10689.400    3982.410    2978.470    2806.210    1706.220
      97.870   2219.3000    618.6250    10.06250   10846.500    3989.950    3004.050    2691.260    1582.060
      97.890   2675.2000    630.3750    10.03910   10888.400    4083.390    2777.710    2671.980    1350.660
      97.910   2969.3800    630.7500    10.05270   10870.600    4118.170    2678.410    2520.570    1542.180
      97.930   2569.1700    629.7500    10.06450   10571.800    4115.170    2762.490    2549.640    1724.220
      97.950   2675.7800    624.0000    10.07810   10128.800    4200.650    2949.680    2634.600    1841.030
      97.970   2207.7800    610.7500    10.10350    9720.080    4219.340    3090.450    2380.450    2142.750
      97.990   3063.3100    581.8750    10.14450    9498.810    4052.570    3169.410    2378.580    2103.870
      98.010   2819.6800    572.8750    10.16600    9332.420    3901.800    3306.010    2678.280    1811.470
      98.030   2703.8600    600.2500    10.15230    9223.090    3897.850    3411.450    2817.060    1531.580
      98.050   2476.1100    609.1250    10.12110    9277.340    3991.990    3438.540    2609.940    1305.360
      98.070   2088.0000    586.6250    10.16990    9328.260    4068.170    3408.470    2340.110    1408.960
      98.090   2312.2600    579.5000    10.14260    9107.670    4104.180    3379.170    2326.130    1603.300
      98.110   2276.5300    597.6250    10.16020    8696.210    4164.630    3295.760    2362.000    1818.220
      98.130   2254.1600    611.6250    10.14450    8481.270    4232.620    3304.510    2398.350    2012.970
      98.150   2164.2000    621.2500    10.13870    8552.380    4280.530    3270.830    2431.650    1793.920
      98.170   2645.5700    616.8750    10.17580    8819.920    4296.410    3067.060    2286.490    1833.910
      98.190   3184.3500    582.5000    10.08790    9109.630    4294.800    3053.170    2022.250    2285.990
      98.210   2592.8900    569.6250    10.11520    9350.200    4241.250    3157.000    1825.420    2453.750
      98.230   2598.3100    595.8750    10.11130    9638.290    4205.340    3101.790    1860.050    2027.200
      98.250   2688.5600    608.1250    10.08200   10036.000    4122.490    2855.050    2056.570    1429.990
      98.270   2972.6700    597.2500    10.11720   10373.100    3965.800    2618.570    2063.400    1364.070
      98.290   2685.0800    595.1250    10.06640   10537.700    3931.720    2531.570    1900.570    1622.740
      98.310   2778.6200    609.0000    10.07620   10543.700    3938.030    2491.670    1908.010    1568.070
      98.330   2638.2100    613.6250    10.10160   10378.200    3811.280    2425.210    1946.410    1533.940
      98.350   2399.5100    604.7500    10.07420   10074.400    3564.210    2319.880    1942.650    1994.980
      98.370   2369.2000    592.3750    10.06450    9772.490    3339.320    2126.620    1963.730    2075.500
      98.390   2769.7100    571.8750    10.05270    9622.770    3152.430    1899.440    1964.200    1430.340
      98.410   4063.2200    566.2500    10.02540    9457.040    2954.500    1754.010    1913.350    1086.060
      98.430   3128.3800    585.8750    10.00390    9092.590    2733.030    1740.220    1798.700    1304.230
      98.450   2369.3000    590.8750    10.07420    8654.940    2497.030    1829.940    1952.340    1733.040
      98.470   3167.5100    570.1250    10.05080    8328.820    2239.270    1841.690    2131.670    1803.460
      98.490   3491.3200    565.6250    10.07620    7954.820    2011.240    1753.610    1903.170    1798.140
      98.510   3058.6600    589.5000    10.05470    7533.410    1878.840    1722.700    1838.130    2157.910
      98.530   2905.6700    592.0000    10.06250    7104.860    1828.210    1707.560    1855.470    2342.800
      98.550   2671.5200    558.7500    10.09380    6629.670    1832.200    1703.010    1662.890    2142.790
      98.570   3278.8700    541.2500    10.04690    6117.490    1803.330    1719.430    1683.790    1935.010
      98.590   3177.1900    547.2500    10.08590    5732.510    1739.550    1734.020    1871.670    1932.060
      98.610   2893.6600    563.3750    10.09960    5655.140    1719.750    1708.830    2049.560    1596.320
      98.630   3224.4400   -999.0000    10.15430    5782.890    1733.630    1615.310    2191.570    1595.680
      98.650   3191.3300    597.8750    10.15630    6069.580    1777.160    1678.860    2197.460    1795.940
      98.670   3214.7600    617.1250    10.09180    6336.480    1857.580    1806.450    2155.070    1361.880
      98.690   3405.5200    608.7500    10.15040    6452.330    1963.580    1723.620    2040.050    1352.810
      98.710   2978.4800   -999.0000    10.10550    6489.480    2076.310    1687.380    1783.220    1953.780
      98.730   3911.0000    599.5000    10.08200    6480.300    2179.690    1675.680    1660.600    2396.170
