~VERSION INFORMATION SECTION
VERS.           2.0  :CWLS Log ASCII Standard - 2.0
WRAP.           NO   :One line per depth
#               Created in SeisLab
~WELL INFORMATION SECTION
#MNEM.UNIT  VALUE/NAME               :DESCRIPTION    
STRT.m  11                           :Start Depth    
STOP.m  125                          :Stop Depth     
STEP.m  0.01                         :Step           
NULL.    -999.25                     :Null Value     
WELL.    GDP1                        :Well Name      
CTRY.    Switzerland                 :Country        
CNTY.                                :County         
STAT.                                :State          
API .                                :API number     
UWI .                                :Unique well ID 
LOC .    Grimsel pass, Switzerland   :Well Location  
FLD .    n/a                         :Field          
COMP.    n/a                         :Company        
SRVC.    University of Lausanne      :Service Company
DATE.    2016                        :Date           
~PARAMETER INFORMATION SECTION
#MNEM .UNITS  VALUE   :DESCRIPTION OF PARAMETER
Casing.n/a    0       :cased hole              
~CURVE INFORMATION SECTION
#MNEM     .UNITS  API CODES   :DESCRIPTION OF MNEMONIC      
depth     .m                  :measured depth (interpolated)
P_slowness.us/m               :FWS2016_25kHz_semblance      
S_slowness.us/m               :FWS2016_25kHz_semblance      
~A depth       P_slowness  S_slowness  
# ...
      43.550   242.07213   430.73356
      43.560   241.77095   429.68230
      43.570   241.46977   428.58800
      43.580   241.12556   427.46805
      43.590   240.73831   426.34810
      43.600   240.35107   425.21531
      43.610   239.96382   424.08252
      43.620   239.53354   422.94974
      43.630   239.10326   421.81695
      43.640   238.67298   420.68416
      43.650   238.19967   419.55138
      43.660   237.72636   418.41859
      43.670   237.25305   417.28580
      43.680   236.77974   416.16585
      43.690   236.30643   415.04590
      43.700   235.83311   414.04144
      43.710   235.35980   413.03698
      43.720   234.88649   412.08385
      43.730   234.41318   411.17375
      43.740   233.93987   410.30215
      43.750   233.46656   409.43054
      43.760   233.03628   408.58461
      43.770   232.60600   407.78169
      43.780   232.17572   407.06859
      43.790   231.74544   406.35549
      43.800   231.31516   405.70656
      43.810   230.84187   405.10066
      43.820   230.36857   404.53325
      43.830   229.89528   403.96584
      43.840   229.46502   403.42410
      43.850   229.03475   402.92539
      43.860   228.60449   402.50369
      43.870   228.17423   402.08198
      43.880   227.78698   401.67310
      43.890   227.35670   401.30723
      43.900   226.92643   400.97987
      43.910   226.49615   400.65251
      43.920   226.06587   400.36364
      43.930   225.59256   400.03175
      43.940   225.11925   399.75120
      43.950   224.64593   399.42761
      43.960   224.21566   399.12969
      43.970   223.78538   398.74572
      43.980   223.35510   398.37457
      43.990   222.88180   397.91736
      44.000   222.40851   397.53011
      44.010   221.93521   397.05682
      44.020   221.50495   396.62654
      44.030   221.07469   396.06718
      44.040   220.64443   395.55085
      44.050   220.21416   394.94848
      44.060   219.82692   394.34610
      44.070   219.48269   393.70069
      44.080   219.13846   393.09831
      44.090   218.79423   392.45290
      44.100   218.49303   391.85051
      44.110   218.27041   391.24811
      44.120   218.04779   390.68875
      44.130   217.84554   390.12939
      44.140   217.68633   389.61307
      44.150   217.56784   389.09674
      44.160   217.49236   388.62343
      44.170   217.49236   388.15011
      44.180   217.49236   387.71984
      44.190   217.49236   387.28956
      44.200   217.53539   386.85928
      44.210   217.62144   386.42900
      44.220   217.70749   385.99872
      44.230   217.83657   385.61148
      44.240   217.96566   385.22423
      44.250   218.10069   384.83698
      44.260   218.27875   384.44974
      44.270   218.45682   384.10552
      44.280   218.63489   383.76131
      44.290   218.81295   383.41710
      44.300   218.99102   383.07289
      44.310   219.10936   382.72867
      44.320   219.22770   382.38446
      44.330   219.30754   382.04025
      44.340   219.38738   381.65300
      44.350   219.30039   381.26575
      44.360   219.21341   380.87851
      44.370   218.97244   380.49126
      44.380   218.73148   380.06100
      44.390   218.45202   379.63074
      44.400   218.17256   379.20048
      44.410   217.86743   378.77021
      44.420   217.60531   378.29692
      44.430   217.27200   377.78059
      44.440   216.93869   377.26426
      44.450   216.55144   376.74793
      44.460   216.16420   376.18857
      44.470   215.77695   375.62921
      44.480   215.38970   375.06985
      44.490   214.95943   374.51049
      44.500   214.57218   373.90811
      44.510   214.18493   373.30574
      44.520   213.79769   372.70336
      44.530   213.36741   372.10098
      44.540   212.98016   371.54162
      44.550   212.59292   371.02530
      44.560   212.20567   370.55200
      44.570   211.81843   370.07870
      44.580   211.43118   369.69146
      44.590   211.00092   369.34723
      44.600   210.61367   369.08907
      44.610   210.22643   368.83090
      44.620   209.83918   368.65879
      44.630   209.45193   368.52970
      44.640   209.06469   368.52970
      44.650   208.67744   368.57274
      44.660   208.29020   368.70182
      44.670   207.85992   368.87392
      44.680   207.38662   369.08905
      44.690   206.91333   369.34721
      44.700   206.44003   369.64841
      44.710   205.96674   369.99264
      44.720   205.41487   370.33687
      44.730   204.86300   370.72411
      44.740   204.29075   371.11136
      44.750   203.71851   371.49861
      44.760   203.10554   371.88585
      44.770   202.49257   372.31613
      44.780   201.80413   372.74641
      44.790   201.11569   373.17669
      44.800   200.42725   373.60697
      44.810   199.73880   374.03725
      44.820   199.00734   374.46752
      44.830   198.27589   374.85477
      44.840   197.50139   375.19898
      44.850   196.72690   375.54320
      44.860   195.94646   375.88741
      44.870   195.16602   376.18861
      44.880   194.38557   376.44677
      44.890   193.56210   376.66190
      44.900   192.73862   376.87703
      44.910   191.91515   377.04913
      44.920   191.15139   377.22123
      44.930   190.43067   377.35031
      44.940   189.74846   377.47939
      44.950   189.06625   377.60848
      44.960   188.55085   377.73756
      44.970   188.03546   377.86664
      44.980   187.67405   377.99572
      44.990   187.31264   378.12480
      45.000   186.98972   378.25389
      45.010   186.66680   378.38297
      45.020   186.36956   378.51205
      45.030   186.13100   378.68415
      45.040   185.96364   378.89928
      45.050   185.81928   379.15346
      45.060   185.72885   379.40764
      45.070   185.71315   379.67907
      45.080   185.69744   379.95049
      45.090   185.79210   380.30277
      45.100   185.92979   380.65505
      45.110   186.16930   381.14849
      45.120   186.40880   381.64193
      45.130   186.73995   382.23803
      45.140   187.11413   382.83413
      45.150   187.54941   383.54572
      45.160   187.98469   384.21428
      45.170   188.51161   385.04966
      45.180   189.03852   385.88503
      45.190   189.68944   386.83590
      45.200   190.38338   387.74375
      45.210   191.13479   388.80561
      45.220   191.88620   389.86746
      45.230   192.71233   391.01913
      45.240   193.53846   392.12777
      45.250   194.51979   393.30057
      45.260   195.50111   394.43034
      45.270   196.59741   395.64993
      45.280   197.73674   396.82651
      45.290   198.97379   398.09292
      45.300   200.21084   399.31630
      45.310   201.52834   400.60384
      45.320   202.84585   401.84834
      45.330   204.23810   403.18267
      45.340   205.63034   404.47398
      45.350   207.08007   405.86795
      45.360   208.52979   407.26192
      45.370   210.01974   408.83554
      45.380   211.50969   410.36613
      45.390   213.03989   411.98656
      45.400   214.57008   413.60698
      45.410   216.13477   415.43272
      45.420   217.69946   417.25846
      45.430   219.26415   419.18685
      45.440   220.82884   421.15828
      45.450   222.41651   423.25803
      45.460   224.00418   425.35779
      45.470   225.64933   427.41905
      45.480   227.29448   429.52333
      45.490   228.93962   431.60193
      45.500   230.62780   433.72357
      45.510   232.31598   435.78105
      45.520   234.00416   437.88156
      45.530   235.70959   439.87941
      45.540   237.37198   441.92028
      45.550   239.03438   443.88416
      45.560   240.69677   445.84805
      45.570   242.35916   447.72210
      45.580   244.02156   449.59615
      45.590   245.64372   451.41887
      45.600   247.26589   453.24159
      45.610   248.81333   455.01298
      45.620   250.36077   456.78438
      45.630   251.89097   458.47877
      45.640   253.36248   460.13015
      45.650   254.79374   461.74303
      45.660   256.20200   463.31687
      45.670   257.61026   464.85220
      45.680   258.94380   466.37028
      45.690   260.27734   467.86270
      45.700   261.50052   469.27428
      45.710   262.72370   470.60885
