~VERSION INFORMATION SECTION
VERS.           2.0  :CWLS Log ASCII Standard - 2.0
WRAP.           NO   :One line per depth
#               Created in SeisLab
~WELL INFORMATION SECTION
#MNEM.UNIT  VALUE/NAME               :DESCRIPTION    
STRT.m  11                           :Start Depth    
STOP.m  125                          :Stop Depth     
STEP.m  0.01                         :Step           
NULL.    -999.25                     :Null Value     
WELL.    GDP1                        :Well Name      
CTRY.    Switzerland                 :Country        
CNTY.                                :County         
STAT.                                :State          
API .                                :API number     
UWI .                                :Unique well ID 
LOC .    Grimsel pass, Switzerland   :Well Location  
FLD .    n/a                         :Field          
COMP.    n/a                         :Company        
SRVC.    University of Lausanne      :Service Company
DATE.    2016                        :Date           
~PARAMETER INFORMATION SECTION
#MNEM .UNITS  VALUE   :DESCRIPTION OF PARAMETER
Casing.n/a    0       :cased hole              
~CURVE INFORMATION SECTION
#MNEM     .UNITS  API CODES   :DESCRIPTION OF MNEMONIC      
depth     .m                  :measured depth (interpolated)
P_slowness.us/m               :FWS2016_25kHz_semblance      
S_slowness.us/m               :FWS2016_25kHz_semblance      
~A depth       P_slowness  S_slowness  
# ...
     102.140   207.98008   379.10085
     102.150   208.18541   379.29334
     102.160   208.39074   379.42167
     102.170   208.59607   379.58849
     102.180   208.85272   379.65264
     102.190   209.13503   379.76813
     102.200   209.41734   379.88362
     102.210   209.69966   380.06326
     102.220   209.98197   380.24290
     102.230   210.27711   380.44821
     102.240   210.57226   380.65352
     102.250   210.89308   380.87167
     102.260   211.18823   381.08982
     102.270   211.50903   381.30797
     102.280   211.80418   381.52611
     102.290   212.09933   381.93675
     102.300   212.34313   382.32174
     102.310   212.65110   382.79654
     102.320   212.95907   383.27134
     102.330   213.34403   383.74615
     102.340   213.66485   384.20811
     102.350   214.04984   384.67008
     102.360   214.40915   385.13205
     102.370   214.76846   385.59402
     102.380   215.11493   386.13298
     102.390   215.46141   386.64628
     102.400   215.78223   387.15957
     102.410   216.12870   387.63438
     102.420   216.47518   388.10918
     102.430   216.82166   388.55833
     102.440   217.16813   389.03313
     102.450   217.51461   389.48226
     102.460   217.86108   389.93139
     102.470   218.18190   390.36769
     102.480   218.56689   390.81682
     102.490   218.95187   391.24030
     102.500   219.33685   391.68944
     102.510   219.72184   392.13859
     102.520   220.10682   392.58774
     102.530   220.44048   392.99838
     102.540   220.79979   393.43467
     102.550   221.14626   393.86854
     102.560   221.53123   394.36657
     102.570   221.89052   394.86461
     102.580   222.24982   395.40113
     102.590   222.58346   395.90087
     102.600   222.98126   396.40061
     102.610   223.35339   396.75323
     102.620   223.72552   397.13152
     102.630   224.07200   397.46779
     102.640   224.41848   397.80405
     102.650   224.75211   398.04572
     102.660   225.07293   398.28739
     102.670   225.48357   398.42398
     102.680   225.86854   398.49641
     102.690   226.20218   398.49528
     102.700   226.47166   398.44282
     102.710   226.74113   398.31680
     102.720   226.98495   398.17795
     102.730   227.22877   397.92349
     102.740   227.43408   397.51505
     102.750   227.63939   397.10661
     102.760   227.79338   396.69816
     102.770   227.89603   396.24769
     102.780   227.99869   395.75872
     102.790   228.10134   395.26975
     102.800   228.17834   394.72944
     102.810   228.25534   394.18913
     102.820   228.33234   393.58467
     102.830   228.40934   393.04328
     102.840   228.47351   392.47621
     102.850   228.56334   391.90915
     102.860   228.62751   391.32925
     102.870   228.74300   390.75984
     102.880   228.83284   390.19043
     102.890   228.92267   389.64205
     102.900   229.01251   388.90118
     102.910   229.12800   388.22336
     102.920   229.17933   387.45572
     102.930   229.25633   386.74062
     102.940   229.25633   386.02552
     102.950   229.25633   385.38398
     102.960   229.19216   384.74244
     102.970   229.15366   384.20598
     102.980   229.11515   383.66952
     102.990   229.07664   383.20662
     103.000   229.03813   382.76939
     103.010   228.99962   382.37421
     103.020   228.93546   382.01752
     103.030   228.87130   381.68185
     103.040   228.80713   381.37184
     103.050   228.74297   381.06182
     103.060   228.67880   380.77748
     103.070   228.61464   380.49313
     103.080   228.57613   380.22162
     103.090   228.55744   379.98164
     103.100   228.53875   379.76731
     103.110   228.52007   379.54248
     103.120   228.50138   379.31764
     103.130   228.48269   379.09280
     103.140   228.51533   378.90648
     103.150   228.54797   378.72015
     103.160   228.59344   378.53625
     103.170   228.63892   378.35234
     103.180   228.71007   378.16844
     103.190   228.78121   377.98454
     103.200   228.87802   377.83743
     103.210   228.97482   377.69031
     103.220   229.09730   377.69031
     103.230   229.17674   377.69031
     103.240   229.28184   377.73234
     103.250   229.38693   377.80590
     103.260   229.50487   377.97405
     103.270   229.57977   378.08966
     103.280   229.56485   378.31034
     103.290   229.54993   378.53103
     103.300   229.58634   378.82528
     103.310   229.62275   379.11952
     103.320   229.65916   379.48733
     103.330   229.65256   379.81308
     103.340   229.64595   380.25444
     103.350   229.63934   380.64326
     103.360   229.63274   381.03208
     103.370   229.58310   381.39989
     103.380   229.58479   381.80972
     103.390   229.58648   382.21956
     103.400   229.58816   382.62939
     103.410   229.54682   383.09177
     103.420   229.50548   383.55415
     103.430   229.46413   384.03754
     103.440   229.42279   384.45787
     103.450   229.33843   384.87820
     103.460   229.22839   385.29852
     103.470   229.11836   385.64530
     103.480   228.95700   385.98157
     103.490   228.75261   386.31785
     103.500   228.54821   386.63310
     103.510   228.34382   386.94834
     103.520   228.11377   387.20054
     103.530   227.84069   387.45274
     103.540   227.54193   387.65239
     103.550   227.24318   387.85205
     103.560   226.94443   387.97815
     103.570   226.60266   388.12526
     103.580   226.23523   388.16730
     103.590   225.86780   388.24085
     103.600   225.50038   388.24085
     103.610   225.08992   388.24085
     103.620   224.67946   388.19880
     103.630   224.26900   388.15675
     103.640   223.85854   388.09369
     103.650   223.44808   388.01897
     103.660   223.03762   387.94425
     103.670   222.58413   387.82649
     103.680   222.13064   387.70874
     103.690   221.67715   387.59098
     103.700   221.20384   387.44170
     103.710   220.68751   387.29243
     103.720   220.17118   387.15366
     103.730   219.65485   387.01489
     103.740   219.13852   386.87611
     103.750   218.57916   386.69431
     103.760   218.01980   386.51251
     103.770   217.46044   386.33070
     103.780   216.90108   386.14890
     103.790   216.29869   385.92408
     103.800   215.69630   385.69926
     103.810   215.09390   385.47444
     103.820   214.49151   385.24962
     103.830   213.88911   384.98177
     103.840   213.32975   384.71392
     103.850   212.72738   384.40303
     103.860   212.12500   384.06062
     103.870   211.52262   383.71821
     103.880   210.96328   383.42834
     103.890   210.40393   383.09546
     103.900   209.84459   382.76257
     103.910   209.28525   382.42969
     103.920   208.72590   382.09680
     103.930   208.16656   381.76392
     103.940   207.65023   381.47308
     103.950   207.13390   381.18225
     103.960   206.61757   380.94395
     103.970   206.10125   380.70566
     103.980   205.62795   380.48838
     103.990   205.19767   380.27110
     104.000   204.76739   380.05382
     104.010   204.33711   379.83654
     104.020   203.94987   379.56672
     104.030   203.56262   379.29690
     104.040   203.17538   379.00607
     104.050   202.83116   378.71523
     104.060   202.52997   378.42439
     104.070   202.22877   378.17657
     104.080   201.92757   378.00231
     104.090   201.62638   377.82805
     104.100   201.36821   377.65379
     104.110   201.11005   377.52256
     104.120   200.85189   377.39133
     104.130   200.63675   377.30313
     104.140   200.46466   377.21493
     104.150   200.29256   377.12674
     104.160   200.12046   377.03854
     104.170   199.94836   376.99336
     104.180   199.81928   376.92716
     104.190   199.73321   376.90400
     104.200   199.64715   376.84931
     104.210   199.60411   376.79462
     104.220   199.60411   376.73993
     104.230   199.60411   376.72828
     104.240   199.60411   376.71662
     104.250   199.60411   376.70497
     104.260   199.60411   376.70497
     104.270   199.64715   376.70497
     104.280   199.73321   376.74800
     104.290   199.86590   376.79103
     104.300   199.99859   376.83407
