~VERSION INFORMATION SECTION
VERS.           2.0  :CWLS Log ASCII Standard - 2.0
WRAP.           NO   :One line per depth
#               Created in SeisLab
~WELL INFORMATION SECTION
#MNEM.UNIT  VALUE/NAME               :DESCRIPTION    
STRT.m  10                           :Start Depth    
STOP.m  125                          :Stop Depth     
STEP.m  0.01                         :Step           
NULL.    -999.25                     :Null Value     
WELL.    GDP1                        :Well Name      
CTRY.    Switzerland                 :Country        
CNTY.                                :County         
STAT.    Central Swiss Alps          :State          
API .                                :API number     
UWI .                                :Unique well ID 
LOC .    Grimsel Pass, Switzerland   :Well Location  
FLD .    n/a                         :Field          
COMP.    n/a                         :Company        
SRVC.    University of Lausanne      :Service Company
DATE.    2015                        :Date           
~PARAMETER INFORMATION SECTION
#MNEM .UNITS    VALUE   :DESCRIPTION OF PARAMETER
Casing.n/a      0       :open hole               
Mud   .Polymer  1       :Mud type                
~CURVE INFORMATION SECTION
#MNEM.UNITS  API CODES   :DESCRIPTION OF MNEMONIC
depth.m                  :measured depth         
NG   .cps                :Natural gamma          
Sp   .mV                 :Self potential         
Temp .DegC               :Temperature            
SPR  .Ohm                :Single point resistance
R8   .Ohm.m              :Normal resistivity     
R16  .Ohm.m              :Single point resistance
R32  .Ohm.m              :Normal resistivity     
R64  .Ohm.m              :Normal resistivity     
~A depth       NG          Sp          Temp        SPR         R8          R16         R32         R64         
# ...
     116.560   296.21488    572.2235     8.89843    3574.671    4612.141    5758.302    7064.395    3612.573
     116.570   296.55953    572.0163     8.89746    3640.744    4717.039    5839.879    7068.265    3600.064
     116.580   296.85733    571.6422     8.88233    3708.799    4824.660    5923.804    7072.099    3589.738
     116.590   297.10370    571.1457     8.86719    3778.518    4934.617    6009.952    7076.103    3581.678
     116.600   297.29553    570.5726     8.88330    3849.582    5046.521    6098.190    7080.484    3575.956
     116.610   297.43135    569.9680     8.89941    3921.670    5159.981    6188.380    7085.452    3572.630
     116.620   297.51128    569.3734     8.90625    3994.462    5274.602    6280.375    7091.213    3571.743
     116.630   297.53692    568.8245     8.91309    4067.639    5389.992    6374.024    7097.978    3573.322
     116.640   297.51116    568.3478     8.90088    4140.891    5505.762    6469.166    7105.950    3577.382
     116.650   297.43788    567.9589     8.88867    4213.909    5621.527    6565.638    7115.331    3583.920
     116.660   297.32172    567.6615     8.88477    4286.395    5736.909    6663.266    7126.319    3592.919
     116.670   297.16788    567.4491     8.88086    4358.059    5851.536    6761.872    7139.105    3604.348
     116.680   296.98183    567.3070     8.89600    4428.623    5965.048    6861.270    7153.874    3618.160
     116.690   296.76910    567.2163     8.91113    4497.819    6077.095    6961.272    7170.802    3634.294
     116.700   296.53501    567.1576     8.91455    4565.396    6187.339    7061.682    7190.057    3652.674
     116.710   296.28446    567.1139     8.91797    4631.114    6295.459    7162.299    7211.797    3673.213
     116.720   296.02191    567.0720     8.91797    4694.750    6401.145    7262.920    7236.167    3695.810
     116.730   295.75129    567.0239     8.91797    4756.098    6504.107    7363.338    7263.301    3720.353
     116.740   295.47619    566.9666     8.91992    4814.969    6604.071    7463.344    7293.320    3746.716
     116.750   295.19989    566.9019     8.92188    4871.191    6700.783    7562.728    7326.331    3774.769
     116.760   294.92556    566.8357     8.89600    4924.611    6794.007    7661.279    7362.424    3804.367
     116.770   294.65629    566.7770     8.87012    4975.095    6883.527    7758.785    7401.675    3835.361
     116.780   294.39526    566.7362     8.87549    5022.527    6969.149    7855.040    7444.144    3867.596
     116.790   294.14586    566.7219     8.88086    5066.810    7050.701    7949.836    7489.872    3900.908
     116.800   293.91174    566.7390     8.90478    5107.867    7128.030    8042.972    7538.883    3935.132
     116.810   293.69686    566.7861     8.92871    5145.638    7201.008    8134.252    7591.183    3970.101
     116.820   293.50536    566.8553     8.92188    5180.083    7269.526    8223.483    7646.758    4005.644
     116.830   293.34146    566.9331     8.91504    5211.180    7333.500    8310.483    7705.577    4041.592
     116.840   293.20919    567.0035     8.92774    5238.923    7392.865    8395.076    7767.589    4077.777
     116.850   293.11217    567.0522     8.94043    5263.324    7447.581    8477.098    7832.723    4114.032
     116.860   293.05344    567.0703     8.91992    5284.413    7497.627    8556.391    7900.893    4150.197
     116.870   293.03518    567.0563     8.89941    5302.233    7543.003    8632.813    7971.988    4186.114
     116.880   293.05872    567.0169     8.89600    5316.842    7583.731    8706.230    8045.885    4221.635
     116.890   293.12449    566.9659     8.89258    5328.313    7619.850    8776.525    8122.440    4256.616
     116.900   293.23203    566.9215     8.91211    5336.732    7651.420    8843.591    8201.491    4290.924
     116.910   293.38012    566.9025     8.93164    5342.195    7678.519    8907.338    8282.863    4324.435
     116.920   293.56680    566.9246     8.94629    5344.812    7701.241    8967.687    8366.363    4357.035
     116.930   293.78956    566.9973     8.96094    5344.700    7719.697    9024.577    8451.784    4388.623
     116.940   294.04538    567.1207     8.95899    5341.987    7734.013    9077.962    8538.907    4419.108
     116.950   294.33074    567.2854     8.95703    5336.806    7744.331    9127.810    8627.501    4448.412
     116.960   294.64162    567.4726     8.96386    5329.299    7750.802    9174.103    8717.323    4476.472
     116.970   294.97346    567.6562     8.97070    5319.612    7753.592    9216.842    8808.123    4503.236
     116.980   295.32105    567.8068     8.95019    5307.898    7752.877    9256.040    8899.642    4528.666
     116.990   295.67857    567.8945     8.92969    5294.311    7748.841    9291.724    8991.615    4552.739
     117.000   296.03954    567.8938     8.93262    5279.009    7741.677    9323.938    9083.774    4575.445
     117.010   296.39684    567.7861     8.93555    5262.149    7731.586    9352.737    9175.847    4596.787
     117.020   296.74289    567.5617     8.95166    5243.892    7718.771    9378.190    9267.563    4616.779
     117.030   297.06985    567.2199     8.96777    5224.396    7703.444    9400.378    9358.650    4635.452
     117.040   297.36997    566.7676     8.94970    5203.819    7685.816    9419.393    9448.841    4652.846
     117.050   297.63606    566.2175     8.93164    5182.316    7666.102    9435.339    9537.869    4669.012
     117.060   297.86187    565.5854     8.93408    5160.040    7644.516    9448.327    9625.478    4684.013
     117.070   298.04249    564.8892     8.93652    5137.140    7621.274    9458.480    9711.416    4697.921
     117.080   298.17462    564.1480     8.95800    5113.762    7596.588    9465.925    9795.441    4710.815
     117.090   298.25664    563.3818     8.97949    5090.044    7570.667    9470.799    9877.322    4722.784
     117.100   298.28867    562.6118     8.97266    5066.122    7543.717    9473.241    9956.838    4733.922
     117.110   298.27240    561.8594     8.96582    5042.125    7515.939    9473.399   10033.784    4744.329
     117.120   298.21093    561.1462     8.95117    5018.173    7487.529    9471.420   10107.967    4754.107
     117.130   298.10846    560.4930     8.93652    4994.384    7458.674    9467.456   10179.209    4763.364
     117.140   297.96992    559.9189     8.94873    4970.865    7429.557    9461.660   10247.348    4772.207
     117.150   297.80077    559.4416     8.96094    4947.717    7400.348    9454.185   10312.241    4780.744
     117.160   297.60670    559.0773     8.93702    4925.034    7371.212    9445.182   10373.760    4789.085
     117.170   297.39352    558.8413     8.91309    4902.901    7342.304    9434.804   10431.796    4797.334
     117.180   297.16692    558.7486     8.93360    4881.395    7313.767    9423.199   10486.258    4805.595
     117.190   296.93231    558.8140     8.95410    4860.587    7285.735    9410.512   10537.074    4813.967
     117.200   296.69455    559.0514     8.96924    4840.538    7258.331    9396.884   10584.189    4822.545
     117.210   296.45776    559.4743     8.98438    4821.302    7231.666    9382.454   10627.568    4831.419
     117.220   296.22523    560.0947     8.96826    4802.924    7205.841    9367.351   10667.195    4840.671
     117.230   295.99944    560.9242     8.95215    4785.442    7180.946    9351.703   10703.071    4850.378
     117.240   295.78205    561.9737     8.95703    4768.887    7157.056    9335.629   10735.214    4860.608
     117.250   295.57403    563.2541     8.96191    4753.280    7134.239    9319.243   10763.660    4871.423
     117.260   295.37573    564.7767     8.96826    4738.637    7112.548    9302.648   10788.461    4882.876
     117.270   295.18706    566.5526     8.97461    4724.967    7092.027    9285.946   10809.687    4895.012
     117.280   295.00757    568.5920     8.94873    4712.270    7072.708    9269.226   10827.421    4907.867
     117.290   294.83653    570.9027     8.92285    4700.542    7054.613    9252.571   10841.760    4921.472
