~VERSION INFORMATION SECTION
VERS.           2.0  :CWLS Log ASCII Standard - 2.0
WRAP.           NO   :One line per depth
#               Created in SeisLab
~WELL INFORMATION SECTION
#MNEM.UNIT  VALUE/NAME               :DESCRIPTION    
STRT.m  10                           :Start Depth    
STOP.m  124                          :Stop Depth     
STEP.m  0.01                         :Step           
NULL.    -999.25                     :Null Value     
WELL.    GDP1                        :Well Name      
CTRY.    Switzerland                 :Country        
CNTY.                                :County         
STAT.    Central Swiss Alps          :State          
API .                                :API number     
UWI .                                :Unique well ID 
LOC .    Grimsel pass, Switzerland   :Well Location  
FLD .    n/a                         :Field          
COMP.    n/a                         :Company        
SRVC.    University of Lausanne      :Service Company
DATE.    2015/2016                   :Date           
~PARAMETER INFORMATION SECTION
#MNEM .UNITS  VALUE   :DESCRIPTION OF PARAMETER
Casing.n/a    0       :open hole/cased hole    
~CURVE INFORMATION SECTION
#MNEM       .UNITS  API CODES   :DESCRIPTION OF MNEMONIC      
depth       .m                  :measured depth (interpolated)
BHR velocity.m/ns               :BHR velocity 2015            
BHR velocity.m/ns               :BHR velocity 2016            
~A depth       BHR_velocity BHR_velocity
# ...
      62.080     0.11100     0.11074
      62.090     0.11099     0.11072
      62.100     0.11103     0.11070
      62.110     0.11107     0.11068
      62.120     0.11108     0.11070
      62.130     0.11109     0.11072
      62.140     0.11111     0.11074
      62.150     0.11112     0.11076
      62.160     0.11113     0.11077
      62.170     0.11114     0.11079
      62.180     0.11116     0.11081
      62.190     0.11118     0.11083
      62.200     0.11119     0.11085
      62.210     0.11120     0.11086
      62.220     0.11123     0.11085
      62.230     0.11127     0.11083
      62.240     0.11129     0.11081
      62.250     0.11131     0.11079
      62.260     0.11136     0.11077
      62.270     0.11141     0.11077
      62.280     0.11143     0.11077
      62.290     0.11144     0.11077
      62.300     0.11144     0.11077
      62.310     0.11144     0.11077
      62.320     0.11145     0.11079
      62.330     0.11146     0.11081
      62.340     0.11147     0.11083
      62.350     0.11148     0.11085
      62.360     0.11147     0.11086
      62.370     0.11146     0.11088
      62.380     0.11144     0.11090
      62.390     0.11141     0.11092
      62.400     0.11141     0.11094
      62.410     0.11141     0.11096
      62.420     0.11140     0.11101
      62.430     0.11139     0.11107
      62.440     0.11137     0.11112
      62.450     0.11135     0.11118
      62.460     0.11131     0.11123
      62.470     0.11127     0.11120
      62.480     0.11128     0.11116
      62.490     0.11129     0.11112
      62.500     0.11128     0.11109
      62.510     0.11127     0.11105
      62.520     0.11121     0.11101
      62.530     0.11116     0.11097
      62.540     0.11115     0.11094
      62.550     0.11114     0.11090
      62.560     0.11116     0.11086
      62.570     0.11118     0.11086
      62.580     0.11116     0.11086
      62.590     0.11114     0.11086
      62.600     0.11114     0.11086
      62.610     0.11114     0.11086
      62.620     0.11117     0.11086
      62.630     0.11120     0.11086
      62.640     0.11120     0.11086
      62.650     0.11120     0.11086
      62.660     0.11123     0.11086
      62.670     0.11127     0.11092
      62.680     0.11130     0.11097
      62.690     0.11133     0.11103
      62.700     0.11135     0.11109
      62.710     0.11137     0.11114
      62.720     0.11139     0.11112
      62.730     0.11141     0.11110
      62.740     0.11146     0.11109
      62.750     0.11150     0.11107
      62.760     0.11153     0.11105
      62.770     0.11156     0.11094
      62.780     0.11159     0.11083
      62.790     0.11161     0.11072
      62.800     0.11163     0.11061
      62.810     0.11165     0.11050
      62.820     0.11168     0.11043
      62.830     0.11171     0.11035
      62.840     0.11171     0.11028
      62.850     0.11171     0.11021
      62.860     0.11169     0.11014
      62.870     0.11167     0.11003
      62.880     0.11167     0.10992
      62.890     0.11167     0.10981
      62.900     0.11167     0.10971
      62.910     0.11167     0.10960
      62.920     0.11166     0.10958
      62.930     0.11165     0.10956
      62.940     0.11165     0.10954
      62.950     0.11165     0.10953
      62.960     0.11166     0.10951
      62.970     0.11167     0.10960
      62.980     0.11167     0.10969
      62.990     0.11167     0.10978
      63.000     0.11167     0.10987
      63.010     0.11167     0.10996
      63.020     0.11166     0.11008
      63.030     0.11165     0.11021
      63.040     0.11165     0.11034
      63.050     0.11165     0.11046
      63.060     0.11162     0.11059
      63.070     0.11159     0.11081
      63.080     0.11156     0.11103
      63.090     0.11154     0.11125
      63.100     0.11152     0.11147
      63.110     0.11150     0.11169
      63.120     0.11151     0.11181
      63.130     0.11152     0.11192
      63.140     0.11151     0.11203
      63.150     0.11150     0.11214
      63.160     0.11150     0.11226
      63.170     0.11150     0.11224
      63.180     0.11151     0.11222
      63.190     0.11152     0.11220
      63.200     0.11152     0.11218
      63.210     0.11152     0.11216
      63.220     0.11149     0.11205
      63.230     0.11146     0.11194
      63.240     0.11143     0.11183
      63.250     0.11139     0.11171
      63.260     0.11137     0.11160
      63.270     0.11135     0.11155
      63.280     0.11132     0.11149
      63.290     0.11129     0.11144
      63.300     0.11127     0.11138
      63.310     0.11124     0.11132
      63.320     0.11122     0.11134
      63.330     0.11120     0.11136
      63.340     0.11119     0.11138
      63.350     0.11118     0.11140
      63.360     0.11115     0.11142
      63.370     0.11112     0.11142
      63.380     0.11108     0.11142
      63.390     0.11105     0.11142
      63.400     0.11100     0.11142
      63.410     0.11095     0.11142
      63.420     0.11090     0.11131
      63.430     0.11086     0.11120
      63.440     0.11082     0.11109
      63.450     0.11078     0.11097
      63.460     0.11075     0.11086
      63.470     0.11071     0.11083
      63.480     0.11069     0.11079
      63.490     0.11067     0.11076
      63.500     0.11065     0.11072
      63.510     0.11063     0.11068
      63.520     0.11061     0.11070
      63.530     0.11059     0.11072
      63.540     0.11057     0.11074
      63.550     0.11055     0.11076
      63.560     0.11052     0.11077
      63.570     0.11050     0.11076
      63.580     0.11047     0.11074
      63.590     0.11044     0.11072
      63.600     0.11043     0.11070
      63.610     0.11042     0.11068
      63.620     0.11040     0.11061
      63.630     0.11038     0.11054
      63.640     0.11036     0.11046
      63.650     0.11034     0.11039
      63.660     0.11031     0.11032
      63.670     0.11029     0.11032
      63.680     0.11027     0.11032
      63.690     0.11025     0.11032
      63.700     0.11022     0.11032
      63.710     0.11019     0.11032
      63.720     0.11016     0.11034
      63.730     0.11013     0.11035
      63.740     0.11010     0.11037
      63.750     0.11006     0.11039
      63.760     0.11002     0.11041
      63.770     0.10998     0.11043
      63.780     0.10995     0.11045
      63.790     0.10992     0.11046
      63.800     0.10990     0.11048
      63.810     0.10988     0.11050
      63.820     0.10987     0.11043
      63.830     0.10986     0.11035
      63.840     0.10985     0.11028
      63.850     0.10984     0.11021
      63.860     0.10985     0.11014
      63.870     0.10986     0.11014
      63.880     0.10985     0.11014
      63.890     0.10984     0.11014
      63.900     0.10984     0.11014
      63.910     0.10984     0.11014
      63.920     0.10985     0.11016
      63.930     0.10986     0.11017
      63.940     0.10989     0.11019
      63.950     0.10992     0.11021
      63.960     0.10994     0.11023
      63.970     0.10996     0.11017
      63.980     0.10996     0.11012
      63.990     0.10996     0.11007
      64.000     0.10994     0.11001
      64.010     0.10992     0.10996
      64.020     0.10988     0.10990
      64.030     0.10984     0.10985
      64.040     0.10976     0.10980
      64.050     0.10969     0.10974
      64.060     0.10966     0.10969
      64.070     0.10963     0.10967
      64.080     0.10963     0.10965
      64.090     0.10963     0.10963
      64.100     0.10961     0.10962
      64.110     0.10959     0.10960
      64.120     0.10957     0.10963
      64.130     0.10955     0.10967
      64.140     0.10951     0.10971
      64.150     0.10948     0.10974
      64.160     0.10941     0.10978
      64.170     0.10934     0.10980
      64.180     0.10927     0.10981
      64.190     0.10920     0.10983
      64.200     0.10913     0.10985
      64.210     0.10907     0.10987
      64.220     0.10902     0.10978
      64.230     0.10897     0.10969
      64.240     0.10894     0.10960
