~VERSION INFORMATION SECTION
VERS.           2.0  :CWLS Log ASCII Standard - 2.0
WRAP.           NO   :One line per depth
#               Created in SeisLab
~WELL INFORMATION SECTION
#MNEM.UNIT  VALUE/NAME               :DESCRIPTION    
STRT.m  24.75                        :Start Depth    
STOP.m  125.11                       :Stop Depth     
STEP.m  0.02                         :Step           
NULL.    -999.25                     :Null Value     
WELL.    GDP1                        :Well Name      
CTRY.    Switzerland                 :Country        
CNTY.                                :County         
STAT.    Central Swiss Alps          :State          
API .                                :API number     
UWI .                                :Unique well ID 
LOC .    Grimsel Pass, Switzerland   :Well Location  
FLD .    n/a                         :Field          
COMP.    n/a                         :Company        
SRVC.    University of Lausanne      :Service Company
DATE.    2015                        :Date           
~PARAMETER INFORMATION SECTION
#MNEM .UNITS    VALUE   :DESCRIPTION OF PARAMETER
Casing.n/a      0       :open hole               
Mud   .Polymer  1       :Mud type                
~CURVE INFORMATION SECTION
#MNEM.UNITS  API CODES   :DESCRIPTION OF MNEMONIC
depth.m                  :measured depth         
NG   .cps                :Natural gamma          
Sp   .mV                 :Self potential         
Temp .DegC               :Temperature            
SPR  .Ohm                :Single point resistance
R8   .Ohm.m              :Normal resistivity     
R16  .Ohm.m              :Single point resistance
R32  .Ohm.m              :Normal resistivity     
R64  .Ohm.m              :Normal resistivity     
~A depth       NG          Sp          Temp        SPR         R8          R16         R32         R64         
# ...
      58.790   2347.0300    610.5000    10.75000    5165.530    1418.200    1324.230    1380.150    2081.040
      58.810   2491.5000    596.5000    10.77540    4903.950    1437.090    1224.900    1287.470    2231.080
      58.830   2663.9700    579.6250    10.80660    4701.090    1438.210    1114.650    1250.260    2385.110
      58.850   2657.5800    561.0000    10.75200    4676.730    1437.500    1022.350    1253.530    2386.840
      58.870   2438.5400    553.0000    10.81250    4945.100    1345.030     995.869    1285.770    2564.280
      58.890   2681.7800    578.6250    10.77730    5467.410    1201.270    1021.880    1347.800    2464.100
      58.910   2316.4300   -999.0000    10.77930    6146.620    1100.430    1043.080    1410.710    2277.620
      58.930   2602.3800    597.2500    10.75000    6754.640    1002.990     996.184    1397.300    2493.460
      58.950   2474.2700    591.0000    10.77540    7081.770     928.918    1009.510    1380.290    2411.510
      58.970   2128.3800    575.0000    10.77730    7094.660     901.123    1074.260    1346.060    2280.450
      58.990   2258.9100    540.6250    10.80660    6602.210     912.871    1053.430    1355.050    2594.470
      59.010   1862.2800    522.1250    10.74020    5875.550     923.661    1003.760    1472.890    2634.440
      59.030   2261.2300    527.0000    10.76950    5110.160     897.950     991.691    1565.830    2281.310
      59.050   2441.3400    538.7500    10.76760    4503.870     907.244    1010.100    1571.400    1941.350
      59.070   2392.8300    563.3750    10.75780    4067.950     944.702    1037.450    1547.190    2083.070
      59.090   2829.7500    567.5000    10.77540    3732.110     937.398    1072.150    1550.920    2425.560
      59.110   2462.3600    537.2500    10.78520    3376.590     909.294    1099.810    1569.740    2463.020
      59.130   2342.2800    518.6250    10.79880    3017.920     889.954    1075.690    1511.470    2281.150
      59.150   2452.2900    516.8750    10.80860    2770.330     882.781    1068.540    1443.600    1963.660
      59.170   2468.6500    516.6250    10.85550    2664.400     881.803    1062.950    1425.980    1985.350
      59.190   2329.6900    519.5000    10.83400    2707.860     878.331    1089.040    1375.730    2324.240
      59.210   2846.9800    519.8750    10.86910    2799.210     866.362    1169.160    1398.530    2379.790
      59.230   2861.7000    518.1250    10.83200    2840.310     830.816    1214.660    1490.620    2517.320
      59.250   2505.3500    520.5000    10.86910    2841.010     805.214    1212.970    1462.500    2810.180
      59.270   2891.3300    527.7500    10.83010    2914.370     784.951    1196.950    1375.140    2546.680
      59.290   2643.2400    531.2500    10.83980    3078.570     788.187    1187.150    1420.660    2066.200
      59.310   2800.8900    531.2500    10.84960    3280.700     831.874    1176.250    1536.320    1906.430
      59.330   2621.1700    538.1250    10.83400    3399.330     868.695    1114.960    1502.280    1729.520
      59.350   2794.6900    558.5000    10.82810    3356.070     879.808    1057.980    1410.990    1593.200
      59.370   2908.7600    558.0000    10.84570    3217.420     881.042    1052.770    1395.150    1615.680
      59.390   2792.3700    522.2500    10.83200    3014.670     888.705    1015.190    1428.190    1780.450
      59.410   2376.0800    507.3750    10.84180    2824.680     894.574    1002.790    1535.010    1875.540
      59.430   -999.0000    525.7500    10.82420    2712.910     869.994    1044.500    1615.280    1715.890
      59.450   2742.7900    536.5000    10.87300    2714.080     844.379    1026.070    1626.570    1771.370
      59.470   3140.7800    538.6250    10.83010    2827.660     838.157     984.169    1674.440    2015.060
      59.490   2656.2200   -999.0000    10.86330    2907.520     809.846    1025.150    1612.640    1962.220
      59.510   2474.2700    543.1250    10.82030    2844.380     784.284    1091.110    1421.210    1788.550
      59.530   2854.5400   -999.0000    10.80270    2756.130     778.886    1057.000    1341.840    1732.290
      59.550   2975.5800    559.2500    10.77730    2805.320     757.143    1002.760    1430.110    1715.220
      59.570   2287.8600   -999.0000    10.83400    3022.510     739.237    1003.440    1558.200    1727.660
      59.590   3312.7600    567.0000    10.82810    3343.900     760.467    1023.320    1535.140    1846.720
      59.610   2991.8500    533.7500    10.85550    3564.610     789.019    1090.390    1491.030    1982.130
      59.630   2097.4900   -999.0000    10.84180    3483.960     761.587    1139.800    1477.530    1950.930
      59.650   2108.6200    507.7500    10.83200    3262.000     727.900    1148.280    1496.510    1914.200
      59.670   2953.1100   -999.0000    10.83200    3071.730     737.842    1178.810    1683.420    1805.740
      59.690   2843.5000    513.5000    10.85160    3038.340     769.521    1138.180    1761.600    1760.480
      59.710   3323.8000   -999.0000    10.84570    3182.550     829.486    1036.020    1567.630    1961.310
      59.730   3234.1300    518.6250    10.86910    3296.510     883.262     993.794    1429.320    2131.490
      59.750   2785.9800    517.3750    10.84380    3223.790     912.171    1008.770    1361.980    2136.680
      59.770   3570.7200    518.3750    10.83590    3083.240     943.131    1046.630    1289.460    2070.190
      59.790   2903.3400   -999.0000    10.78910    3005.360     941.769    1051.800    1280.680    2077.350
      59.810   2842.7200    523.8750    10.77540    3056.770     909.725    1054.390    1196.990    2145.150
      59.830   2864.2200    527.5000    10.84770    3263.120     898.432    1053.010    1096.230    2069.750
      59.850   2521.7200    528.5000    10.83980    3574.590     906.564    1077.120    1140.290    1952.360
      59.870   2458.9700   -999.0000    10.84180    4029.110     905.193    1185.340    1207.870    1900.750
      59.890   3498.4900    538.0000    10.83400    4475.750     890.374    1235.320    1261.240    1812.590
      59.910   2955.8300    560.7500    10.82230    4768.970     892.890    1134.790    1407.370    1896.520
      59.930   3287.9700    566.6250    10.81050    5005.660     895.383    1037.510    1412.260    2088.630
      59.950   3284.8700    546.0000    10.84380    5064.180     922.233     980.402    1317.820    2027.320
      59.970   2722.2600    532.7500    10.82030    4897.630     995.623     923.427    1355.260    1826.910
      59.990   3347.4200   -999.0000    10.83010    4697.480    1020.660     911.487    1312.820    1859.770
      60.010   -999.0000    531.0000    10.82420    4759.720     964.661     868.041    1310.750    2069.720
      60.030   2334.9200    530.1250    10.79880    5239.750     915.448     815.501    1305.400    2012.770
      60.050   -999.0000    534.5000    10.81450    5830.740     887.876     846.456    1216.090    1814.810
      60.070   2206.1300   -999.0000    10.83010    5807.690     868.209     907.185    1266.270    1742.650
      60.090   -999.0000    542.2500    10.83400    5296.890     871.620     970.319    1278.520    1781.860
      60.110   2489.6700    572.0000    10.83590    4580.020     854.993    1051.860    1157.170    1962.050
      60.130   2601.0200   -999.0000    10.81840    3929.350     854.247    1037.310    1246.820    2108.930
      60.150   -999.0000    596.5000    10.80860    3452.610     900.136     984.488    -999.000    2143.770
      60.170   2628.7200    597.2500    10.83010    3141.670     930.676     983.159    1373.480    2230.860
      60.190   -999.0000   -999.0000    10.82230    3034.790     951.336     953.445    1233.260    2135.870
      60.210   3001.7300    595.6250    10.81640    3093.080     984.149     985.383    1140.690    1751.870
      60.230   -999.0000   -999.0000    10.79690    3408.510     965.938    1018.320    1120.210    1586.780
      60.250   2424.4000    592.3750    10.82620    3865.580     911.262     982.546    1063.590    1811.650
