~VERSION INFORMATION SECTION
VERS.           2.0  :CWLS Log ASCII Standard - 2.0
WRAP.           NO   :One line per depth
#               Created in SeisLab
~WELL INFORMATION SECTION
#MNEM.UNIT  VALUE/NAME               :DESCRIPTION    
STRT.m  10                           :Start Depth    
STOP.m  125                          :Stop Depth     
STEP.m  0.01                         :Step           
NULL.    -999.25                     :Null Value     
WELL.    GDP1                        :Well Name      
CTRY.    Switzerland                 :Country        
CNTY.                                :County         
STAT.    Central Swiss Alps          :State          
API .                                :API number     
UWI .                                :Unique well ID 
LOC .    Grimsel Pass, Switzerland   :Well Location  
FLD .    n/a                         :Field          
COMP.    n/a                         :Company        
SRVC.    University of Lausanne      :Service Company
DATE.    2016                        :Date           
~PARAMETER INFORMATION SECTION
#MNEM .UNITS  VALUE   :DESCRIPTION OF PARAMETER
Casing.n/a    1       :slotted PVC casing      
~CURVE INFORMATION SECTION
#MNEM.UNITS  API CODES   :DESCRIPTION OF MNEMONIC
depth.m                  :measured depth         
NG   .cps                :Natural gamma          
Sp   .mV                 :Self potential         
Temp .DegC               :Temperature            
SPR  .Ohm                :Single point resistance
R8   .Ohm.m              :Normal resistivity     
R16  .Ohm.m              :Single point resistance
R32  .Ohm.m              :Normal resistivity     
R64  .Ohm.m              :Normal resistivity     
~A depth       NG          Sp          Temp        SPR         R8          R16         R32         R64         
# ...
      17.400  -999.25000   1048.0000  -999.25000    -999.250    -999.250    3236.041    3118.896    2623.875
      17.410  -999.25000   1048.0000  -999.25000    -999.250    -999.250    3236.041    3118.896    2623.875
      17.420  -999.25000   1048.0000  -999.25000    -999.250    -999.250    3236.041    3118.896    2623.875
      17.430  -999.25000   1048.0000  -999.25000    -999.250    -999.250    3236.041    3118.896    2623.875
      17.440  -999.25000   1048.0000  -999.25000    -999.250    -999.250    3236.041    3118.896    2623.875
      17.450  -999.25000   1048.0000  -999.25000    -999.250    -999.250    3236.041    3118.896    2623.875
      17.460  -999.25000   1048.0000  -999.25000    -999.250    -999.250    3236.041    3118.896    2623.875
      17.470  -999.25000   1048.0000  -999.25000    -999.250    -999.250    3236.041    3118.896    2623.875
      17.480  -999.25000   1048.0000  -999.25000    -999.250    -999.250    3236.041    3118.896    2623.875
      17.490  -999.25000   1048.0000  -999.25000    -999.250    -999.250    3236.041    3118.896    2623.875
      17.500  -999.25000   1048.0000  -999.25000    -999.250    -999.250    3236.041    3118.896    2623.875
      17.510  -999.25000   1048.0000  -999.25000    -999.250    -999.250    3236.041    3118.896    2623.875
      17.520  -999.25000   1048.0000  -999.25000    -999.250    -999.250    3236.041    3118.896    2623.875
      17.530  -999.25000   1048.0000  -999.25000    -999.250    -999.250    3236.041    3118.896    2623.875
      17.540  -999.25000   1048.0000  -999.25000    -999.250    -999.250    3236.041    3118.896    2623.875
      17.550  -999.25000   1048.0000  -999.25000    -999.250    -999.250    3236.041    3118.896    2623.875
      17.560  -999.25000   1048.0000  -999.25000    -999.250    -999.250    3236.041    3118.896    2623.875
      17.570  -999.25000   1048.0000  -999.25000    -999.250    -999.250    3236.041    3118.896    2623.875
      17.580  -999.25000   1048.0000  -999.25000    -999.250    -999.250    3236.041    3118.896    2623.875
      17.590  -999.25000   1048.0000  -999.25000    -999.250    -999.250    3236.041    3118.896    2623.875
      17.600  -999.25000   1048.0000  -999.25000    -999.250    -999.250    3236.041    3118.896    2623.875
      17.610  -999.25000   1048.0000  -999.25000    -999.250    -999.250    3236.041    3118.896    2623.875
      17.620  -999.25000   1048.0000  -999.25000    -999.250    -999.250    3236.041    3118.896    2623.875
      17.630  -999.25000   1048.0000  -999.25000    -999.250    -999.250    3236.041    3118.896    2623.875
      17.640  -999.25000   1048.0000  -999.25000    -999.250    -999.250    3236.041    3118.896    2623.875
      17.650  -999.25000   1048.0000  -999.25000    -999.250    -999.250    3236.041    3118.896    2623.875
      17.660  -999.25000   1048.0000  -999.25000    -999.250    -999.250    3236.041    3118.896    2623.875
      17.670  -999.25000   1048.0000  -999.25000    -999.250    -999.250    3236.041    3118.896    2623.875
      17.680  -999.25000   1048.0000  -999.25000    -999.250    -999.250    3236.041    3118.896    2623.875
      17.690  -999.25000   1048.0000  -999.25000    -999.250    -999.250    3236.041    3118.896    2623.875
      17.700  -999.25000   1048.0000  -999.25000    -999.250    -999.250    3236.041    3118.896    2623.875
      17.710  -999.25000   1048.0000  -999.25000    -999.250    -999.250    3236.041    3118.896    2623.875
      17.720  -999.25000   1048.0000  -999.25000    -999.250    -999.250    3236.041    3118.896    2623.875
      17.730  -999.25000   1048.0000  -999.25000    -999.250    -999.250    3236.041    3118.896    2623.875
      17.740  -999.25000   1048.0000  -999.25000    -999.250    -999.250    3236.041    3118.896    2623.875
      17.750  -999.25000   1048.0000  -999.25000    -999.250    -999.250    3236.041    3118.896    2623.875
      17.760  -999.25000   1048.0000  -999.25000    -999.250    -999.250    3236.041    3118.896    2623.875
      17.770  -999.25000   1048.0000  -999.25000    -999.250    -999.250    3236.041    3118.896    2623.875
      17.780  -999.25000   1048.0000  -999.25000    -999.250    -999.250    3236.041    3118.896    2623.875
      17.790  -999.25000   1048.0000  -999.25000    -999.250    -999.250    3236.041    3118.896    2623.875
      17.800  -999.25000   1048.0000  -999.25000    -999.250    -999.250    3236.041    3118.896    2623.875
      17.810  -999.25000   1048.0000  -999.25000    -999.250    -999.250    3236.041    3118.896    2623.875
      17.820  -999.25000   1048.0000  -999.25000    -999.250    -999.250    3236.041    3118.896    2623.875
      17.830  -999.25000   1048.0000  -999.25000    -999.250    -999.250    3236.041    3118.896    2623.875
      17.840  -999.25000   1048.0000  -999.25000    -999.250    -999.250    3236.041    3118.896    2623.875
      17.850  -999.25000   1048.0000  -999.25000    -999.250    -999.250    3236.041    3118.896    2623.875
      17.860  -999.25000   1048.0000  -999.25000    -999.250    -999.250    3236.041    3118.896    2623.875
      17.870  -999.25000   1048.0000  -999.25000    -999.250    -999.250    3236.041    3118.896    2623.875
      17.880  -999.25000   1048.0000  -999.25000    -999.250    -999.250    3236.041    3118.896    2623.875
      17.890  -999.25000   1048.0000  -999.25000    -999.250    -999.250    3236.041    3118.896    2623.875
      17.900  -999.25000   1048.0000  -999.25000    -999.250    -999.250    3236.041    3118.896    2623.875
      17.910  -999.25000   1048.0000  -999.25000    -999.250    -999.250    3236.041    3118.896    2623.875
      17.920  -999.25000   1048.0000  -999.25000    -999.250    -999.250    3236.041    3118.896    2623.875
      17.930  -999.25000   1048.0000  -999.25000    -999.250    -999.250    3236.041    3118.896    2623.875
      17.940  -999.25000   1048.0000  -999.25000    -999.250    -999.250    3236.041    3118.896    2623.875
      17.950  -999.25000   1048.0000  -999.25000    -999.250    -999.250    3236.041    3118.896    2623.875
      17.960  -999.25000   1048.0000  -999.25000    -999.250    -999.250    3236.041    3118.896    2623.875
      17.970  -999.25000   1048.0000  -999.25000    -999.250    -999.250    3236.041    3118.896    2623.875
      17.980  -999.25000   1048.0000  -999.25000    -999.250    -999.250    3236.041    3118.896    2623.875
      17.990  -999.25000   1048.0000  -999.25000    -999.250    -999.250    3236.041    3118.896    2623.875
      18.000  -999.25000   1048.0000  -999.25000    -999.250    -999.250    3236.041    3118.896    2623.875
      18.010  -999.25000   1048.0000  -999.25000    -999.250    -999.250    3236.041    3118.896    2623.875
      18.020  -999.25000   1048.0000  -999.25000    -999.250    -999.250    3236.041    3118.896    2623.875
      18.030  -999.25000   1048.0000  -999.25000    -999.250    -999.250    3236.041    3118.896    2623.875
      18.040  -999.25000   1048.0000  -999.25000    -999.250    -999.250    3236.041    3118.896    2623.875
      18.050  -999.25000   1048.0000  -999.25000    -999.250    -999.250    3236.041    3118.896    2623.875
      18.060  -999.25000   1048.0000  -999.25000    -999.250    -999.250    3236.041    3118.896    2623.875
      18.070  -999.25000   1048.0000  -999.25000    -999.250    -999.250    3236.041    3118.896    2623.875
      18.080  -999.25000   1048.0000  -999.25000    -999.250    -999.250    3236.041    3118.896    2623.875
      18.090  -999.25000   1048.0000  -999.25000    -999.250    -999.250    3236.041    3118.896    2623.875
      18.100  -999.25000   1048.0000  -999.25000    -999.250    -999.250    3236.041    3118.896    2623.875
      18.110  -999.25000   1048.0000  -999.25000    -999.250    -999.250    3236.041    3118.896    2623.875
      18.120  -999.25000   1048.0000  -999.25000    -999.250    -999.250    3236.041    3118.896    2623.875
      18.130  -999.25000   1048.0000  -999.25000    -999.250    -999.250    3236.041    3118.896    2623.875
