~VERSION INFORMATION SECTION
VERS.           2.0  :CWLS Log ASCII Standard - 2.0
WRAP.           NO   :One line per depth
#               Created in SeisLab
~WELL INFORMATION SECTION
#MNEM.UNIT  VALUE/NAME               :DESCRIPTION    
STRT.m  10                           :Start Depth    
STOP.m  124                          :Stop Depth     
STEP.m  0.01                         :Step           
NULL.    -999.25                     :Null Value     
WELL.    GDP1                        :Well Name      
CTRY.    Switzerland                 :Country        
CNTY.                                :County         
STAT.    Central Swiss Alps          :State          
API .                                :API number     
UWI .                                :Unique well ID 
LOC .    Grimsel pass, Switzerland   :Well Location  
FLD .    n/a                         :Field          
COMP.    n/a                         :Company        
SRVC.    University of Lausanne      :Service Company
DATE.    2015/2016                   :Date           
~PARAMETER INFORMATION SECTION
#MNEM .UNITS  VALUE   :DESCRIPTION OF PARAMETER
Casing.n/a    0       :open hole/cased hole    
~CURVE INFORMATION SECTION
#MNEM       .UNITS  API CODES   :DESCRIPTION OF MNEMONIC      
depth       .m                  :measured depth (interpolated)
BHR velocity.m/ns               :BHR velocity 2015            
BHR velocity.m/ns               :BHR velocity 2016            
~A depth       BHR_velocity BHR_velocity
# ...
      68.590     0.11038     0.10962
      68.600     0.11039     0.10974
      68.610     0.11040     0.10987
      68.620     0.11040     0.10996
      68.630     0.11040     0.11005
      68.640     0.11039     0.11014
      68.650     0.11038     0.11023
      68.660     0.11039     0.11032
      68.670     0.11040     0.11041
      68.680     0.11041     0.11050
      68.690     0.11042     0.11059
      68.700     0.11040     0.11068
      68.710     0.11038     0.11077
      68.720     0.11036     0.11077
      68.730     0.11034     0.11077
      68.740     0.11031     0.11077
      68.750     0.11029     0.11077
      68.760     0.11027     0.11077
      68.770     0.11025     0.11077
      68.780     0.11020     0.11077
      68.790     0.11015     0.11077
      68.800     0.11011     0.11077
      68.810     0.11006     0.11077
      68.820     0.11003     0.11072
      68.830     0.11000     0.11066
      68.840     0.10997     0.11061
      68.850     0.10994     0.11055
      68.860     0.10990     0.11050
      68.870     0.10986     0.11046
      68.880     0.10984     0.11043
      68.890     0.10981     0.11039
      68.900     0.10981     0.11035
      68.910     0.10981     0.11032
      68.920     0.10978     0.11026
      68.930     0.10975     0.11021
      68.940     0.10972     0.11016
      68.950     0.10969     0.11010
      68.960     0.10967     0.11005
      68.970     0.10965     0.11003
      68.980     0.10960     0.11001
      68.990     0.10955     0.10999
      69.000     0.10947     0.10998
      69.010     0.10940     0.10996
      69.020     0.10936     0.10990
      69.030     0.10932     0.10985
      69.040     0.10929     0.10980
      69.050     0.10926     0.10974
      69.060     0.10922     0.10969
      69.070     0.10917     0.10965
      69.080     0.10915     0.10962
      69.090     0.10913     0.10958
      69.100     0.10914     0.10954
      69.110     0.10915     0.10951
      69.120     0.10913     0.10949
      69.130     0.10911     0.10947
      69.140     0.10909     0.10946
      69.150     0.10907     0.10944
      69.160     0.10907     0.10942
      69.170     0.10907     0.10938
      69.180     0.10908     0.10935
      69.190     0.10909     0.10931
      69.200     0.10907     0.10928
      69.210     0.10905     0.10924
      69.220     0.10905     0.10926
      69.230     0.10905     0.10928
      69.240     0.10905     0.10930
      69.250     0.10905     0.10931
      69.260     0.10903     0.10933
      69.270     0.10901     0.10931
      69.280     0.10900     0.10930
      69.290     0.10899     0.10928
      69.300     0.10897     0.10926
      69.310     0.10895     0.10924
      69.320     0.10895     0.10926
      69.330     0.10895     0.10928
      69.340     0.10894     0.10930
      69.350     0.10893     0.10931
      69.360     0.10892     0.10933
      69.370     0.10891     0.10931
      69.380     0.10890     0.10930
      69.390     0.10889     0.10928
      69.400     0.10888     0.10926
      69.410     0.10887     0.10924
      69.420     0.10886     0.10922
      69.430     0.10885     0.10921
      69.440     0.10884     0.10919
      69.450     0.10883     0.10917
      69.460     0.10882     0.10915
      69.470     0.10881     0.10912
      69.480     0.10880     0.10908
      69.490     0.10879     0.10905
      69.500     0.10879     0.10901
      69.510     0.10879     0.10898
      69.520     0.10879     0.10896
      69.530     0.10879     0.10894
      69.540     0.10879     0.10892
      69.550     0.10879     0.10891
      69.560     0.10877     0.10889
      69.570     0.10875     0.10885
      69.580     0.10874     0.10882
      69.590     0.10873     0.10878
      69.600     0.10874     0.10875
      69.610     0.10875     0.10871
      69.620     0.10874     0.10871
      69.630     0.10873     0.10871
      69.640     0.10870     0.10871
      69.650     0.10868     0.10871
      69.660     0.10870     0.10871
      69.670     0.10873     0.10869
      69.680     0.10870     0.10868
      69.690     0.10868     0.10866
      69.700     0.10867     0.10864
      69.710     0.10866     0.10862
      69.720     0.10867     0.10859
      69.730     0.10868     0.10855
      69.740     0.10873     0.10852
      69.750     0.10877     0.10848
      69.760     0.10878     0.10845
      69.770     0.10879     0.10847
      69.780     0.10884     0.10848
      69.790     0.10889     0.10850
      69.800     0.10892     0.10852
      69.810     0.10895     0.10854
      69.820     0.10899     0.10855
      69.830     0.10903     0.10857
      69.840     0.10904     0.10859
      69.850     0.10905     0.10861
      69.860     0.10909     0.10862
      69.870     0.10913     0.10866
      69.880     0.10915     0.10869
      69.890     0.10917     0.10873
      69.900     0.10923     0.10876
      69.910     0.10928     0.10880
      69.920     0.10930     0.10885
      69.930     0.10932     0.10891
      69.940     0.10935     0.10896
      69.950     0.10938     0.10901
      69.960     0.10940     0.10906
      69.970     0.10942     0.10912
      69.980     0.10945     0.10917
      69.990     0.10948     0.10922
      70.000     0.10946     0.10928
      70.010     0.10944     0.10933
      70.020     0.10943     0.10937
      70.030     0.10942     0.10940
      70.040     0.10940     0.10944
      70.050     0.10938     0.10947
      70.060     0.10936     0.10951
      70.070     0.10934     0.10953
      70.080     0.10932     0.10954
      70.090     0.10930     0.10956
      70.100     0.10930     0.10958
      70.110     0.10930     0.10960
      70.120     0.10927     0.10963
      70.130     0.10924     0.10967
      70.140     0.10921     0.10971
      70.150     0.10917     0.10974
      70.160     0.10914     0.10978
      70.170     0.10911     0.10978
      70.180     0.10904     0.10978
      70.190     0.10897     0.10978
      70.200     0.10887     0.10978
      70.210     0.10877     0.10978
      70.220     0.10869     0.10978
      70.230     0.10862     0.10978
      70.240     0.10857     0.10978
      70.250     0.10852     0.10978
      70.260     0.10845     0.10978
      70.270     0.10838     0.10971
      70.280     0.10833     0.10963
      70.290     0.10828     0.10956
      70.300     0.10826     0.10949
      70.310     0.10824     0.10942
      70.320     0.10822     0.10935
      70.330     0.10820     0.10928
      70.340     0.10816     0.10921
      70.350     0.10812     0.10914
      70.360     0.10807     0.10906
      70.370     0.10802     0.10910
      70.380     0.10798     0.10914
      70.390     0.10794     0.10917
      70.400     0.10788     0.10921
      70.410     0.10782     0.10924
      70.420     0.10775     0.10919
      70.430     0.10768     0.10914
      70.440     0.10764     0.10908
      70.450     0.10760     0.10903
      70.460     0.10756     0.10898
      70.470     0.10752     0.10889
      70.480     0.10749     0.10880
      70.490     0.10746     0.10871
      70.500     0.10745     0.10862
      70.510     0.10744     0.10854
      70.520     0.10744     0.10847
      70.530     0.10744     0.10840
      70.540     0.10744     0.10833
      70.550     0.10744     0.10826
      70.560     0.10747     0.10819
      70.570     0.10750     0.10817
      70.580     0.10751     0.10815
      70.590     0.10752     0.10813
      70.600     0.10753     0.10812
      70.610     0.10754     0.10810
      70.620     0.10757     0.10806
      70.630     0.10760     0.10803
      70.640     0.10762     0.10799
      70.650     0.10764     0.10796
      70.660     0.10765     0.10792
      70.670     0.10766     0.10792
      70.680     0.10769     0.10792
      70.690     0.10772     0.10792
      70.700     0.10775     0.10792
      70.710     0.10778     0.10792
      70.720     0.10777     0.10794
      70.730     0.10776     0.10796
      70.740     0.10775     0.10798
      70.750     0.10774     0.10799
