~VERSION INFORMATION SECTION
VERS.           2.0  :CWLS Log ASCII Standard - 2.0
WRAP.           NO   :One line per depth
#               Created in SeisLab
~WELL INFORMATION SECTION
#MNEM.UNIT  VALUE/NAME               :DESCRIPTION    
STRT.m  10                           :Start Depth    
STOP.m  124                          :Stop Depth     
STEP.m  0.01                         :Step           
NULL.    -999.25                     :Null Value     
WELL.    GDP1                        :Well Name      
CTRY.    Switzerland                 :Country        
CNTY.                                :County         
STAT.    Central Swiss Alps          :State          
API .                                :API number     
UWI .                                :Unique well ID 
LOC .    Grimsel pass, Switzerland   :Well Location  
FLD .    n/a                         :Field          
COMP.    n/a                         :Company        
SRVC.    University of Lausanne      :Service Company
DATE.    2015/2016                   :Date           
~PARAMETER INFORMATION SECTION
#MNEM .UNITS  VALUE   :DESCRIPTION OF PARAMETER
Casing.n/a    0       :open hole/cased hole    
~CURVE INFORMATION SECTION
#MNEM       .UNITS  API CODES   :DESCRIPTION OF MNEMONIC      
depth       .m                  :measured depth (interpolated)
BHR velocity.m/ns               :BHR velocity 2015            
BHR velocity.m/ns               :BHR velocity 2016            
~A depth       BHR_velocity BHR_velocity
# ...
      18.680     0.11563     0.12723
      18.690     0.11560     0.12716
      18.700     0.11558     0.12708
      18.710     0.11556     0.12701
      18.720     0.11557     0.12687
      18.730     0.11558     0.12672
      18.740     0.11558     0.12658
      18.750     0.11558     0.12644
      18.760     0.11556     0.12630
      18.770     0.11553     0.12622
      18.780     0.11550     0.12615
      18.790     0.11547     0.12608
      18.800     0.11547     0.12601
      18.810     0.11547     0.12594
      18.820     0.11547     0.12585
      18.830     0.11547     0.12575
      18.840     0.11543     0.12566
      18.850     0.11540     0.12556
      18.860     0.11540     0.12547
      18.870     0.11540     0.12547
      18.880     0.11541     0.12547
      18.890     0.11542     0.12547
      18.900     0.11543     0.12547
      18.910     0.11544     0.12547
      18.920     0.11541     0.12566
      18.930     0.11537     0.12585
      18.940     0.11539     0.12603
      18.950     0.11540     0.12622
      18.960     0.11539     0.12641
      18.970     0.11537     0.12632
      18.980     0.11540     0.12622
      18.990     0.11542     0.12613
      19.000     0.11539     0.12603
      19.010     0.11535     0.12594
      19.020     0.11535     0.12589
      19.030     0.11535     0.12585
      19.040     0.11533     0.12580
      19.050     0.11531     0.12575
      19.060     0.11531     0.12570
      19.070     0.11531     0.12587
      19.080     0.11526     0.12603
      19.090     0.11521     0.12620
      19.100     0.11521     0.12637
      19.110     0.11521     0.12653
      19.120     0.11520     0.12653
      19.130     0.11519     0.12653
      19.140     0.11519     0.12653
      19.150     0.11519     0.12653
      19.160     0.11517     0.12653
      19.170     0.11515     0.12651
      19.180     0.11516     0.12649
      19.190     0.11517     0.12646
      19.200     0.11518     0.12644
      19.210     0.11519     0.12641
      19.220     0.11519     0.12639
      19.230     0.11519     0.12637
      19.240     0.11520     0.12634
      19.250     0.11521     0.12632
      19.260     0.11525     0.12630
      19.270     0.11528     0.12625
      19.280     0.11531     0.12620
      19.290     0.11533     0.12615
      19.300     0.11534     0.12611
      19.310     0.11535     0.12606
      19.320     0.11537     0.12596
      19.330     0.11540     0.12587
      19.340     0.11541     0.12577
      19.350     0.11542     0.12568
      19.360     0.11540     0.12559
      19.370     0.11537     0.12554
      19.380     0.11537     0.12549
      19.390     0.11537     0.12545
      19.400     0.11539     0.12540
      19.410     0.11540     0.12535
      19.420     0.11539     0.12542
      19.430     0.11537     0.12549
      19.440     0.11534     0.12556
      19.450     0.11531     0.12563
      19.460     0.11532     0.12570
      19.470     0.11533     0.12568
      19.480     0.11531     0.12566
      19.490     0.11528     0.12563
      19.500     0.11526     0.12561
      19.510     0.11524     0.12559
      19.520     0.11524     0.12554
      19.530     0.11524     0.12549
      19.540     0.11527     0.12545
      19.550     0.11531     0.12540
      19.560     0.11531     0.12535
      19.570     0.11531     0.12531
      19.580     0.11532     0.12526
      19.590     0.11533     0.12521
      19.600     0.11533     0.12517
      19.610     0.11533     0.12512
      19.620     0.11534     0.12514
      19.630     0.11535     0.12517
      19.640     0.11535     0.12519
      19.650     0.11535     0.12521
      19.660     0.11535     0.12524
      19.670     0.11535     0.12538
      19.680     0.11534     0.12552
      19.690     0.11533     0.12566
      19.700     0.11534     0.12580
      19.710     0.11535     0.12594
      19.720     0.11534     0.12601
      19.730     0.11533     0.12608
      19.740     0.11533     0.12615
      19.750     0.11533     0.12622
      19.760     0.11534     0.12630
      19.770     0.11535     0.12634
      19.780     0.11539     0.12639
      19.790     0.11542     0.12644
      19.800     0.11542     0.12649
      19.810     0.11542     0.12653
      19.820     0.11544     0.12656
      19.830     0.11547     0.12658
      19.840     0.11548     0.12660
      19.850     0.11549     0.12663
      19.860     0.11548     0.12665
      19.870     0.11547     0.12682
      19.880     0.11548     0.12699
      19.890     0.11549     0.12716
      19.900     0.11551     0.12733
      19.910     0.11553     0.12749
      19.920     0.11556     0.12745
      19.930     0.11558     0.12740
      19.940     0.11562     0.12735
      19.950     0.11565     0.12730
      19.960     0.11571     0.12725
      19.970     0.11576     0.12733
      19.980     0.11578     0.12740
      19.990     0.11579     0.12747
      20.000     0.11579     0.12754
      20.010     0.11579     0.12762
      20.020     0.11576     0.12764
      20.030     0.11574     0.12766
      20.040     0.11573     0.12769
      20.050     0.11572     0.12771
      20.060     0.11568     0.12774
      20.070     0.11565     0.12774
      20.080     0.11564     0.12774
      20.090     0.11563     0.12774
      20.100     0.11564     0.12774
      20.110     0.11565     0.12774
      20.120     0.11566     0.12776
      20.130     0.11567     0.12779
      20.140     0.11570     0.12781
      20.150     0.11572     0.12783
      20.160     0.11574     0.12786
      20.170     0.11576     0.12788
      20.180     0.11578     0.12791
      20.190     0.11579     0.12793
      20.200     0.11580     0.12796
      20.210     0.11581     0.12798
      20.220     0.11581     0.12805
      20.230     0.11581     0.12813
      20.240     0.11583     0.12820
      20.250     0.11586     0.12827
      20.260     0.11589     0.12835
      20.270     0.11593     0.12822
      20.280     0.11597     0.12810
      20.290     0.11602     0.12798
      20.300     0.11604     0.12786
      20.310     0.11607     0.12774
      20.320     0.11612     0.12769
      20.330     0.11618     0.12764
      20.340     0.11618     0.12759
      20.350     0.11618     0.12754
      20.360     0.11619     0.12749
      20.370     0.11620     0.12735
      20.380     0.11622     0.12720
      20.390     0.11623     0.12706
      20.400     0.11624     0.12692
      20.410     0.11625     0.12677
      20.420     0.11626     0.12668
      20.430     0.11627     0.12658
      20.440     0.11624     0.12649
      20.450     0.11620     0.12639
      20.460     0.11618     0.12630
      20.470     0.11616     0.12627
      20.480     0.11611     0.12625
      20.490     0.11607     0.12622
      20.500     0.11603     0.12620
      20.510     0.11600     0.12618
      20.520     0.11596     0.12615
      20.530     0.11593     0.12613
      20.540     0.11594     0.12611
      20.550     0.11595     0.12608
      20.560     0.11595     0.12606
      20.570     0.11595     0.12563
      20.580     0.11593     0.12521
      20.590     0.11590     0.12479
      20.600     0.11589     0.12438
      20.610     0.11588     0.12396
      20.620     0.11585     0.12399
      20.630     0.11581     0.12401
      20.640     0.11576     0.12403
      20.650     0.11572     0.12406
      20.660     0.11565     0.12408
      20.670     0.11558     0.12401
      20.680     0.11558     0.12394
      20.690     0.11558     0.12387
      20.700     0.11556     0.12380
      20.710     0.11553     0.12374
      20.720     0.11550     0.12374
      20.730     0.11547     0.12374
      20.740     0.11548     0.12374
      20.750     0.11549     0.12374
      20.760     0.11551     0.12374
      20.770     0.11553     0.12378
      20.780     0.11553     0.12383
      20.790     0.11553     0.12387
      20.800     0.11552     0.12392
      20.810     0.11551     0.12396
      20.820     0.11556     0.12417
      20.830     0.11560     0.12438
      20.840     0.11560     0.12458
