~VERSION INFORMATION SECTION
VERS.           2.0  :CWLS Log ASCII Standard - 2.0
WRAP.           NO   :One line per depth
#               Created in SeisLab
~WELL INFORMATION SECTION
#MNEM.UNIT  VALUE/NAME               :DESCRIPTION    
STRT.m  33.03                        :Start Depth    
STOP.m  122.23                       :Stop Depth     
STEP.m  0.03                         :Step           
NULL.    -999.25                     :Null Value     
WELL.    GDP1                        :Well Name      
CTRY.    Switzerland                 :Country        
CNTY.                                :County         
STAT.    Central Swiss Alps          :State          
API .                                :API number     
UWI .                                :Unique well ID 
LOC .    Grimsel Pass, Switzerland   :Well Location  
FLD .    n/a                         :Field          
COMP.    n/a                         :Company        
SRVC.    University of Lausanne      :Service Company
DATE.    2016                        :Date           
~PARAMETER INFORMATION SECTION
#MNEM .UNITS  VALUE   :DESCRIPTION OF PARAMETER
Casing.n/a    1       :slotted PVC casing      
~CURVE INFORMATION SECTION
#MNEM.UNITS  API CODES   :DESCRIPTION OF MNEMONIC
depth.m                  :measured depth         
NG   .cps                :Natural gamma          
Sp   .mV                 :Self potential         
Temp .DegC               :Temperature            
SPR  .Ohm                :Single point resistance
R8   .Ohm.m              :Normal resistivity     
R16  .Ohm.m              :Single point resistance
R32  .Ohm.m              :Normal resistivity     
R64  .Ohm.m              :Normal resistivity     
~A depth       NG          Sp          Temp        SPR         R8          R16         R32         R64         
# ...
     108.510   307.23400    897.0000     7.88184        8749     10343.7   -283617.0      5006.9      3766.1
     108.540   366.25000    884.0000     7.90723        8686     19761.9    -49479.1      5164.8      3668.3
     108.570   302.03100    833.6250     7.90723       10356     30723.9     73025.3      5324.8      3902.8
     108.600   326.40600    775.6250     7.90039       14278   -315091.0     11781.8      5343.9      4255.6
     108.630   295.50000    737.8750     7.87793       28342    -67318.2      8125.6      5229.3      3797.6
     108.660   284.07800    704.3750     7.90723       75425    125660.0      6833.8      5084.4      3957.2
     108.690   307.09400    690.2500     7.91699      130188     23488.5      6099.6      4865.1      4139.6
     108.730   319.34400    679.8750     7.88672    -1399240     16595.4      6036.8      4777.1      4894.6
     108.760   272.95300    712.7500     7.93262     -249686     12417.7      6175.7      4763.4      4231.1
     108.790   312.15600    755.1250     7.91211      341840      9758.1      6540.8      4745.5      3583.0
     108.820   314.43800    799.0000     7.91699       41652      8512.0      6821.9      4749.6      3613.7
     108.850   282.37500    842.5000     7.90234       21282      7730.4      6890.2      4699.0      3555.3
     108.880   333.90600    858.8750     7.91211       13633      7273.6      6936.2      4627.5      4134.9
     108.900   294.76600    869.2500     7.92578       10058      6712.3      6791.4      4863.8      3995.7
     108.930   263.01600    886.1250     7.91406        9281      6214.0      6584.7      5048.5      4151.9
     108.960   317.75000    904.0000     7.91699        9066      5916.3      6330.4      5007.4      8791.4
     108.990   281.10900    909.8750     7.92383        9094      5792.1      6151.9      5040.7     18070.8
     109.020   350.56300    913.1250     7.92578        8955      5661.1      6001.1      4831.5   -163175.0
     109.050   318.70300    924.2500     7.93066        8719      5536.1      5749.5      4749.2    -22950.5
     109.090   324.45300    937.8750     7.92773        8657      5500.7      5555.2      4800.1     37413.2
     109.120   332.09400    916.8750     7.90918        8587      5525.8      5654.2      4932.0      6933.6
     109.150   301.87500    887.5000     7.93750        8386      5485.2      5782.8      5092.1      5033.6
     109.180   297.62500    902.5000     7.92969        8204      5390.1      5692.8      5015.2      4048.5
     109.210   309.84400    927.0000     7.91699        8169      5480.4      5611.6      4900.1      3566.3
     109.240   310.65600    930.1250     7.93750        8265      5619.1      5471.5      4949.7      3765.7
     109.260   286.18800    928.7500     7.95996        8264      5565.2      5479.6      4875.4      4115.8
     109.290   319.73400    910.7500     7.95996        8191      5483.0      5518.2      4941.8      4403.9
     109.320   294.53100    887.6250     7.95703        8304      5409.9      5587.6      4837.7      4492.8
     109.350   280.65600    877.0000     7.95313        8504      5464.0      5734.4      4793.3      4402.6
     109.380   283.60900    869.1250     7.95117        8449      5484.8      5785.7      4907.6      4144.2
     109.410   293.62500    886.7500     7.95801        8271      5515.6      5713.4      4967.8      3673.1
     109.440   313.60900    911.1250     7.97559        8193      5626.6      5689.9      5025.8      3539.1
     109.480   334.12500    894.8750     7.95508        8256      5642.9      5655.9      5043.1      3652.3
     109.510   291.00000    869.3750     7.96387        8222      5510.9      5730.7      5269.2      3652.8
     109.540   294.56300   -999.0000     7.95508        8259      5343.2      5588.0      5592.5      3662.4
     109.570   284.03100    914.5000     7.96875        8439      5193.7      5545.9      5706.6      3550.5
     109.600   294.31300    906.3750     7.95313        8431      5156.5      5671.1      5593.9      3451.7
     109.630   265.92200    890.1250     7.95801        8183      4961.4      5764.1      5678.0      3847.3
     109.650   273.48400    896.5000     7.97754        7780      4848.3      5804.8      5886.8      4096.0
     109.680   281.45300    906.7500     7.95508        7486      4866.2      5795.1      6242.1      4086.7
     109.710   337.57800    924.7500     7.96875        7366      4897.3      6005.2      6587.7      4133.5
     109.740   285.59400    944.8750     7.98242        7105      4895.9      6271.6      6680.8      3676.8
     109.770   309.60900    955.5000     7.99902        6959      4870.8      6302.3      6985.7      3326.8
     109.800   290.64100    965.2500     7.96875        6986      5026.6      6200.1      6652.8      3328.8
     109.840   302.26600    963.7500     7.95801        7115      5234.3      6335.3      6874.0      3620.0
     109.870   296.93800    961.0000     8.00098        7149      5284.4      6586.5      7571.7      3860.4
     109.900   303.78100    958.1250     8.01074        7060      5266.2      6844.8      8099.6      3608.7
     109.930   322.71900    955.5000     7.98535        7162      5426.8      7086.2      8746.5      3475.9
     109.960   300.73400    954.3750     7.99609        7355      5690.9      7238.9      7963.1      3746.0
     109.990   311.06300    953.6250     7.99609        7393      5931.3      7634.6      8166.0      3770.1
     110.010   260.34400    960.1250     8.02148        7403      6178.9      7460.7      8277.6      3881.2
     110.040   324.98400    968.1250     8.00586        7643      6451.9      7887.3      8132.0      3811.9
     110.070  -999.00000    971.7500     7.97754        8105      7000.2      8755.4      7511.8      3708.4
     110.100   320.82800    973.5000     8.02832        8540      7160.9      9285.9      6960.5      3795.0
     110.130   295.78100    978.1250     8.00098        8981      7864.4      9910.2      7846.6      3808.1
     110.160   299.04700    983.2500     7.99609        9538      8993.6      9465.0      8575.5      3785.6
     110.190   347.50000   1000.1300     8.02832       10333      9907.5     10111.2     10302.1      3761.1
     110.230   317.53100   1020.3800     8.02832       10625     10894.0     10503.8     18613.2      3962.1
     110.260   317.45300   1017.5000     8.01074       11304     10909.0     10517.4    134386.0      4351.7
     110.290   319.85900   1008.2500     7.99805       12392     11847.4     10251.0   -213474.0      4472.4
     110.320   284.42200   1035.0000     8.00781       13117     12337.2     10284.2    110830.0      4199.8
     110.350   311.37500   1069.3800     8.01270       13628     12301.4     11943.2   -377459.0      4153.5
     110.380   280.48400   1083.0000     8.00977       13275     11879.4     13266.3     42582.4      4297.1
     110.400   273.59400   1091.5000     8.01270       13830     11845.3     16415.5     14349.2      4827.3
     110.430   290.18800   1115.1300     8.00977       13947     13413.2     31675.8     10241.6      5377.8
     110.460   298.50000   1142.0000     8.03125       13482     14423.5    230689.0      9306.0      5424.0
     110.490   280.95300   1117.3800     7.99121       12777     17543.7   -362815.0      9376.4      5599.0
     110.520   248.66400   1083.2500     8.01953       12683     33474.1    192403.0      8839.4      4941.8
     110.550   284.18800   1000.0000     8.00098       14917    239764.0   -699337.0      8438.9      4656.7
     110.590   287.56300    907.0000     8.02148       17843   -372648.0     82643.9      8489.4      5095.4
     110.620   294.31300    829.7500     8.02441       27879    205916.0     25938.9      8886.3      5859.3
     110.650   267.07800    755.3750     8.00977       70146   -813979.0     17485.7      9232.5      6634.8
     110.680   279.26600    743.2500     8.00293      582564    111810.0     15646.9      9419.3      5533.0
     110.710   282.82800    742.6250     8.02148    -1001280     37368.6     15602.3      9524.9      5438.0
