~VERSION INFORMATION SECTION
VERS.           2.0  :CWLS Log ASCII Standard - 2.0
WRAP.           NO   :One line per depth
#               Created in SeisLab
~WELL INFORMATION SECTION
#MNEM.UNIT  VALUE/NAME               :DESCRIPTION    
STRT.m  10                           :Start Depth    
STOP.m  125                          :Stop Depth     
STEP.m  0.01                         :Step           
NULL.    -999.25                     :Null Value     
WELL.    GDP1                        :Well Name      
CTRY.    Switzerland                 :Country        
CNTY.                                :County         
STAT.    Central Swiss Alps          :State          
API .                                :API number     
UWI .                                :Unique well ID 
LOC .    Grimsel Pass, Switzerland   :Well Location  
FLD .    n/a                         :Field          
COMP.    n/a                         :Company        
SRVC.    University of Lausanne      :Service Company
DATE.    2017                        :Date           
~PARAMETER INFORMATION SECTION
#MNEM .UNITS  VALUE   :DESCRIPTION OF PARAMETER
Casing.n/a    1       :slotted PVC casing      
~CURVE INFORMATION SECTION
#MNEM.UNITS  API CODES   :DESCRIPTION OF MNEMONIC
depth.m                  :measured depth         
NG   .cps                :Natural gamma          
Sp   .mV                 :Self potential         
Temp .DegC               :Temperature            
SPR  .Ohm                :Single point resistance
R8   .Ohm.m              :Normal resistivity     
R16  .Ohm.m              :Single point resistance
R32  .Ohm.m              :Normal resistivity     
R64  .Ohm.m              :Normal resistivity     
~A depth       NG          Sp          Temp        SPR         R8          R16         R32         R64         
# ...
      78.080   216.98672   1102.4882     6.60645    3629.436     372.313     537.528     759.411    1206.382
      78.090   215.46196   1105.5820     6.60889    3584.125     373.521     536.992     758.001    1207.060
      78.100   213.78631   1108.8793     6.61133    3592.980     374.729     536.455     756.591    1207.737
      78.110   211.98083   1112.3388     6.61426    3603.920     376.429     537.012     755.371    1208.414
      78.120   210.07317   1115.9171     6.61719    3614.860     378.129     537.569     754.152    1209.092
      78.130   208.09585   1119.5706     6.63135    3626.485     380.661     538.268     754.111    1209.769
      78.140   206.08413   1123.2566     6.64551    3638.110     383.192     538.968     754.069    1210.446
      78.150   204.07382   1126.9346     6.62354    3644.345     385.793     539.347     754.808    1211.123
      78.160   202.09920   1130.5675     6.60156    3650.580     388.393     539.727     755.546    1211.801
      78.170   200.19152   1134.1222     6.62451    3648.440     390.069     541.134     756.423    1212.478
      78.180   198.37791   1137.5703     6.64746    3646.300     391.744     542.541     757.300    1213.155
      78.190   196.68107   1140.8880     6.64063    3641.155     392.765     543.687     758.869    1213.833
      78.200   195.11931   1144.0566     6.63379    3636.010     393.785     544.833     760.438    1214.510
      78.210   193.70702   1147.0615     6.63819    3636.605     394.695     545.317     761.532    1215.187
      78.220   192.45529   1149.8922     6.64258    3637.200     395.605     545.800     762.626    1215.864
      78.230   191.37245   1152.5418     6.63232    3640.960     396.085     546.943     764.663    1216.542
      78.240   190.46443   1155.0063     6.62207    3644.720     396.564     548.087     766.701    1217.219
      78.250   189.73491   1157.2849     6.62207    3646.805     396.862     549.657     768.391    1217.896
      78.260   189.18504   1159.3797     6.62207    3648.890     397.161     551.228     770.081    1218.574
      78.270   188.81291   1161.2961     6.63233    3653.740     397.797     552.099     770.147    1219.251
      78.280   188.61289   1163.0427     6.64258    3658.590     398.434     552.969     770.214    1219.928
      78.290   188.57529   1164.6318     6.63330    3670.435     398.581     552.732     771.053    1220.605
      78.300   188.68637   1166.0791     6.62402    3682.280     398.729     552.495     771.893    1221.283
      78.310   188.92900   1167.4033     6.63574    3695.120     398.278     551.769     773.072    1221.960
      78.320   189.28339   1168.6255     6.64746    3707.960     397.827     551.044     774.251    1222.637
      78.330   189.72776   1169.7687     6.64160    3719.305     397.477     551.143     773.686    1223.314
      78.340   190.23887   1170.8561     6.63574    3730.650     397.127     551.242     773.120    1223.992
      78.350   190.79254   1171.9101     6.62988    3744.695     397.001     551.647     772.035    1224.669
      78.360   191.36467   1172.9509     6.62402    3758.740     396.874     552.053     770.950    1225.346
      78.370   191.93277   1173.9951     6.61963    3770.675     396.823     552.552     772.356    1226.024
      78.380   192.47804   1175.0549     6.61523    3782.610     396.772     553.051     773.763    1226.701
      78.390   192.98732   1176.1365     6.61523    3783.045     396.471     553.554     776.203    1227.378
      78.400   193.45462   1177.2402     6.61523    3783.480     396.170     554.056     778.644    1228.055
      78.410   193.88186   1178.3596     6.61865    3770.620     395.744     554.392     779.226    1228.733
      78.420   194.27885   1179.4817     6.62207    3757.760     395.318     554.729     779.809    1229.410
      78.430   194.66258   1180.5881     6.64160    3743.960     395.310     555.435     781.180    1230.087
      78.440   195.05579   1181.6551     6.66113    3730.160     395.302     556.141     782.552    1230.765
      78.450   195.48472   1182.6559     6.65185    3721.985     395.491     556.557     785.465    1231.442
      78.460   195.97657   1183.5617     6.64258    3713.810     395.680     556.973     788.378    1232.119
      78.470   196.55698   1184.3441     6.63233    3708.065     395.962     556.689     790.109    1232.796
      78.480   197.24827   1184.9766     6.62207    3702.320     396.244     556.406     791.840    1233.474
      78.490   198.06853   1185.4360     6.63916    3692.835     396.651     556.690     792.281    1234.151
      78.500   199.03126   1185.7039     6.65625    3683.350     397.058     556.973     792.721    1241.129
      78.510   200.14516   1185.7679     6.65381    3673.015     397.511     557.900     792.340    1239.573
      78.520   201.41369   1185.6217     6.65137    3662.680     397.965     558.826     791.959    1238.017
      78.530   202.83441   1185.2656     6.64014    3656.910     398.739     558.682     793.424    1243.826
      78.540   204.39826   1184.7065     6.62891    3651.140     399.514     558.537     794.889    1249.636
      78.550   206.08885   1183.9576     6.63721    3648.135     400.132     558.113     796.684    1249.941
      78.560   207.88201   1183.0381     6.64551    3645.130     400.749     557.689     798.479    1250.247
      78.570   209.74590   1181.9722     6.63965    3646.380     400.761     558.604     798.758    1251.044
      78.580   211.64202   1180.7888     6.63379    3647.630     400.773     559.518     799.037    1249.038
      78.590   213.52703   1179.5204     6.63721    3656.660     400.976     560.904     798.817    1247.031
      78.600   215.35526   1178.2016     6.64063    3665.690     401.179     562.291     798.597    1245.025
      78.610   217.08144   1176.8679     6.64405    3683.765     401.600     562.626     799.543    1243.019
      78.620   218.66318   1175.5544     6.64746    3701.840     402.020     562.961     800.488    1241.012
      78.630   220.06314   1174.2936     6.63819    3721.750     401.921     563.499     801.828    1239.006
      78.640   221.25096   1173.1147     6.62891    3741.660     401.822     564.037     803.169    1236.999
      78.650   222.20468   1172.0420     6.62305    3749.245     401.717     565.399     802.193    1234.993
      78.660   222.91148   1171.0947     6.61719    3756.830     401.612     566.761     801.218    1232.986
      78.670   223.36744   1170.2864     6.63330    3752.385     402.271     567.676     799.556    1230.980
      78.680   223.57630   1169.6251     6.64941    3747.940     402.931     568.591     797.895    1228.974
      78.690   223.54778   1169.1140     6.64063    3743.390     403.809     568.766     798.344    1226.967
      78.700   223.29582   1168.7519     6.63184    3738.840     404.688     568.940     798.794    1224.961
      78.710   222.83708   1168.5344     6.63282    3735.465     404.997     569.050     799.013    1222.954
      78.720   222.18996   1168.4543     6.63379    3732.090     405.306     569.159     799.231    1220.948
      78.730   221.37416   1168.5029     6.63916    3730.935     405.921     570.521     797.719    1218.941
      78.740   220.41092   1168.6704     6.64453    3729.780     406.536     571.882     796.206    1216.935
      78.750   219.32367   1168.9464     6.64453    3735.050     407.755     573.112     793.396    1214.928
      78.760   218.13926   1169.3209     6.64453    3740.320     408.975     574.343     790.586    1212.922
      78.770   216.88904   1169.7843     6.65039    3749.490     410.136     574.437     793.036    1210.916
      78.780   215.60926   1170.3282     6.65625    3758.660     411.298     574.532     795.487    1208.909
      78.790   214.34033   1170.9456     6.64013    3769.555     412.366     574.001     796.376    1206.903
      78.800   213.12509   1171.6310     6.62402    3780.450     413.435     573.470     797.265    1204.896
      78.810   212.00670   1172.3812     6.62305    3793.010     414.890     573.248     801.091    1202.890
