~VERSION INFORMATION SECTION
VERS.           2.0  :CWLS Log ASCII Standard - 2.0
WRAP.           NO   :One line per depth
#               Created in SeisLab
~WELL INFORMATION SECTION
#MNEM.UNIT  VALUE/NAME               :DESCRIPTION    
STRT.m  10                           :Start Depth    
STOP.m  124                          :Stop Depth     
STEP.m  0.01                         :Step           
NULL.    -999.25                     :Null Value     
WELL.    GDP1                        :Well Name      
CTRY.    Switzerland                 :Country        
CNTY.                                :County         
STAT.    Central Swiss Alps          :State          
API .                                :API number     
UWI .                                :Unique well ID 
LOC .    Grimsel pass, Switzerland   :Well Location  
FLD .    n/a                         :Field          
COMP.    n/a                         :Company        
SRVC.    University of Lausanne      :Service Company
DATE.    2015                        :Date           
~PARAMETER INFORMATION SECTION
#MNEM .UNITS    VALUE   :DESCRIPTION OF PARAMETER
Casing.n/a      0       :open hole               
Mud   .Polymer  1       :Mud type                
~CURVE INFORMATION SECTION
#MNEM.UNITS  API CODES   :DESCRIPTION OF MNEMONIC      
depth.m                  :measured depth (interpolated)
Cal  .mm                 :Caliper                      
NN   .cps                :Neutron-Neutron              
GG   .cps                :Gamma-Gamma                  
~A depth       Cal         NN          GG          
# ...
      24.760   102.92560    453.2752   1299.0340
      24.770   102.92600    454.6282   1303.1790
      24.780   102.92620    453.6537   1312.0970
      24.790   102.92640    452.6792   1321.0150
      24.800   102.92555    456.6210   1321.0230
      24.810   102.92470    460.5628   1321.0310
      24.820   102.92460    467.2302   1320.5890
      24.830   102.92450    473.8975   1320.1470
      24.840   102.92485    481.4413   1325.0920
      24.850   102.92520    488.9852   1330.0370
      24.860   102.92560    478.0872   1325.1670
      24.870   102.92600    467.1892   1320.2970
      24.880   102.92800    462.2924   1314.3750
      24.890   102.93000    457.3956   1308.4530
      24.900   102.92735    457.3384   1307.0205
      24.910   102.92470    457.2813   1305.5880
      24.920   102.92555    459.9285   1297.6130
      24.930   102.92640    462.5757   1289.6380
      24.940   102.92750    466.0560   1287.2720
      24.950   102.92860    469.5364   1284.9060
      24.960   102.93245    473.0545   1301.8350
      24.970   102.93630    476.5726   1318.7640
      24.980   102.93945    470.9931   1303.1030
      24.990   102.94260    465.4137   1287.4420
      25.000   102.98210    459.1947   1271.9720
      25.010   103.02160    452.9757   1256.5020
      25.020   103.03455    448.0349   1265.4965
      25.030   103.04750    443.0941   1274.4910
      25.040   103.04365    464.5662   1270.9930
      25.050   103.03980    486.0383   1267.4950
      25.060   103.08325    496.1163   1259.4185
      25.070   103.12670    506.1943   1251.3420
      25.080   103.16010    505.2981   1240.6045
      25.090   103.19350    504.4019   1229.8670
      25.100   103.20285    471.8793   1258.7635
      25.110   103.21220    439.3567   1287.6600
      25.120   103.22235    443.4900   1306.3775
      25.130   103.23250    447.6233   1325.0950
      25.140   103.23385    476.5617   1288.4140
      25.150   103.23520    505.5000   1251.7330
      25.160   103.23695    479.5849   1253.1995
      25.170   103.23870    453.6698   1254.6660
      25.180   103.25360    448.9893   1254.5445
      25.190   103.26850    444.3087   1254.4230
      25.200   103.50220    456.3497   1222.1250
      25.210   103.73590    468.3907   1189.8270
      25.220   103.57935    483.9055   1190.0775
      25.230   103.42280    499.4204   1190.3280
      25.240   103.70740    505.0638   1204.7365
      25.250   103.99200    510.7071   1219.1450
      25.260   104.30110    507.3728   1246.2485
      25.270   104.61020    504.0385   1273.3520
      25.280   104.77980    481.1334   1275.7830
      25.290   104.94940    458.2284   1278.2140
      25.300   104.47000    457.1746   1280.9405
      25.310   103.99060    456.1208   1283.6670
      25.320   103.68030    471.1356   1305.2705
      25.330   103.37000    486.1504   1326.8740
      25.340   103.36895    487.6023   1302.4400
      25.350   103.36790    489.0542   1278.0060
      25.360   103.36795    476.7227   1251.9610
      25.370   103.36800    464.3911   1225.9160
      25.380   103.36935    442.9834   1229.5120
      25.390   103.37070    421.5757   1233.1080
      25.400   103.37590    424.4258   1228.8045
      25.410   103.38110    427.2759   1224.5010
      25.420   103.43810    433.8777   1215.0150
      25.430   103.49510    440.4795   1205.5290
      25.440   103.50525    450.3820   1188.4455
      25.450   103.51540    460.2846   1171.3620
      25.460   103.62340    475.9859   1185.4995
      25.470   103.73140    491.6872   1199.6370
      25.480   104.00765    485.4701   1214.0480
      25.490   104.28390    479.2531   1228.4590
      25.500   104.41460    458.9546   1220.6585
      25.510   104.54530    438.6561   1212.8580
      25.520   104.55075    461.9351   1228.3290
      25.530   104.55620    485.2142   1243.8000
      25.540   104.05765    484.6854   1247.8975
      25.550   103.55910    484.1565   1251.9950
      25.560   103.67170    466.2701   1209.5575
      25.570   103.78430    448.3837   1167.1200
      25.580   103.81920    447.4020   1190.7900
      25.590   103.85410    446.4202   1214.4600
      25.600   103.51785    454.4366   1236.0515
      25.610   103.18160    462.4529   1257.6430
      25.620   103.08465    476.3350   1225.2765
      25.630   102.98770    490.2170   1192.9100
      25.640   102.98800    487.4501   1210.8655
      25.650   102.98830    484.6833   1228.8210
      25.660   102.98770    485.6525   1250.4930
      25.670   102.98710    486.6217   1272.1650
      25.680   102.98705    489.6895   1266.5080
      25.690   102.98700    492.7573   1260.8510
      25.700   102.98725    483.8874   1271.9345
      25.710   102.98750    475.0176   1283.0180
      25.720   102.98695    468.8750   1290.0385
      25.730   102.98640    462.7323   1297.0590
      25.740   102.98640    458.8767   1281.2640
      25.750   102.98640    455.0212   1265.4690
      25.760   102.98620    453.6815   1247.0225
      25.770   102.98600    452.3418   1228.5760
      25.780   102.98580    450.9461   1220.1970
      25.790   102.98560    449.5504   1211.8180
      25.800   102.98600    448.0846   1231.4420
      25.810   102.98640    446.6188   1251.0660
      25.820   102.98620    444.7549   1246.6180
      25.830   102.98600    442.8910   1242.1700
      25.840   102.98550    451.3872   1235.4685
      25.850   102.98500    459.8835   1228.7670
      25.860   102.98670    475.0392   1233.9115
      25.870   102.98840    490.1949   1239.0560
      25.880   102.98755    484.7323   1256.6185
      25.890   102.98670    479.2697   1274.1810
      25.900   102.98655    482.3511   1286.0675
      25.910   102.98640    485.4326   1297.9540
      25.920   102.98675    493.8471   1286.0255
      25.930   102.98710    502.2616   1274.0970
      25.940   102.98730    491.2767   1264.7375
      25.950   102.98750    480.2917   1255.3780
      25.960   102.98730    481.2774   1249.4090
      25.970   102.98710    482.2630   1243.4400
      25.980   102.98770    491.9495   1244.3585
      25.990   102.98830    501.6360   1245.2770
      26.000   102.98835    502.4986   1228.2490
      26.010   102.98840    503.3612   1211.2210
      26.020   102.98725    501.1949   1196.4940
      26.030   102.98610    499.0285   1181.7670
      26.040   102.98685    494.7099   1186.1635
      26.050   102.98760    490.3912   1190.5600
      26.060   102.98840    489.0338   1195.2430
      26.070   102.98920    487.6764   1199.9260
      26.080   102.98845    483.0758   1201.4745
      26.090   102.98770    478.4752   1203.0230
      26.100   102.98660    472.6059   1196.2655
      26.110   102.98550    466.7367   1189.5080
      26.120   102.98465    479.4998   1203.0560
      26.130   102.98380    492.2628   1216.6040
      26.140   102.98405    497.5037   1225.7705
      26.150   102.98430    502.7446   1234.9370
      26.160   102.98360    501.8440   1217.8310
      26.170   102.98290    500.9433   1200.7250
      26.180   102.98290    495.5633   1205.9040
      26.190   102.98290    490.1833   1211.0830
      26.200   102.98290    477.9750   1218.0505
      26.210   102.98290    465.7667   1225.0180
      26.220   102.98215    450.6988   1220.2420
      26.230   102.98140    435.6309   1215.4660
      26.240   102.98180    456.7621   1219.7680
      26.250   102.98220    477.8932   1224.0700
      26.260   102.98140    483.6149   1231.7225
      26.270   102.98060    489.3365   1239.3750
      26.280   102.98105    482.3769   1249.0320
      26.290   102.98150    475.4174   1258.6890
      26.300   102.98080    457.8444   1271.5860
      26.310   102.98010    440.2714   1284.4830
      26.320   102.98115    436.8220   1296.3320
      26.330   102.98220    433.3726   1308.1810
      26.340   102.98185    440.7060   1314.9335
      26.350   102.98150    448.0394   1321.6860
      26.360   102.98150    452.6671   1292.6040
      26.370   102.98150    457.2949   1263.5220
      26.380   102.98210    460.2983   1239.5850
      26.390   102.98270    463.3018   1215.6480
