~VERSION INFORMATION SECTION
VERS.           2.0  :CWLS Log ASCII Standard - 2.0
WRAP.           NO   :One line per depth
#               Created in SeisLab
~WELL INFORMATION SECTION
#MNEM.UNIT  VALUE/NAME               :DESCRIPTION    
STRT.m  47.59                        :Start Depth    
STOP.m  123.23                       :Stop Depth     
STEP.m  0.02                         :Step           
NULL.    -999.25                     :Null Value     
WELL.    GDP1                        :Well Name      
CTRY.    Switzerland                 :Country        
CNTY.                                :County         
STAT.    Central Swiss Alps          :State          
API .                                :API number     
UWI .                                :Unique well ID 
LOC .    Grimsel Pass, Switzerland   :Well Location  
FLD .    n/a                         :Field          
COMP.    n/a                         :Company        
SRVC.    University of Lausanne      :Service Company
DATE.    2017                        :Date           
~PARAMETER INFORMATION SECTION
#MNEM .UNITS  VALUE   :DESCRIPTION OF PARAMETER
Casing.n/a    1       :slotted PVC casing      
~CURVE INFORMATION SECTION
#MNEM.UNITS  API CODES   :DESCRIPTION OF MNEMONIC
depth.m                  :measured depth         
NG   .cps                :Natural gamma          
Sp   .mV                 :Self potential         
Temp .DegC               :Temperature            
SPR  .Ohm                :Single point resistance
R8   .Ohm.m              :Normal resistivity     
R16  .Ohm.m              :Single point resistance
R32  .Ohm.m              :Normal resistivity     
R64  .Ohm.m              :Normal resistivity     
~A depth       NG          Sp          Temp        SPR         R8          R16         R32         R64         
# ...
      59.430   293.04700   1428.8800     6.17578      4545.7      1098.7     1503.94     1926.59     2583.12
      59.450   241.64800   1419.1300     6.19238      4627.5      1101.7     1492.95     2009.12     2543.99
      59.470   262.65600   1409.2500     6.18262      4725.8      1114.5     1470.71     2241.02     2503.21
      59.490   257.65600   1401.3800     6.18750      4800.6      1118.8     1453.54     2796.81     2457.06
      59.510   257.96900   1394.2500     6.19043      4835.1      1125.2     1428.53     4116.66     2409.91
      59.530   277.62500   1381.2500     6.20410      4830.8      1127.5     1410.62     9022.08     2374.90
      59.550   247.32000   1368.2500     6.21094      4801.8      1130.0     1396.08   -60684.70     2383.24
      59.570   296.78100   1371.5000     6.19434      4777.5      1124.6     1381.66    -8869.50     2385.39
      59.590   240.14100   1378.1300     6.17383      4763.6      1120.6     1370.86    -6518.58     2400.45
      59.610   281.10900   1378.6300     6.20996      4759.8      1110.7     1362.18    -6725.01     2432.06
      59.630   272.67200   1378.2500     6.18750      4740.6      1101.2     1390.41   -12379.20     2474.99
      59.650   283.75000   1375.2500     6.18066      4700.0      1088.5     1464.20    32313.30     2519.15
      59.670   269.39100   1372.5000     6.18555      4656.6      1073.0     1654.78     5287.30     2548.11
      59.690   294.54700   1375.1300     6.21680      4639.4      1059.6     2111.75     2881.83     2581.97
      59.710   280.31300   1378.3800     6.20313      4651.7      1053.7     3211.97     2246.38     2591.90
      59.730   281.65600   1362.6300     6.19727      4688.5      1081.0     7304.26     2038.73     2570.61
      59.750   324.29700   1343.8800     6.19629      4718.0      1153.8   -50747.70     1950.92     2535.83
      59.770   280.51600   1314.0000     6.20117      4715.2      1335.3    -7646.26     1916.91     2507.88
      59.790   273.76600   1282.1300     6.19629      4707.9      1778.9    -5726.63     1903.87     2476.55
      59.810   318.78100   1215.7500     6.17383      4864.4      2933.3    -6053.07     1896.61     2431.64
      59.830   275.56300   1143.1300     6.20996      5598.9      7552.6   -11001.40     1883.53     2397.36
      59.850   276.85900   1051.0000     6.20996     10672.5    -62190.8    27936.20     1867.40     2390.68
      59.870   275.84400    955.3750     6.20117     11024.5    -11764.6     4409.65     1856.44     2402.00
      59.890   245.51600    863.3750     6.19434      -735.3    -11785.8     2298.90     1844.84     2408.43
      59.910   279.45300    773.8750     6.19629     -4659.6    -17663.2     1738.14     1828.43     2399.47
      59.930   287.50000    743.2500     6.20410    -13974.9    -44944.1     1558.58     1810.93     2390.16
      59.950   284.06300    720.5000     6.22656    117083.0    157368.0     1490.24     1802.58     2381.76
      59.970   274.71900    712.0000     6.18066     19853.0     30333.8     1466.60     1800.58     2362.33
      59.990   340.00000    705.6250     6.19238     15425.8     15109.6     1465.57     1797.27     2380.16
      60.010   283.59400    733.2500     6.20801     16210.7      9575.5     1478.32     1792.48     2411.36
      60.030   278.04700    766.0000     6.21777     26635.5      7143.3     1502.11     1796.57     2447.27
      60.050   294.26600    812.6250     6.20996    -57927.6      5604.2     1546.59     1800.09     2486.97
      60.070   293.71900    861.6250     6.18945     -7099.8      4435.8     1615.04     1803.12     2505.65
      60.090   301.68800    914.5000     6.19727     -2527.6      3584.3     1670.77     1799.78     2519.41
      60.110   269.57800    967.3750     6.19727     13842.4      2966.6     1689.04     1796.04     2495.41
      60.130   269.84400   1013.2500     6.18262     15746.7      2511.9     1678.90     1799.08     2464.96
      60.150   255.71900   1058.0000     6.20801      8445.5      2165.6     1651.90     1784.32     2413.52
      60.170   246.09400   1080.3800     6.21289      6393.6      1905.1     1621.25     1766.67     2380.51
      60.190   262.56300   1099.1300     6.19922      6086.2      1700.6     1593.47     1753.55     2378.75
      60.210   267.48400   1116.8800     6.21094      6014.9      1537.3     1566.90     1746.69     2355.25
      60.230   270.48400   1134.2500     6.18750      5934.9      1420.1     1546.42     1733.06     2352.33
      60.250   252.92200   1166.6300     6.21973      5808.4      1356.1     1527.25     1715.01     2367.70
      60.270   280.04700   1201.2500     6.20313      5649.1      1330.8     1508.25     1718.43     2382.48
      60.290   253.96100   1235.8800     6.20410      5471.4      1325.8     1484.87     1727.79     2398.61
      60.310   282.07800   1270.6300     6.20801      5266.8      1324.8     1458.88     1732.60     2396.48
      60.330   323.73400   1296.8800     6.21973      5070.9      1324.3     1437.29     1733.08     2396.69
      60.350   288.09400   1321.7500     6.19727      4944.2      1321.2     1412.48     1731.76     2404.13
      60.370   266.29700   1337.3800     6.21484      4918.5      1317.3     1393.91     1732.57     2401.36
      60.390   256.29700   1351.3800     6.19727      4980.1      1307.8     1382.65     1730.65     2399.08
      60.410   290.53100   1344.2500     6.20117      5089.1      1293.0     1374.70     1736.67     2399.98
      60.430   262.81300   1333.6300     6.22461      5221.7      1277.6     1363.21     1752.93     2406.24
      60.450   275.50000   1332.3800     6.20996      5370.9      1258.6     1350.03     1767.26     2401.56
      60.470   274.03100   1332.6300     6.18262      5531.0      1246.0     1348.20     1778.92     2398.22
      60.490   274.92200   1332.2500     6.22656      5665.8      1241.6     1349.18     1785.96     2403.61
      60.510   240.37500   1332.2500     6.20410      5746.2      1242.5     1346.16     1786.33     2412.72
      60.530   267.48400   1322.3800     6.20313      5757.9      1243.0     1339.00     1780.46     2423.72
      60.550   236.88300   1310.6300     6.19922      5702.8      1244.9     1332.10     1770.21     2415.51
      60.570   291.75000   1288.7500     6.21680      5616.4      1254.9     1330.30     1765.22     2427.02
      60.590   251.83600   1265.5000     6.19434      5516.5      1264.9     1333.27     1773.83     2449.58
      60.610   238.54700   1260.2500     6.20313      5404.1      1267.1     1344.69     1783.19     2496.88
      60.630   243.35900   1257.1300     6.20801      5289.9      1257.8     1365.04     1782.78     2557.86
      60.650   207.39100   1278.7500     6.18945      5210.3      1241.0     1383.98     1784.02     2654.72
      60.670   236.43800   1303.8800     6.21094      5192.3      1224.0     1401.06     1793.44     2749.91
      60.690   242.35200   1311.0000     6.19238      5209.4      1210.9     1414.87     1802.50     2853.60
      60.710   246.27300   1315.6300     6.20996      5217.3      1205.8     1423.26     1808.55     2916.64
      60.730   246.29700   1302.0000     6.20996      5188.2      1209.0     1424.50     1802.42     2930.85
      60.750   233.53100   1285.5000     6.20605      5119.4      1213.7     1418.06     1797.93     2967.66
      60.770   249.12500   1297.6300     6.19727      5049.2      1218.3     1411.59     1803.79     2964.16
      60.790   229.29700   1314.3800     6.20410      5038.0      1221.7     1411.93     1807.35     2962.93
      60.810   247.71100   1315.6300     6.22656      5125.7      1221.3     1413.92     1811.52     2951.72
      60.830   229.09400   1313.8800     6.22852      5300.5      1214.7     1411.49     1818.68     2958.66
      60.850   227.92200   1313.7500     6.21777      5496.2      1200.0     1409.79     1831.49     2931.58
      60.870   206.40600   1314.7500     6.20801      5655.7      1185.2     1412.05     1839.40     2930.03
      60.890   221.95300   1316.3800     6.21973      5759.0      1178.9     1413.49     1843.30     2927.36
