~VERSION INFORMATION SECTION
VERS.           2.0  :CWLS Log ASCII Standard - 2.0
WRAP.           NO   :One line per depth
#               Created in SeisLab
~WELL INFORMATION SECTION
#MNEM.UNIT  VALUE/NAME               :DESCRIPTION    
STRT.m  10                           :Start Depth    
STOP.m  125                          :Stop Depth     
STEP.m  0.01                         :Step           
NULL.    -999.25                     :Null Value     
WELL.    GDP1                        :Well Name      
CTRY.    Switzerland                 :Country        
CNTY.                                :County         
STAT.    Central Swiss Alps          :State          
API .                                :API number     
UWI .                                :Unique well ID 
LOC .    Grimsel Pass, Switzerland   :Well Location  
FLD .    n/a                         :Field          
COMP.    n/a                         :Company        
SRVC.    University of Lausanne      :Service Company
DATE.    2016                        :Date           
~PARAMETER INFORMATION SECTION
#MNEM .UNITS  VALUE   :DESCRIPTION OF PARAMETER
Casing.n/a    1       :slotted PVC casing      
~CURVE INFORMATION SECTION
#MNEM.UNITS  API CODES   :DESCRIPTION OF MNEMONIC
depth.m                  :measured depth         
NG   .cps                :Natural gamma          
Sp   .mV                 :Self potential         
Temp .DegC               :Temperature            
SPR  .Ohm                :Single point resistance
R8   .Ohm.m              :Normal resistivity     
R16  .Ohm.m              :Single point resistance
R32  .Ohm.m              :Normal resistivity     
R64  .Ohm.m              :Normal resistivity     
~A depth       NG          Sp          Temp        SPR         R8          R16         R32         R64         
# ...
      55.880   269.84009   1048.0000     6.28906   10385.167    3889.017    5492.153    4541.438    4230.777
      55.890   269.33154   1048.0000     6.27930   10337.077    3805.622    5472.791    4536.907    4251.796
      55.900   268.94382   1048.0000     6.28613   10288.986    3744.264    5453.621    4531.668    4271.298
      55.910   268.69045   1048.0000     6.29297   10240.896    3682.906    5434.570    4525.715    4289.232
      55.920   268.57896   1048.0000     6.29980   10192.805    3663.732    5415.564    4519.048    4305.561
      55.930   268.61067   1048.0000     6.29687   10144.714    3644.559    5396.534    4511.675    4320.260
      55.940   268.78074   1048.0000     6.29395   10096.624    3629.314    5377.411    4503.610    4333.317
      55.950   269.07831   1048.0000     6.29102   10048.533    3614.069    5358.133    4494.873    4344.735
      55.960   269.48675   1048.0000     6.29395   10000.443    3620.450    5338.641    4485.491    4354.528
      55.970   269.98419   1048.0000     6.29687    9952.352    3626.831    5318.883    4475.493    4362.723
      55.980   270.54449   1048.0000     6.29980    9904.262    3637.877    5298.812    4464.914    4369.357
      55.990   271.13872   1048.0000     6.29492    9856.171    3648.922    5278.390    4453.789    4374.478
      56.000   271.73701   1048.0000     6.29004    9808.081    3681.380    5257.584    4442.158    4378.145
      56.010   272.31066   1048.0000     6.29004    9759.990    3713.839    5236.371    4430.062    4380.426
      56.020   272.83401   1048.0000     6.29004    9711.899    3780.878    5214.737    4417.541    4381.395
      56.030   273.28572   1048.0000     6.29004    9663.809    3847.917    5192.674    4404.636    4381.136
      56.040   273.64950   1048.0000     6.29248    9615.718    3884.923    5170.185    4391.387    4379.739
      56.050   273.91461   1048.0000     6.29492    9567.628    3921.929    5147.280    4377.832    4377.298
      56.060   274.07613   1048.0000     6.29736    9519.537    3953.951    5123.979    4364.007    4373.912
      56.070   274.13503   1048.0000     6.29980    9471.447    3985.972    5100.309    4349.945    4369.685
      56.080   274.09784   1048.0000     6.29297    9423.356    4041.269    5076.307    4335.676    4364.722
      56.090   273.97569   1048.0000     6.28613    9375.266    4096.565    5052.015    4321.224    4359.129
      56.100   273.78258   1048.0000     6.27930    9327.175    4167.482    5027.483    4306.611    4353.014
      56.110   273.53336   1048.0000     6.27637    9279.084    4238.399    5002.767    4291.853    4346.484
      56.120   273.24153   1048.0000     6.27344    9230.994    4285.924    4977.931    4276.961    4339.643
      56.130   272.91743   1048.0000     6.27051    9182.903    4333.450    4953.039    4261.941    4332.595
      56.140   272.56691   1048.0000     6.27865    9134.813    4352.595    4928.164    4246.794    4325.439
      56.150   272.19057   1048.0000     6.28678    9086.722    4371.740    4903.378    4231.513    4318.271
      56.160   271.78372   1048.0000     6.29492    9038.632    4368.009    4878.757    4216.090    4311.181
      56.170   271.33704   1048.0000     6.29931    8990.541    4364.278    4854.377    4200.508    4304.254
      56.180   270.83804   1048.0000     6.30371    8942.451    4391.326    4830.314    4184.747    4297.568
      56.190   270.27325   1048.0000     6.30371    8894.360    4372.017    4806.643    4168.780    4291.194
      56.200   269.63070   1048.0000     6.30371    8981.730    4352.707    4783.436    4152.578    4285.195
      56.210   268.90227   1048.0000     6.30371    9069.100    4333.398    4760.763    4136.107    4279.627
      56.220   268.08560   1048.0000     6.29809    9188.468    4338.435    4738.689    4119.328    4274.537
      56.230   267.18521   1048.0000     6.29248    9307.835    4343.472    4717.272    4102.200    4269.961
      56.240   266.21292   1048.0000     6.28686    9427.203    4348.509    4696.567    4084.679    4265.929
      56.250   265.18728   1048.0000     6.28125    9546.570    4353.546    4676.619    4066.720    4262.459
      56.260   264.13256   1048.0000     6.28516    9700.213    4400.891    4657.468    4048.275    4259.560
      56.270   263.07724   1048.0000     6.28906    9853.857    4448.236    4639.142    4029.296    4257.234
      56.280   262.05227   1048.0000     6.29297   10007.500    4495.581    4621.663    4009.735    4255.470
      56.290   261.08962   1048.0000     6.30046   10074.467    4511.052    4605.043    3989.544    4254.249
      56.300   260.22099   1048.0000     6.30794   10141.433    4526.522    4589.282    3968.676    4253.545
      56.310   259.47711   1048.0000     6.31543   10208.400    4541.993    4574.371    3947.087    4253.322
      56.320   258.88708   1048.0000     6.30566   10129.233    4513.642    4560.293    3924.735    4253.535
      56.330   258.47754   1048.0000     6.29590   10050.067    4485.292    4547.016    3901.580    4254.132
      56.340   258.27161   1048.0000     6.28613    9970.900    4456.942    4534.502    3877.587    4255.056
      56.350   258.28768   1048.0000     6.29638    9930.885    4429.680    4522.700    3852.726    4256.242
      56.360   258.53851   1048.0000     6.30664    9890.870    4402.418    4511.552    3826.971    4257.620
      56.370   259.03104   1048.0000     6.30208    9913.730    4404.477    4500.987    3800.302    4259.114
      56.380   259.76664   1048.0000     6.29753    9936.590    4406.536    4490.930    3772.703    4260.646
      56.390   260.74167   1048.0000     6.29297    9959.450    4408.595    4481.295    3744.167    4262.136
      56.400   261.94789   1048.0000     6.29566    9900.855    4406.558    4471.988    3714.692    4263.499
      56.410   263.37260   1048.0000     6.29834    9842.260    4404.520    4462.912    3684.285    4264.651
      56.420   264.99835   1048.0000     6.30103    9783.665    4402.482    4453.960    3652.957    4265.508
      56.430   266.80249   1048.0000     6.30371    9725.070    4400.445    4445.024    3620.730    4265.986
      56.440   268.75696   1048.0000     6.30029    9519.425    4370.582    4435.991    3587.632    4266.005
      56.450   270.82871   1048.0000     6.29688    9313.780    4340.720    4426.747    3553.698    4265.486
      56.460   272.98066   1048.0000     6.29639    9264.975    4348.619    4417.175    3518.971    4264.355
      56.470   275.17292   1048.0000     6.29590    9216.170    4356.518    4407.158    3483.503    4262.541
      56.480   277.36397   1048.0000     6.29541    9167.365    4364.417    4396.582    3447.353    4259.980
      56.490   279.51160   1048.0000     6.29492    9118.560    4372.316    4385.333    3410.585    4256.614
      56.500   281.57407   1048.0000     6.29720    9123.340    4382.655    4373.303    3373.274    4252.393
      56.510   283.51153   1048.0000     6.29948    9128.120    4392.993    4360.385    3335.500    4247.272
      56.520   285.28781   1048.0000     6.30176    9132.900    4403.332    4346.481    3297.348    4241.216
      56.530   286.87206   1048.0000     6.30729    9128.870    4394.730    4331.498    3258.910    4234.198
      56.540   288.23977   1048.0000     6.31283    9124.840    4386.128    4315.352    3220.286    4226.201
      56.550   289.37284   1048.0000     6.31836    9120.810    4377.525    4297.967    3181.577    4217.214
      56.560   290.25929   1048.0000     6.30225    9175.410    4343.924    4279.275    3142.892    4207.237
      56.570   290.89308   1048.0000     6.28613    9230.010    4310.324    4259.222    3104.342    4196.280
      56.580   291.27446   1048.0000     6.29297    9300.840    4313.845    4237.762    3066.042    4184.361
      56.590   291.41047   1048.0000     6.29981    9371.670    4317.367    4214.861    3028.110    4171.505
      56.600   291.31505   1048.0000     6.30664    9442.500    4320.889    4190.499    2990.665    4157.749
      56.610   291.00867   1048.0000     6.31348    9513.330    4324.411    4164.667    2953.828    4143.134
