~VERSION INFORMATION SECTION
VERS.           2.0  :CWLS Log ASCII Standard - 2.0
WRAP.           NO   :One line per depth
#               Created in SeisLab
~WELL INFORMATION SECTION
#MNEM.UNIT  VALUE/NAME               :DESCRIPTION    
STRT.m  10                           :Start Depth    
STOP.m  125                          :Stop Depth     
STEP.m  0.01                         :Step           
NULL.    -999.25                     :Null Value     
WELL.    GDP1                        :Well Name      
CTRY.    Switzerland                 :Country        
CNTY.                                :County         
STAT.    Central Swiss Alps          :State          
API .                                :API number     
UWI .                                :Unique well ID 
LOC .    Grimsel Pass, Switzerland   :Well Location  
FLD .    n/a                         :Field          
COMP.    n/a                         :Company        
SRVC.    University of Lausanne      :Service Company
DATE.    2016                        :Date           
~PARAMETER INFORMATION SECTION
#MNEM .UNITS  VALUE   :DESCRIPTION OF PARAMETER
Casing.n/a    1       :slotted PVC casing      
~CURVE INFORMATION SECTION
#MNEM.UNITS  API CODES   :DESCRIPTION OF MNEMONIC
depth.m                  :measured depth         
NG   .cps                :Natural gamma          
Sp   .mV                 :Self potential         
Temp .DegC               :Temperature            
SPR  .Ohm                :Single point resistance
R8   .Ohm.m              :Normal resistivity     
R16  .Ohm.m              :Single point resistance
R32  .Ohm.m              :Normal resistivity     
R64  .Ohm.m              :Normal resistivity     
~A depth       NG          Sp          Temp        SPR         R8          R16         R32         R64         
# ...
     116.560   289.97534   1014.2331     8.16895    6452.855    3236.982    4436.799    4060.675    2895.456
     116.570   288.63561   1015.1938     8.16992    6539.091    3314.131    4483.430    4069.382    2901.282
     116.580   287.33672   1016.0223     8.17448    6625.327    3411.595    4532.595    4080.495    2908.120
     116.590   286.10863   1016.7499     8.17903    6711.564    3509.059    4584.327    4094.263    2915.932
     116.600   284.97995   1017.4063     8.18359    6797.800    3606.523    4638.659    4110.929    2924.683
     116.610   283.97716   1018.0175     8.17448    6884.037    3771.978    4695.619    4130.733    2934.336
     116.620   283.12367   1018.6032     8.16536    7218.963    3937.434    4755.234    4153.909    2944.856
     116.630   282.43888   1019.1760     8.15625    7553.890    4102.889    4817.524    4180.682    2956.210
     116.640   281.93720   1019.7404     8.15918    7908.073    4287.660    4882.505    4211.266    2968.364
     116.650   281.62728   1020.2929     8.16211    8262.257    4472.430    4950.183    4245.864    2981.289
     116.660   281.51169   1020.8223     8.16504    8616.440    4657.200    5020.556    4284.668    2994.954
     116.670   281.58712   1021.3112     8.16537    8869.440    4841.145    5093.612    4327.852    3009.333
     116.680   281.84506   1021.7380     8.16569    9122.440    5025.090    5169.329    4375.578    3024.398
     116.690   282.27304   1022.0785     8.16602    9375.440    5209.034    5247.669    4427.987    3040.123
     116.700   282.85595   1022.3090     8.17058    9666.660    5431.451    5328.584    4485.204    3056.483
     116.710   283.57717   1022.4082     8.17513    9957.880    5653.868    5412.010    4547.334    3073.454
     116.720   284.41942   1022.3601     8.17969   10249.100    5876.285    5497.869    4614.459    3091.010
     116.730   285.36521   1022.1558     8.17676   10456.350    6061.283    5586.067    4686.642    3109.127
     116.740   286.39723   1021.7945     8.17383   10663.600    6246.282    5676.495    4763.923    3127.779
     116.750   287.49876   1021.2845     8.17090   10870.850    6431.281    5769.027    4846.318    3146.938
     116.760   288.65411   1020.6426     8.16797   11078.100    6616.279    5863.521    4933.820    3166.576
     116.770   289.84894   1019.8935     8.17318   11178.333    6777.779    5959.822    5026.398    3186.662
     116.780   291.07042   1019.0680     8.17838   11278.567    6939.280    6057.755    5123.997    3207.163
     116.790   292.30708   1018.2013     8.18359   11378.800    7100.780    6157.134    5226.538    3228.042
     116.800   293.54854   1017.3310     8.18066   11391.767    7159.803    6257.757    5333.918    3249.259
     116.810   294.78515   1016.4955     8.17773   11404.733    7218.826    6359.409    5446.008    3270.774
     116.820   296.00781   1015.7314     8.17480   11417.700    7277.848    6461.863    5562.659    3292.538
     116.830   297.20773   1015.0733     8.16797   11532.267    7408.882    6564.882    5683.698    3314.502
     116.840   298.37629   1014.5522     8.16113   11646.833    7539.917    6668.219    5808.929    3336.613
     116.850   299.50490   1014.1952     8.15430   11761.400    7670.951    6771.618    5938.134    3358.813
     116.860   300.58508   1014.0260     8.16569   11893.133    7852.888    6874.817    6071.077    3381.040
     116.870   301.60893   1014.0650     8.17709   12024.867    8034.825    6977.550    6207.502    3403.231
     116.880   302.57023   1014.3304     8.18848   12156.600    8216.763    7079.548    6347.133    3425.317
     116.890   303.46567   1014.8394     8.18327   12119.767    8207.939    7180.541    6489.678    3447.229
     116.900   304.29618   1015.6094     8.17806   12082.933    8199.115    7280.257    6634.831    3468.893
     116.910   305.06762   1016.6589     8.17285   12046.100    8190.291    7378.431    6782.268    3490.234
     116.920   305.79082   1018.0077     8.17236   11884.200    8163.044    7474.800    6931.655    3511.178
     116.930   306.48060   1019.6771     8.17188   11722.300    8135.798    7569.107    7082.644    3531.647
     116.940   307.15406   1021.6885     8.16993   11774.600    8142.094    7661.104    7234.880    3551.564
     116.950   307.82858   1024.0617     8.16797   11826.900    8148.389    7750.551    7387.996    3570.855
     116.960   308.51989   1026.8120     8.16602   11879.200    8154.685    7837.223    7541.619    3589.446
     116.970   309.24081   1029.9481     8.16504   12022.700    8326.392    7920.904    7695.370    3607.264
     116.980   310.00054   1033.4688     8.16407   12166.200    8498.099    8001.395    7848.866    3624.241
     116.990   310.80459   1037.3607     8.16309   12309.700    8669.806    8078.511    8001.719    3640.313
     117.000   311.65519   1041.5959     8.16374   12208.500    8597.305    8152.084    8153.541    3655.420
     117.010   312.55186   1046.1310     8.16439   12107.300    8524.803    8221.965    8303.943    3669.507
     117.020   313.49202   1050.9060     8.16504   12006.100    8452.302    8288.023    8452.536    3682.527
     117.030   314.47116   1055.8454     8.17220   11917.400    8353.174    8350.144    8598.934    3694.439
     117.040   315.48265   1060.8595     8.17936   11828.700    8254.045    8408.237    8742.753    3705.208
     117.050   316.51702   1065.8475     8.18652   11740.000    8154.917    8462.231    8883.614    3714.809
     117.060   317.56106   1070.7015     8.17969   11748.933    8267.281    8512.072    9021.145    3723.225
     117.070   318.59715   1075.3112     8.17285   11757.867    8379.646    8557.729    9154.976    3730.448
     117.080   319.60310   1079.5690     8.16602   11766.800    8492.010    8599.191    9284.749    3736.477
     117.090   320.55282   1083.3753     8.16048   11921.867    8423.843    8636.466    9410.111    3741.323
     117.100   321.41770   1086.6432     8.15495   12076.933    8355.676    8669.581    9530.722    3745.007
     117.110   322.16865   1089.3028     8.14941   12232.000    8287.510    8698.584    9646.250    3747.557
     117.120   322.77835   1091.3038     8.16162   12143.900    8286.600    8723.538    9756.374    3749.013
     117.130   323.22320   1092.6183     8.17382   12055.800    8285.691    8744.524    9860.786    3749.421
     117.140   323.48476   1093.2419     8.18603   11967.700    8239.832    8761.640    9959.191    3748.841
     117.150   323.55042   1093.1933     8.19824   11879.600    8193.973    8774.997   10051.308    3747.339
     117.160   323.41349   1092.5143     8.18131   11738.533    8158.475    8784.723   10136.870    3744.990
     117.170   323.07265   1091.2671     8.16439   11597.467    8122.976    8790.954   10215.628    3741.877
     117.180   322.53116   1089.5318     8.14746   11456.400    8083.561    8793.842   10287.346    3738.092
     117.190   321.79590   1087.4025     8.15039   11548.300    8044.147    8793.545   10351.810    3733.732
     117.200   320.87657   1084.9831     8.15332   11640.200    8014.098    8790.230   10408.819    3728.905
     117.210   319.78498   1082.3824     8.15625   11732.100    7984.048    8784.073   10458.196    3723.720
     117.220   318.53435   1079.7095     8.16471   11659.533    7930.430    8775.253   10499.782    3718.294
     117.230   317.13841   1077.0694     8.17318   11586.967    7876.811    8763.953   10533.438    3712.751
     117.240   315.61030   1074.5588     8.18164   11514.400    7831.247    8750.362   10559.050    3707.214
     117.250   313.96155   1072.2629     8.18913   11462.200    7785.682    8734.665   10576.525    3701.814
     117.260   312.20179   1070.2526     8.19661   11410.000    7764.202    8717.050   10585.793    3696.684
     117.270   310.33924   1068.5829     8.20410   11357.800    7742.721    8697.702   10586.811    3691.956
     117.280   308.38205   1067.2920     8.19433   11165.500    7733.277    8676.805   10579.558    3687.766
     117.290   306.33990   1066.4015     8.18457   10973.200    7723.833    8654.537   10564.043    3684.250
