~VERSION INFORMATION SECTION
VERS.           2.0  :CWLS Log ASCII Standard - 2.0
WRAP.           NO   :One line per depth
#               Created in SeisLab
~WELL INFORMATION SECTION
#MNEM.UNIT  VALUE/NAME               :DESCRIPTION    
STRT.m  10                           :Start Depth    
STOP.m  125                          :Stop Depth     
STEP.m  0.01                         :Step           
NULL.    -999.25                     :Null Value     
WELL.    GDP1                        :Well Name      
CTRY.    Switzerland                 :Country        
CNTY.                                :County         
STAT.    Central Swiss Alps          :State          
API .                                :API number     
UWI .                                :Unique well ID 
LOC .    Grimsel Pass, Switzerland   :Well Location  
FLD .    n/a                         :Field          
COMP.    n/a                         :Company        
SRVC.    University of Lausanne      :Service Company
DATE.    2017                        :Date           
~PARAMETER INFORMATION SECTION
#MNEM .UNITS  VALUE   :DESCRIPTION OF PARAMETER
Casing.n/a    1       :slotted PVC casing      
~CURVE INFORMATION SECTION
#MNEM.UNITS  API CODES   :DESCRIPTION OF MNEMONIC
depth.m                  :measured depth         
NG   .cps                :Natural gamma          
Sp   .mV                 :Self potential         
Temp .DegC               :Temperature            
SPR  .Ohm                :Single point resistance
R8   .Ohm.m              :Normal resistivity     
R16  .Ohm.m              :Single point resistance
R32  .Ohm.m              :Normal resistivity     
R64  .Ohm.m              :Normal resistivity     
~A depth       NG          Sp          Temp        SPR         R8          R16         R32         R64         
# ...
      68.460   268.22643   1240.2793     6.29004    6601.130    1357.885    1128.003    1323.781    1718.957
      68.470   270.53947   1242.6245     6.31299    6540.085    1316.245    1123.487    1326.451    1731.694
      68.480   272.85595   1244.9900     6.33594    6479.040    1274.606    1118.970    1329.121    1744.431
      68.490   275.13799   1247.3900     6.31787    6395.855    1235.076    1118.301    1325.689    1747.086
      68.500   277.34985   1249.8334     6.29980    6312.670    1195.546    1117.631    1322.256    1749.741
      68.510   279.45940   1252.3238     6.30175    6221.600    1163.392    1119.586    1317.132    1761.607
      68.520   281.43944   1254.8596     6.30371    6130.530    1131.239    1121.540    1312.007    1773.473
      68.530   283.26895   1257.4339     6.30615    6032.535    1108.641    1123.444    1312.236    1788.183
      68.540   284.93361   1260.0351     6.30859    5934.540    1086.043    1125.349    1312.464    1802.894
      68.550   286.42551   1262.6467     6.31445    5821.855    1071.387    1126.188    1311.214    1796.996
      68.560   287.74202   1265.2481     6.32031    5709.170    1056.730    1127.028    1309.964    1791.097
      68.570   288.88404   1267.8154     6.32129    5582.485    1047.198    1129.064    1304.298    1794.306
      68.580   289.85399   1270.3225     6.32227    5455.800    1037.666    1131.100    1298.632    1797.514
      68.590   290.65395   1272.7420     6.31689    5331.300    1033.141    1133.507    1292.239    1793.106
      68.600   291.28423   1275.0460     6.31152    5206.800    1028.617    1135.914    1285.845    1788.698
      68.610   291.74260   1277.2069     6.31152    5109.750    1026.566    1135.926    1282.521    1788.369
      68.620   292.02449   1279.1976     6.31152    5012.700    1024.515    1135.937    1279.196    1788.040
      68.630   292.12403   1280.9917     6.31836    4963.490    1023.106    1136.332    1280.334    1776.538
      68.640   292.03564   1282.5635     6.32520    4914.280    1021.697    1136.727    1281.472    1765.036
      68.650   291.75596   1283.8884     6.31104    4916.945    1020.296    1138.109    1277.211    1761.270
      68.660   291.28592   1284.9429     6.29688    4919.610    1018.895    1139.490    1272.950    1757.504
      68.670   290.63296   1285.7052     6.30957    4955.800    1019.158    1140.520    1265.859    1747.562
      68.680   289.81296   1286.1553     6.32227    4991.990    1019.422    1141.549    1258.769    1737.619
      68.690   288.85127   1286.2755     6.31788    5043.670    1020.970    1138.840    1257.972    1740.305
      68.700   287.78262   1286.0502     6.31348    5095.350    1022.518    1136.131    1257.175    1742.991
      68.710   286.64983   1285.4659     6.31495    5150.705    1024.619    1131.552    1258.885    1732.677
      68.720   285.50150   1284.5111     6.31641    5206.060    1026.721    1126.974    1260.596    1722.363
      68.730   284.38931   1283.1755     6.32178    5266.505    1031.396    1123.719    1258.367    1717.665
      68.740   283.36502   1281.4502     6.32715    5326.950    1036.071    1120.464    1256.138    1712.966
      68.750   282.47741   1279.3265     6.32178    5389.215    1044.520    1116.079    1252.956    1709.104
      68.760   281.76910   1276.7956     6.31641    5451.480    1052.968    1111.695    1249.775    1706.128
      68.770   281.27365   1273.8483     6.30810    5510.000    1064.962    1105.545    1252.697    1703.151
      68.780   281.01317   1270.4750     6.29980    5568.520    1076.956    1099.395    1255.619    1700.175
      68.790   280.99706   1266.6656     6.31592    5618.665    1089.700    1093.017    1256.517    1697.199
      68.800   281.22181   1262.4110     6.33203    5668.810    1102.445    1086.639    1257.415    1694.223
      68.810   281.67153   1257.7039     6.32764    5708.890    1114.009    1082.502    1260.282    1691.246
      68.820   282.31927   1252.5410     6.32324    5748.970    1125.573    1078.365    1263.150    1688.270
      68.830   283.12896   1246.9249     6.32861    5778.710    1135.322    1077.393    1260.488    1706.426
      68.840   284.05798   1240.8658     6.33398    5808.450    1145.071    1076.422    1257.825    1682.318
      68.850   285.06028   1234.3831     6.32861    5831.440    1150.768    1073.589    1260.840    1679.341
      68.860   286.08955   1227.5062     6.32324    5854.430    1156.465    1070.756    1263.855    1676.365
      68.870   287.10207   1220.2751     6.31738    5874.680    1158.079    1068.557    1267.346    1673.389
      68.880   288.05931   1212.7404     6.31152    5894.930    1159.693    1066.359    1270.836    1670.413
      68.890   288.92995   1204.9634     6.31836    5914.845    1158.768    1069.811    1277.857    1667.436
      68.900   289.69150   1197.0155     6.32520    5934.760    1157.843    1073.264    1284.877    1664.460
      68.910   290.33146   1188.9769     6.32081    5948.605    1156.124    1079.402    1287.254    1661.484
      68.920   290.84776   1180.9368     6.31641    5962.450    1154.406    1085.540    1289.630    1658.508
      68.930   291.24865   1172.9912     6.31006    5946.110    1153.512    1090.428    1295.726    1655.532
      68.940   291.55176   1165.2421     6.30371    5929.770    1152.618    1095.316    1301.821    1652.555
      68.950   291.78234   1157.7960     6.30957    5882.055    1150.543    1099.693    1309.186    1649.579
      68.960   291.97064   1150.7619     6.31543    5834.340    1148.469    1104.070    1316.551    1646.603
      68.970   292.14877   1144.2494     6.32275    5782.370    1147.180    1111.118    1311.644    1643.627
      68.980   292.34705   1138.3667     6.33008    5730.400    1145.891    1118.165    1306.736    1640.650
      68.990   292.59066   1133.2184     6.32324    5693.355    1148.794    1121.947    1306.241    1637.674
      69.000   292.89708   1128.9030     6.31641    5656.310    1151.697    1125.728    1305.746    1634.698
      69.010   293.27500   1125.5106     6.32422    5638.455    1156.960    1128.963    1301.020    1631.722
      69.020   293.72480   1123.1210     6.33203    5620.600    1162.224    1132.199    1296.295    1628.745
      69.030   294.24020   1121.8008     6.32129    5611.130    1166.887    1132.539    1291.832    1625.769
      69.040   294.81018   1121.6021     6.31055    5601.660    1171.551    1132.880    1287.370    1622.793
      69.050   295.42074   1122.5602     6.32813    5589.630    1175.777    1136.862    1276.293    1619.817
      69.060   296.05580   1124.6921     6.34570    5577.600    1180.003    1140.845    1265.217    1616.841
      69.070   296.69754   1127.9958     6.33740    5574.360    1185.921    1144.850    1258.823    1613.864
      69.080   297.32656   1132.4493     6.32910    5571.120    1191.838    1148.856    1257.593    1610.888
      69.090   297.92224   1138.0114     6.33399    5589.005    1197.055    1154.228    1256.362    1607.912
      69.100   298.46356   1144.6227     6.33887    5606.890    1202.272    1159.600    1255.131    1604.936
      69.110   298.93012   1152.2067     6.32373    5638.915    1208.167    1161.113    1253.901    1601.959
      69.120   299.30336   1160.6721     6.30859    5670.940    1214.061    1162.626    1252.670    1598.983
      69.130   299.56762   1169.9151     6.32617    5713.590    1218.067    1164.646    1251.439    1596.007
      69.140   299.71120   1179.8211     6.34375    5756.240    1222.072    1166.667    1250.209    1593.031
      69.150   299.72739   1190.2680     6.34229    5802.230    1228.021    1167.506    1248.978    1590.054
      69.160   299.61561   1201.1279     6.34082    5848.220    1233.969    1168.346    1247.747    1587.078
      69.170   299.38232   1212.2701     6.33643    5882.535    1238.958    1160.892    1246.517    1584.102
      69.180   299.04158   1223.5629     6.33203    5916.850    1243.946    1153.438    1245.286    1581.126
      69.190   298.61484   1234.8766     6.33642    5915.925    1247.581    1149.061    1244.055    1578.149
