~VERSION INFORMATION SECTION
VERS.           2.0  :CWLS Log ASCII Standard - 2.0
WRAP.           NO   :One line per depth
#               Created in SeisLab
~WELL INFORMATION SECTION
#MNEM.UNIT  VALUE/NAME               :DESCRIPTION    
STRT.m  10                           :Start Depth    
STOP.m  124                          :Stop Depth     
STEP.m  0.01                         :Step           
NULL.    -999.25                     :Null Value     
WELL.    GDP1                        :Well Name      
CTRY.    Switzerland                 :Country        
CNTY.                                :County         
STAT.    Central Swiss Alps          :State          
API .                                :API number     
UWI .                                :Unique well ID 
LOC .    Grimsel pass, Switzerland   :Well Location  
FLD .    n/a                         :Field          
COMP.    n/a                         :Company        
SRVC.    University of Lausanne      :Service Company
DATE.    2015                        :Date           
~PARAMETER INFORMATION SECTION
#MNEM .UNITS    VALUE   :DESCRIPTION OF PARAMETER
Casing.n/a      0       :open hole               
Mud   .Polymer  1       :Mud type                
~CURVE INFORMATION SECTION
#MNEM.UNITS  API CODES   :DESCRIPTION OF MNEMONIC      
depth.m                  :measured depth (interpolated)
Cal  .mm                 :Caliper                      
NN   .cps                :Neutron-Neutron              
GG   .cps                :Gamma-Gamma                  
~A depth       Cal         NN          GG          
# ...
      93.640   100.27215    497.5651   1158.7855
      93.650   100.27150    505.0895   1160.2140
      93.660   100.27215    514.9056   1140.7625
      93.670   100.27280    524.7217   1121.3110
      93.680   100.27280    502.0235   1120.9368
      93.690   100.27280    479.3475   1120.5707
      93.700   100.27310    478.8460   1128.2518
      93.710   100.27340    478.3445   1135.9330
      93.720   100.27405    493.3629   1150.4300
      93.730   100.27470    508.3813   1164.9270
      93.740   100.27420    498.0131   1159.1550
      93.750   100.27370    487.6448   1153.3830
      93.760   100.27420    480.7017   1146.6015
      93.770   100.27470    473.7586   1139.8200
      93.780   100.27455    469.6364   1145.3095
      93.790   100.27440    465.5143   1150.7990
      93.800   100.27475    463.8413   1156.2880
      93.810   100.27510    462.1682   1161.7770
      93.820   100.27445    467.6362   1171.9741
      93.830   100.27380    473.1090   1182.1833
      93.840   100.27395    483.3237   1204.5327
      93.850   100.27410    493.5383   1226.8820
      93.860   100.27440    491.9072   1197.1070
      93.870   100.27470    490.2761   1167.3320
      93.880   100.27560    482.1001   1134.6110
      93.890   100.27650    473.9241   1101.8900
      93.900   100.27655    461.9471   1099.9135
      93.910   100.27660    449.9701   1097.9370
      93.920   100.27660    456.9755   1094.6130
      93.930   100.27660    463.9809   1091.2890
      93.940   100.27760    459.4861   1088.2945
      93.950   100.27860    454.9913   1085.3000
      93.960   100.27600    443.8562   1084.1440
      93.970   100.27340    432.7211   1082.9880
      93.980   100.27280    455.3704   1108.3470
      93.990   100.27220    478.0197   1133.7060
      94.000   100.27115    482.8616   1155.8926
      94.010   100.27010    487.6900   1178.0515
      94.020   100.26890    478.9638   1172.5042
      94.030   100.26770    470.2377   1166.9570
      94.040   100.26770    465.5407   1150.0900
      94.050   100.26770    460.8437   1133.2230
      94.060   100.26835    455.6663   1117.4900
      94.070   100.26900    450.4890   1101.7570
      94.080   100.26860    446.0426   1097.2995
      94.090   100.26820    441.5962   1092.8420
      94.100   100.26765    453.5346   1080.2600
      94.110   100.26710    465.4730   1067.6780
      94.120   100.27005    465.5500   1060.3245
      94.130   100.27300    465.6270   1052.9710
      94.140   100.27760    456.8689   1065.0875
      94.150   100.28220    448.1107   1077.2040
      94.160   100.30475    444.8068   1044.2405
      94.170   100.32730    441.5029   1011.2770
      94.180   100.34301    442.3479    984.5750
      94.190   100.35870    443.1981    957.9223
      94.200   100.36350    449.1573    980.4991
      94.210   100.36830    455.1166   1003.0760
      94.220   100.36925    489.2542    988.4613
      94.230   100.37020    523.3918    973.8466
      94.240   100.37115    531.2619    954.7363
      94.250   100.37210    539.1321    935.6259
      94.260   100.37505    526.7977    932.2534
      94.270   100.37800    514.4633    928.8809
      94.280   100.46270    505.0347    920.7603
      94.290   100.54740    495.6061    912.6397
      94.300   101.05320    494.6922    908.0195
      94.310   101.55900    493.7782    903.3993
      94.320   101.39467    499.5662    911.3101
      94.330   101.23060    505.3556    919.1988
      94.340   101.33280    512.5772    905.1193
      94.350   101.43500    519.7988    891.0398
      94.360   101.66935    527.5581    877.0675
      94.370   101.90370    535.3173    863.0952
      94.380   102.11510    542.5082    865.5837
      94.390   102.32650    549.6992    868.0723
      94.400   102.65310    542.1744    883.1256
      94.410   102.97970    534.6496    898.1788
      94.420   102.88505    537.9253    902.4034
      94.430   102.79040    541.2010    906.6279
      94.440   102.76560    550.8699    873.5970
      94.450   102.74080    560.5389    840.5660
      94.460   103.05515    540.5746    846.8059
      94.470   103.36950    520.6103    853.0457
      94.480   103.29175    510.0740    862.8755
      94.490   103.21400    499.5378    872.7053
      94.500   103.72596    496.7921    862.9806
      94.510   104.23830    494.0536    853.2788
      94.520   105.13375    498.5600    866.4228
      94.530   106.02920    503.0663    879.5667
      94.540   105.27185    517.1533    889.6947
      94.550   104.51450    531.2404    899.8228
      94.560   103.51985    550.2299    885.3520
      94.570   102.52520    569.2193    870.8813
      94.580   101.79085    550.2571    874.8890
      94.590   101.05650    531.2950    878.8967
      94.600   100.72325    523.1584    886.3031
      94.610   100.39000    515.0217    893.7095
      94.620   100.39100    515.5055    896.3481
      94.630   100.39200    515.9892    898.9866
      94.640   100.39515    519.5965    900.7610
      94.650   100.39830    523.2037    902.5354
      94.660   100.40245    520.5194    904.0634
      94.670   100.40660    517.8350    905.5915
      94.680   100.40950    510.8772    907.1203
      94.690   100.41241    503.9285    908.6491
      94.700   100.41870    506.0476    910.1770
      94.710   100.42500    508.1666    911.7049
      94.720   100.44320    505.7400    916.8330
      94.730   100.46140    503.3134    921.9612
      94.740   100.43850    497.5001    936.4030
      94.750   100.41560    491.6867    950.8448
      94.760   100.40825    487.9882    944.9670
      94.770   100.40090    484.2897    939.0891
      94.780   100.40090    486.2746    930.7985
      94.790   100.40090    488.2595    922.5078
      94.800   100.39960    493.6513    922.9202
      94.810   100.39830    499.0432    923.3326
      94.820   100.39790    489.4813    917.9525
      94.830   100.39750    479.9293    912.5659
      94.840   100.39935    480.3435    900.7009
      94.850   100.40120    480.7576    888.8358
      94.860   100.40165    488.3711    864.4391
      94.870   100.40210    495.9846    840.0424
      94.880   100.40240    495.5206    830.7838
      94.890   100.40270    495.0565    821.5251
      94.900   100.40590    489.2712    824.3946
      94.910   100.40910    483.4860    827.2640
      94.920   100.44705    474.8032    850.3707
      94.930   100.48500    466.1205    873.4774
      94.940   100.58025    475.9088    854.7149
      94.950   100.67550    485.6971    835.9523
      94.960   100.77485    489.9935    810.7584
      94.970   100.87420    494.2898    785.5646
      94.980   100.90265    494.7666    774.4724
      94.990   100.93110    495.2434    763.3803
      95.000   101.05726    502.3830    762.9423
      95.010   101.18347    509.5197    762.5065
      95.020   101.35734    513.8131    764.3090
      95.030   101.53120    518.1066    766.1114
      95.040   102.08175    520.8129    765.8776
      95.050   102.63230    523.5193    765.6437
      95.060   104.50140    535.4421    755.3361
      95.070   106.37050    547.3649    745.0286
      95.080   109.08985    558.1377    735.2297
      95.090   111.80920    568.9104    725.4308
      95.100   115.25700    578.5122    724.3313
      95.110   118.70480    588.1141    723.2318
      95.120   122.46985    593.4556    702.8175
      95.130   126.23490    598.7970    682.4033
      95.140   129.45725    609.9713    662.5730
      95.150   132.67960    621.1455    642.7427
      95.160   128.33725    636.2035    638.6492
      95.170   123.99490    651.2615    634.5557
      95.180   118.75533    656.8328    633.2070
      95.190   113.51978    662.4000    631.8571
      95.200   112.29824    663.7883    629.3106
      95.210   111.07670    665.1766    626.7642
      95.220   111.71255    662.7494    619.0986
      95.230   112.34840    660.3221    611.4330
      95.240   113.20135    649.4030    612.2984
      95.250   114.05430    638.4838    613.1639
      95.260   115.59890    639.5937    611.4699
      95.270   117.14350    640.7037    609.7759
