~VERSION INFORMATION SECTION
VERS.           2.0  :CWLS Log ASCII Standard - 2.0
WRAP.           NO   :One line per depth
#               Created in SeisLab
~WELL INFORMATION SECTION
#MNEM.UNIT  VALUE/NAME               :DESCRIPTION    
STRT.m  10                           :Start Depth    
STOP.m  125                          :Stop Depth     
STEP.m  0.01                         :Step           
NULL.    -999.25                     :Null Value     
WELL.    GDP1                        :Well Name      
CTRY.    Switzerland                 :Country        
CNTY.                                :County         
STAT.    Central Swiss Alps          :State          
API .                                :API number     
UWI .                                :Unique well ID 
LOC .    Grimsel Pass, Switzerland   :Well Location  
FLD .    n/a                         :Field          
COMP.    n/a                         :Company        
SRVC.    University of Lausanne      :Service Company
DATE.    2015                        :Date           
~PARAMETER INFORMATION SECTION
#MNEM .UNITS    VALUE   :DESCRIPTION OF PARAMETER
Casing.n/a      0       :open hole               
Mud   .Polymer  1       :Mud type                
~CURVE INFORMATION SECTION
#MNEM.UNITS  API CODES   :DESCRIPTION OF MNEMONIC
depth.m                  :measured depth         
NG   .cps                :Natural gamma          
Sp   .mV                 :Self potential         
Temp .DegC               :Temperature            
SPR  .Ohm                :Single point resistance
R8   .Ohm.m              :Normal resistivity     
R16  .Ohm.m              :Single point resistance
R32  .Ohm.m              :Normal resistivity     
R64  .Ohm.m              :Normal resistivity     
~A depth       NG          Sp          Temp        SPR         R8          R16         R32         R64         
# ...
      70.680   203.66477    522.0467    10.67870    3069.398     750.287    1012.995    1395.294    1382.308
      70.690   202.77681    521.6777    10.68550    3084.002     750.263    1013.451    1388.988    1373.217
      70.700   201.92780    521.3120    10.67185    3103.414     750.267    1013.497    1381.789    1364.156
      70.710   201.12391    520.9269    10.65820    3127.632     750.287    1013.112    1373.730    1355.175
      70.720   200.37093    520.5060    10.67285    3156.614     750.314    1012.280    1364.850    1346.324
      70.730   199.67423    520.0391    10.68750    3190.274     750.337    1010.986    1355.193    1337.658
      70.740   199.03857    519.5219    10.69190    3228.484     750.343    1009.218    1344.807    1329.228
      70.750   198.46809    518.9544    10.69630    3271.075     750.319    1006.966    1333.745    1321.090
      70.760   197.96624    518.3398    10.70070    3317.836     750.252    1004.223    1322.064    1313.298
      70.770   197.53576    517.6836    10.70510    3368.516     750.129    1000.986    1309.822    1305.905
      70.780   197.17864    516.9932    10.70607    3422.825     749.936     997.254    1297.084    1298.967
      70.790   196.89606    516.2793    10.70705    3480.437     749.657     993.030    1283.915    1292.536
      70.800   196.68828    515.5560    10.70802    3540.992     749.281     988.319    1270.383    1286.667
      70.810   196.55458    514.8428    10.70900    3604.094     748.791     983.130    1256.556    1281.411
      70.820   196.49313    514.1654    10.73245    3669.323     748.176     977.476    1242.506    1276.819
      70.830   196.50098    513.5560    10.75590    3736.227     747.422     971.374    1228.303    1272.941
      70.840   196.57413    513.0522    10.71095    3804.336     746.516     964.841    1214.019    1269.824
      70.850   196.70758    512.6953    10.66600    3873.157     745.447     957.900    1199.724    1267.514
      70.860   196.89562    512.5264    10.66115    3942.184     744.204     950.577    1185.487    1266.054
      70.870   197.13209    512.5832    10.65630    4010.899     742.778     942.899    1171.379    1265.484
      70.880   197.41068    512.8955    10.67680    4078.774     741.160     934.897    1157.465    1265.841
      70.890   197.72525    513.4827    10.69730    4145.282     739.342     926.605    1143.809    1267.159
      70.900   198.07009    514.3518    10.69825    4209.894     737.319     918.060    1130.474    1269.467
      70.910   198.44012    515.4958    10.69920    4272.090     735.086     909.298    1117.519    1272.791
      70.920   198.83097    516.8946    10.67675    4331.357     732.639     900.360    1104.999    1277.152
      70.930   199.23913    518.5161    10.65430    4387.199     729.979     891.287    1092.966    1282.567
      70.940   199.66191    520.3181    10.67580    4439.136     727.103     882.122    1081.468    1289.046
      70.950   200.09746    522.2516    10.69730    4486.713     724.015     872.909    1070.548    1296.595
      70.960   200.54467    524.2640    10.67970    4529.502     720.717     863.691    1060.246    1305.215
      70.970   201.00314    526.3029    10.66210    4567.102     717.214     854.515    1050.595    1314.899
      70.980   201.47309    528.3200    10.68260    4599.150     713.512     845.424    1041.626    1325.637
      70.990   201.95533    530.2731    10.70310    4625.317     709.619     836.463    1033.364    1337.410
      71.000   202.45125    532.1278    10.69825    4645.316     705.544     827.675    1025.828    1350.194
      71.010   202.96262    533.8569    10.69340    4658.902     701.299     819.103    1019.034    1363.957
      71.020   203.49142    535.4386    10.68750    4665.872     696.894     810.789    1012.991    1378.663
      71.030   204.03962    536.8536    10.68160    4666.072     692.343     802.771    1007.704    1394.268
      71.040   204.60892    538.0823    10.66895    4659.394     687.660     795.088    1003.173    1410.721
      71.050   205.20055    539.1024    10.65630    4645.779     682.861     787.775     999.395    1427.965
      71.060   205.81504    539.8876    10.66410    4625.217     677.961     780.864     996.358    1445.938
      71.070   206.45211    540.4070    10.67190    4597.746     672.976     774.386     994.051    1464.569
      71.080   207.11058    540.6266    10.68750    4563.452     667.926     768.367     992.455    1483.785
      71.090   207.78839    540.5110    10.70310    4522.469     662.825     762.831     991.547    1503.503
      71.100   208.48273    540.0263    10.68165    4474.976     657.694     757.799     991.303    1523.639
      71.110   209.19020    539.1432    10.66020    4421.199     652.549     753.287     991.692    1544.102
      71.120   209.90707    537.8405    10.66410    4361.403     647.410     749.308     992.682    1564.796
      71.130   210.62947    536.1074    10.66800    4295.893     642.292     745.871     994.237    1585.623
      71.140   211.35358    533.9452    10.65625    4225.014     637.215     742.982     996.320    1606.480
      71.150   212.07581    531.3693    10.64450    4149.141     632.195     740.642     998.888    1627.264
      71.160   212.79289    528.4089    10.65235    4068.681     627.248     738.849    1001.901    1647.866
      71.170   213.50192    525.1073    10.66020    3984.069     622.391     737.597    1005.313    1668.179
      71.180   214.20050    521.5208    10.66020    3895.761     617.638     736.876    1009.078    1688.095
      71.190   214.88684    517.7171    10.66020    3804.234     613.003     736.671    1013.150    1707.504
      71.200   215.55979    513.7734    10.68655    3709.979     608.500     736.967    1017.482    1726.299
      71.210   216.21882    509.7736    10.71290    3613.498     604.139     737.742    1022.025    1744.374
      71.220   216.86413    505.8049    10.69922    3515.302     599.933     738.973    1026.732    1761.625
      71.230   217.49660    501.9538    10.68555    3415.903     595.891     740.633    1031.556    1777.951
      71.240   218.11785    498.3028    10.67187    3315.814     592.021     742.692    1036.449    1793.257
      71.250   218.73012    494.9255    10.65820    3215.542     588.331     745.118    1041.366    1807.451
      71.260   219.33626    491.8831    10.69240    3115.585     584.825     747.877    1046.261    1820.446
      71.270   219.93958    489.2212    10.72660    3016.432     581.510     750.933    1051.092    1832.163
      71.280   220.54374    486.9677    10.71585    2918.555     578.388     754.247    1055.816    1842.527
      71.290   221.15265    485.1322    10.70510    2822.407     575.461     757.780    1060.393    1851.474
      71.300   221.77031    483.7060    10.68750    2728.422     572.730     761.492    1064.786    1858.945
      71.310   222.40061    482.6642    10.66990    2637.009     570.194     765.340    1068.958    1864.892
      71.320   223.04712    481.9686    10.67090    2548.551     567.853     769.283    1072.878    1869.273
      71.330   223.71284    481.5701    10.67190    2463.404     565.703     773.279    1076.513    1872.058
      71.340   224.39996    481.4135    10.69335    2381.895     563.740     777.287    1079.837    1873.225
      71.350   225.10980    481.4407    10.71480    2304.318     561.959     781.265    1082.823    1872.762
      71.360   225.84274    481.5958    10.68160    2230.936     560.355     785.172    1085.449    1870.668
      71.370   226.59831    481.8291    10.64840    2161.981     558.921     788.969    1087.696    1866.951
      71.380   227.37529    482.1015    10.66405    2097.649     557.649     792.617    1089.547    1861.630
      71.390   228.17183    482.3878    10.67970    2038.102     556.531     796.082    1090.988    1854.733
      71.400   228.98554    482.6787    10.68850    1983.472     555.558     799.328    1092.010    1846.297
      71.410   229.81350    482.9817    10.69730    1933.855     554.719     802.322    1092.602    1836.371
