~VERSION INFORMATION SECTION
VERS.           2.0  :CWLS Log ASCII Standard - 2.0
WRAP.           NO   :One line per depth
#               Created in SeisLab
~WELL INFORMATION SECTION
#MNEM.UNIT  VALUE/NAME               :DESCRIPTION    
STRT.m  10                           :Start Depth    
STOP.m  124                          :Stop Depth     
STEP.m  0.01                         :Step           
NULL.    -999.25                     :Null Value     
WELL.    GDP1                        :Well Name      
CTRY.    Switzerland                 :Country        
CNTY.                                :County         
STAT.    Central Swiss Alps          :State          
API .                                :API number     
UWI .                                :Unique well ID 
LOC .    Grimsel pass, Switzerland   :Well Location  
FLD .    n/a                         :Field          
COMP.    n/a                         :Company        
SRVC.    University of Lausanne      :Service Company
DATE.    2015/2016                   :Date           
~PARAMETER INFORMATION SECTION
#MNEM .UNITS  VALUE   :DESCRIPTION OF PARAMETER
Casing.n/a    0       :open hole/cased hole    
~CURVE INFORMATION SECTION
#MNEM       .UNITS  API CODES   :DESCRIPTION OF MNEMONIC      
depth       .m                  :measured depth (interpolated)
BHR velocity.m/ns               :BHR velocity 2015            
BHR velocity.m/ns               :BHR velocity 2016            
~A depth       BHR_velocity BHR_velocity
# ...
      55.570     0.11700     0.11687
      55.580     0.11699     0.11689
      55.590     0.11698     0.11691
      55.600     0.11696     0.11693
      55.610     0.11695     0.11695
      55.620     0.11694     0.11693
      55.630     0.11693     0.11691
      55.640     0.11692     0.11689
      55.650     0.11691     0.11687
      55.660     0.11689     0.11685
      55.670     0.11688     0.11685
      55.680     0.11687     0.11685
      55.690     0.11686     0.11685
      55.700     0.11684     0.11685
      55.710     0.11681     0.11685
      55.720     0.11678     0.11687
      55.730     0.11674     0.11689
      55.740     0.11671     0.11691
      55.750     0.11667     0.11693
      55.760     0.11664     0.11695
      55.770     0.11660     0.11691
      55.780     0.11657     0.11687
      55.790     0.11653     0.11683
      55.800     0.11648     0.11678
      55.810     0.11644     0.11674
      55.820     0.11639     0.11680
      55.830     0.11634     0.11687
      55.840     0.11629     0.11693
      55.850     0.11623     0.11699
      55.860     0.11618     0.11705
      55.870     0.11614     0.11701
      55.880     0.11610     0.11697
      55.890     0.11607     0.11693
      55.900     0.11598     0.11689
      55.910     0.11590     0.11685
      55.920     0.11586     0.11683
      55.930     0.11581     0.11680
      55.940     0.11574     0.11678
      55.950     0.11567     0.11676
      55.960     0.11560     0.11674
      55.970     0.11553     0.11664
      55.980     0.11547     0.11654
      55.990     0.11540     0.11644
      56.000     0.11535     0.11634
      56.010     0.11531     0.11624
      56.020     0.11528     0.11620
      56.030     0.11526     0.11616
      56.040     0.11521     0.11612
      56.050     0.11517     0.11608
      56.060     0.11518     0.11604
      56.070     0.11519     0.11600
      56.080     0.11516     0.11596
      56.090     0.11512     0.11592
      56.100     0.11512     0.11588
      56.110     0.11512     0.11584
      56.120     0.11510     0.11582
      56.130     0.11508     0.11580
      56.140     0.11507     0.11578
      56.150     0.11505     0.11576
      56.160     0.11503     0.11574
      56.170     0.11501     0.11568
      56.180     0.11503     0.11562
      56.190     0.11505     0.11556
      56.200     0.11503     0.11550
      56.210     0.11501     0.11544
      56.220     0.11500     0.11544
      56.230     0.11499     0.11544
      56.240     0.11503     0.11544
      56.250     0.11508     0.11544
      56.260     0.11507     0.11544
      56.270     0.11505     0.11548
      56.280     0.11505     0.11552
      56.290     0.11505     0.11556
      56.300     0.11510     0.11560
      56.310     0.11515     0.11564
      56.320     0.11515     0.11568
      56.330     0.11515     0.11572
      56.340     0.11511     0.11576
      56.350     0.11508     0.11580
      56.360     0.11511     0.11584
      56.370     0.11515     0.11590
      56.380     0.11517     0.11596
      56.390     0.11519     0.11602
      56.400     0.11517     0.11608
      56.410     0.11515     0.11614
      56.420     0.11518     0.11612
      56.430     0.11521     0.11610
      56.440     0.11524     0.11608
      56.450     0.11526     0.11606
      56.460     0.11526     0.11604
      56.470     0.11526     0.11606
      56.480     0.11525     0.11608
      56.490     0.11524     0.11610
      56.500     0.11526     0.11612
      56.510     0.11528     0.11614
      56.520     0.11528     0.11614
      56.530     0.11528     0.11614
      56.540     0.11528     0.11614
      56.550     0.11528     0.11614
      56.560     0.11528     0.11614
      56.570     0.11528     0.11614
      56.580     0.11526     0.11614
      56.590     0.11524     0.11614
      56.600     0.11525     0.11614
      56.610     0.11526     0.11614
      56.620     0.11526     0.11614
      56.630     0.11526     0.11614
      56.640     0.11527     0.11614
      56.650     0.11528     0.11614
      56.660     0.11529     0.11614
      56.670     0.11531     0.11616
      56.680     0.11529     0.11618
      56.690     0.11528     0.11620
      56.700     0.11527     0.11622
      56.710     0.11526     0.11624
      56.720     0.11526     0.11618
      56.730     0.11526     0.11612
      56.740     0.11527     0.11606
      56.750     0.11528     0.11600
      56.760     0.11529     0.11594
      56.770     0.11531     0.11598
      56.780     0.11534     0.11602
      56.790     0.11537     0.11606
      56.800     0.11539     0.11610
      56.810     0.11540     0.11614
      56.820     0.11542     0.11612
      56.830     0.11544     0.11610
      56.840     0.11544     0.11608
      56.850     0.11544     0.11606
      56.860     0.11541     0.11604
      56.870     0.11537     0.11606
      56.880     0.11537     0.11608
      56.890     0.11537     0.11610
      56.900     0.11536     0.11612
      56.910     0.11535     0.11614
      56.920     0.11532     0.11608
      56.930     0.11528     0.11602
      56.940     0.11521     0.11596
      56.950     0.11515     0.11590
      56.960     0.11512     0.11584
      56.970     0.11510     0.11586
      56.980     0.11508     0.11588
      56.990     0.11505     0.11590
      57.000     0.11500     0.11592
      57.010     0.11494     0.11594
      57.020     0.11490     0.11594
      57.030     0.11485     0.11594
      57.040     0.11486     0.11594
      57.050     0.11487     0.11594
      57.060     0.11483     0.11594
      57.070     0.11478     0.11592
      57.080     0.11474     0.11590
      57.090     0.11469     0.11588
      57.100     0.11466     0.11586
      57.110     0.11462     0.11584
      57.120     0.11459     0.11582
      57.130     0.11456     0.11580
      57.140     0.11450     0.11578
      57.150     0.11444     0.11576
      57.160     0.11442     0.11574
      57.170     0.11440     0.11574
      57.180     0.11436     0.11574
      57.190     0.11433     0.11574
      57.200     0.11432     0.11574
      57.210     0.11431     0.11574
      57.220     0.11428     0.11566
      57.230     0.11426     0.11558
      57.240     0.11424     0.11550
      57.250     0.11422     0.11542
      57.260     0.11420     0.11534
      57.270     0.11417     0.11526
      57.280     0.11415     0.11518
      57.290     0.11413     0.11510
      57.300     0.11409     0.11502
      57.310     0.11406     0.11495
      57.320     0.11405     0.11491
      57.330     0.11404     0.11487
      57.340     0.11405     0.11483
      57.350     0.11406     0.11479
      57.360     0.11406     0.11475
      57.370     0.11406     0.11479
      57.380     0.11406     0.11483
      57.390     0.11406     0.11487
      57.400     0.11406     0.11491
      57.410     0.11406     0.11495
      57.420     0.11406     0.11500
      57.430     0.11406     0.11506
      57.440     0.11406     0.11512
      57.450     0.11406     0.11518
      57.460     0.11406     0.11524
      57.470     0.11406     0.11522
      57.480     0.11407     0.11520
      57.490     0.11408     0.11518
      57.500     0.11411     0.11516
      57.510     0.11413     0.11514
      57.520     0.11413     0.11512
      57.530     0.11413     0.11510
      57.540     0.11411     0.11508
      57.550     0.11408     0.11506
      57.560     0.11408     0.11504
      57.570     0.11408     0.11506
      57.580     0.11406     0.11508
      57.590     0.11404     0.11510
      57.600     0.11402     0.11512
      57.610     0.11399     0.11514
      57.620     0.11398     0.11512
      57.630     0.11397     0.11510
      57.640     0.11398     0.11508
      57.650     0.11399     0.11506
      57.660     0.11398     0.11504
      57.670     0.11397     0.11512
      57.680     0.11398     0.11520
      57.690     0.11399     0.11528
      57.700     0.11399     0.11536
      57.710     0.11399     0.11544
      57.720     0.11403     0.11546
      57.730     0.11406     0.11548
