~VERSION INFORMATION SECTION
VERS.           2.0  :CWLS Log ASCII Standard - 2.0
WRAP.           NO   :One line per depth
#               Created in SeisLab
~WELL INFORMATION SECTION
#MNEM.UNIT  VALUE/NAME               :DESCRIPTION    
STRT.m  10                           :Start Depth    
STOP.m  124                          :Stop Depth     
STEP.m  0.01                         :Step           
NULL.    -999.25                     :Null Value     
WELL.    GDP1                        :Well Name      
CTRY.    Switzerland                 :Country        
CNTY.                                :County         
STAT.    Central Swiss Alps          :State          
API .                                :API number     
UWI .                                :Unique well ID 
LOC .    Grimsel pass, Switzerland   :Well Location  
FLD .    n/a                         :Field          
COMP.    n/a                         :Company        
SRVC.    University of Lausanne      :Service Company
DATE.    2015                        :Date           
~PARAMETER INFORMATION SECTION
#MNEM .UNITS    VALUE   :DESCRIPTION OF PARAMETER
Casing.n/a      0       :open hole               
Mud   .Polymer  1       :Mud type                
~CURVE INFORMATION SECTION
#MNEM.UNITS  API CODES   :DESCRIPTION OF MNEMONIC      
depth.m                  :measured depth (interpolated)
Cal  .mm                 :Caliper                      
NN   .cps                :Neutron-Neutron              
GG   .cps                :Gamma-Gamma                  
~A depth       Cal         NN          GG          
# ...
     123.160    96.21854    481.3202   1229.9985
     123.170    96.21869    482.5023   1235.9210
     123.180    96.21857    490.5471   1234.9805
     123.190    96.21845    498.5919   1234.0400
     123.200    96.21733    501.8324   1229.0305
     123.210    96.21621    505.0729   1224.0210
     123.220    96.21648    510.7240   1214.8290
     123.230    96.21674    516.3752   1205.6370
     123.240    96.21648    522.1546   1188.6080
     123.250    96.21621    527.9341   1171.5790
     123.260    96.21635    507.7291   1186.1050
     123.270    96.21650    487.5242   1200.6310
     123.280    96.21652    480.8968   1214.5075
     123.290    96.21653    474.2694   1228.3840
     123.300    96.21604    477.6107   1217.4210
     123.310    96.21555    480.9520   1206.4580
     123.320    96.21539    475.6939   1195.4950
     123.330    96.21523    470.4357   1184.5320
     123.340    96.21488    473.9981   1176.6520
     123.350    96.21452    477.5605   1168.7720
     123.360    96.21486    486.8942   1168.8765
     123.370    96.21520    496.2280   1168.9810
     123.380    96.21522    489.5629   1148.0290
     123.390    96.21523    482.8977   1127.0770
     123.400    96.21539    476.9608   1118.3110
     123.410    96.21555    471.0240   1109.5450
     123.420    96.21506    465.9761   1147.7370
     123.430    96.21458    460.9282   1185.9290
     123.440    96.21421    460.7640   1187.7595
     123.450    96.21384    460.5998   1189.5900
     123.460    96.21373    469.9118   1184.0155
     123.470    96.21361    479.2238   1178.4410
     123.480    96.21345    494.2856   1180.3815
     123.490    96.21328    509.3473   1182.3220
     123.500    96.21408    500.3017   1163.0580
     123.510    96.21487    491.2562   1143.7940
     123.520    96.21375    490.9250   1131.9520
     123.530    96.21263    490.5937   1120.1100
     123.540    96.21261    496.1294   1143.0710
     123.550    96.21260    501.6651   1166.0320
     123.560    96.21189    493.8143   1149.7900
     123.570    96.21118    485.9635   1133.5480
     123.580    96.20902    487.7834   1117.4775
     123.590    96.20686    489.6032   1101.4070
     123.600    96.20616    498.3395   1114.5525
     123.610    96.20547    507.0758   1127.6980
     123.620    96.20466    507.0734   1122.3385
     123.630    96.20385    507.0711   1116.9790
     123.640    96.20336    514.1288   1118.8975
     123.650    96.20287    521.1865   1120.8160
     123.660    96.19698    532.4813   1155.1895
     123.670    96.19109    543.7761   1189.5630
     123.680    96.19204    536.4147   1182.7450
     123.690    96.19298    529.0533   1175.9270
     123.700    96.19767    521.6208   1162.6450
     123.710    96.20235    514.1883   1149.3630
     123.720    96.20340    507.8575   1149.6475
     123.730    96.20444    501.5267   -999.2500
     123.740    96.20951    512.3461   -999.2500
     123.750    96.21458    523.1656   -999.2500
     123.760    96.21744    520.6315   -999.2500
     123.770    96.22031    518.0974   -999.2500
     123.780    96.21627    505.9276   -999.2500
     123.790    96.21224    493.7578   -999.2500
     123.800    96.23219    492.3829   -999.2500
     123.810    96.25215    491.0079   -999.2500
     123.820    96.21890    493.1634   -999.2500
     123.830    96.18565    495.3189   -999.2500
     123.840    96.01587    499.9787   -999.2500
     123.850    95.84609    504.6384   -999.2500
     123.860    87.06149    505.7152   -999.2500
     123.870    78.27688    506.7921   -999.2500
     123.880    68.45857    503.4182   -999.2500
     123.890    58.64025    500.0442   -999.2500
     123.900    58.67583    496.2121   -999.2500
     123.910    58.71141    492.3801   -999.2500
     123.920    58.77631    533.1499   -999.2500
     123.930    58.84121    573.9197   -999.2500
     123.940    58.87611    569.0412   -999.2500
     123.950    58.91102    564.1626   -999.2500
     123.960    58.83324    525.9911   -999.2500
     123.970    58.75545    487.8195   -999.2500
     123.980    58.71126    480.9985   -999.2500
     123.990    58.66707    474.1775   -999.2500
     124.000    58.59078    492.6864   -999.2500
