~VERSION INFORMATION SECTION
VERS.           2.0  :CWLS Log ASCII Standard - 2.0
WRAP.           NO   :One line per depth
#               Created in SeisLab
~WELL INFORMATION SECTION
#MNEM.UNIT  VALUE/NAME               :DESCRIPTION    
STRT.m  10                           :Start Depth    
STOP.m  125                          :Stop Depth     
STEP.m  0.01                         :Step           
NULL.    -999.25                     :Null Value     
WELL.    GDP1                        :Well Name      
CTRY.    Switzerland                 :Country        
CNTY.                                :County         
STAT.    Central Swiss Alps          :State          
API .                                :API number     
UWI .                                :Unique well ID 
LOC .    Grimsel Pass, Switzerland   :Well Location  
FLD .    n/a                         :Field          
COMP.    n/a                         :Company        
SRVC.    University of Lausanne      :Service Company
DATE.    2016                        :Date           
~PARAMETER INFORMATION SECTION
#MNEM .UNITS  VALUE   :DESCRIPTION OF PARAMETER
Casing.n/a    1       :slotted PVC casing      
~CURVE INFORMATION SECTION
#MNEM.UNITS  API CODES   :DESCRIPTION OF MNEMONIC
depth.m                  :measured depth         
NG   .cps                :Natural gamma          
Sp   .mV                 :Self potential         
Temp .DegC               :Temperature            
SPR  .Ohm                :Single point resistance
R8   .Ohm.m              :Normal resistivity     
R16  .Ohm.m              :Single point resistance
R32  .Ohm.m              :Normal resistivity     
R64  .Ohm.m              :Normal resistivity     
~A depth       NG          Sp          Temp        SPR         R8          R16         R32         R64         
# ...
     108.420   294.30444   1000.8752     7.88412    7063.289    3481.470    3694.554    2897.930    2831.656
     108.430   296.56640   1002.9022     7.87760    7100.963    3541.930    3720.543    2890.567    2827.072
     108.440   298.84257   1005.0861     7.87109    7138.637    3602.390    3747.258    2884.399    2823.335
     108.450   301.08970   1007.4236     7.87923    7176.312    3714.344    3774.742    2879.598    2820.460
     108.460   303.26568   1009.9122     7.88737    7213.986    3826.298    3803.037    2876.335    2818.460
     108.470   305.33058   1012.5509     7.89551    7251.660    3938.252    3832.189    2874.774    2817.337
     108.480   307.24727   1015.3400     7.89209    7375.803    4007.536    3862.241    2875.080    2817.086
     108.490   308.98179   1018.2811     7.88868    7499.945    4076.820    3893.236    2877.410    2817.697
     108.500   310.50394   1021.3760     7.88526    7624.087    4146.104    3925.217    2881.916    2819.151
     108.510   311.78803   1024.6255     7.88184    7748.230    4215.388    3958.222    2888.744    2821.423
     108.520   312.81409   1028.0281     7.88347    7891.367    4285.513    3992.290    2898.030    2824.480
     108.530   313.56934   1031.5781     7.88509    8034.503    4355.638    4027.454    2909.902    2828.285
     108.540   314.04983   1035.2639     7.88672    8177.640    4425.763    4063.745    2924.478    2832.792
     108.550   314.26151   1039.0667     7.88346    8357.023    4541.982    4101.189    2941.862    2837.950
     108.560   314.22039   1042.9588     7.88021    8536.407    4658.201    4139.805    2962.151    2843.703
     108.570   313.95135   1046.9033     7.87695    8715.790    4774.420    4179.609    2985.423    2849.988
     108.580   313.48615   1050.8534     7.87793    8937.370    4914.555    4220.609    3011.747    2856.740
     108.590   312.86128   1054.7539     7.87890    9158.950    5054.689    4262.805    3041.174    2863.886
     108.600   312.11616   1058.5426     7.87988    9380.530    5194.823    4306.191    3073.741    2871.353
     108.610   311.29160   1062.1533     7.88737    9515.533    5264.128    4350.752    3109.469    2879.060
     108.620   310.42825   1065.5189     7.89485    9650.537    5333.432    4396.466    3148.362    2886.927
     108.630   309.56488   1068.5753     7.90234    9785.540    5402.737    4443.298    3190.408    2894.869
     108.640   308.73642   1071.2653     7.89030    9851.263    5415.232    4491.209    3235.577    2902.800
     108.650   307.97237   1073.5420     7.87825    9916.987    5427.728    4540.145    3283.823    2910.633
     108.660   307.29568   1075.3721     7.86621    9982.710    5440.223    4590.046    3335.080    2918.280
     108.670   306.72250   1076.7383     7.85791   10145.005    5550.241    4640.841    3389.269    2925.651
     108.680   306.26278   1077.6405     7.84961   10307.300    5660.259    4692.447    3446.291    2932.658
     108.690   305.92149   1078.0962     7.86328   10403.400    5712.641    4744.775    3506.033    2939.214
     108.700   305.70011   1078.1400     7.87696   10499.500    5765.022    4797.723    3568.363    2945.232
     108.710   305.59795   1077.8217     7.89063   10595.600    5817.404    4851.180    3633.136    2950.628
     108.720   305.61285   1077.2027     7.89160   10549.500    5806.619    4905.027    3700.193    2955.320
     108.730   305.74121   1076.3530     7.89258   10503.400    5795.834    4959.133    3769.360    2959.229
     108.740   305.97747   1075.3467     7.89355   10457.300    5785.049    5013.363    3840.452    2962.279
     108.750   306.31339   1074.2577     7.88574   10337.467    5746.133    5067.570    3913.273    2964.400
     108.760   306.73773   1073.1560     7.87793   10217.633    5707.217    5121.602    3987.614    2965.523
     108.770   307.23652   1072.1042     7.87012   10097.800    5668.301    5175.300    4063.261    2965.586
     108.780   307.79400   1071.1545     7.87468   10092.000    5658.422    5228.499    4139.992    2964.534
     108.790   308.39383   1070.3474     7.87923   10086.200    5648.543    5281.030    4217.580    2962.314
     108.800   309.02022   1069.7091     7.88379   10080.400    5638.663    5332.719    4295.791    2958.882
     108.810   309.65897   1069.2517     7.88151   10052.530    5671.709    5383.389    4374.394    2954.199
     108.820   310.29800   1068.9718     7.87923   10024.660    5704.756    5432.863    4453.154    2948.234
     108.830   310.92776   1068.8506     7.87695    9996.790    5737.802    5480.961    4531.838    2940.963
     108.840   311.54112   1068.8545     7.88086    9866.157    5708.187    5527.505    4610.216    2932.367
     108.850   312.13332   1068.9351     7.88476    9735.523    5678.573    5572.316    4688.063    2922.439
     108.860   312.70154   1069.0306     7.88867    9604.890    5648.958    5615.222    4765.161    2911.177
     108.870   313.24435   1069.0673     7.88574    9515.182    5614.631    5656.051    4841.299    2898.586
     108.880   313.76078   1068.9616     7.88281    9425.475    5580.305    5694.638    4916.276    2884.682
     108.890   314.24904   1068.6229     7.87988    9335.768    5545.978    5730.823    4989.902    2869.489
     108.900   314.70531   1067.9565     7.87695    9246.060    5511.652    5764.456    5061.999    2853.036
     108.910   315.12297   1066.8675     7.88639    9212.783    5505.893    5795.394    5132.403    2835.364
     108.920   315.49272   1065.2645     7.89583    9179.507    5500.134    5823.503    5200.965    2816.521
     108.930   315.80366   1063.0639     7.90527    9146.230    5494.375    5848.662    5267.551    2796.562
     108.940   316.04541   1060.1938     7.89811    9202.430    5557.183    5870.760    5332.042    2775.553
     108.950   316.21058   1056.5974     7.89095    9258.630    5619.991    5889.701    5394.338    2753.565
     108.960   316.29720   1052.2368     7.88379    9314.830    5682.799    5905.401    5454.355    2730.679
     108.970   316.31045   1047.0947     7.88542    9311.407    5660.050    5917.792    5512.025    2706.982
     108.980   316.26332   1041.1768     7.88704    9307.983    5637.301    5926.820    5567.301    2682.569
     108.990   316.17585   1034.5122     7.88867    9304.560    5614.552    5932.450    5620.149    2657.542
     109.000   316.07336   1027.1538     7.88867    9286.493    5621.761    5934.661    5670.552    2632.009
     109.010   315.98388   1019.1768     7.88867    9268.427    5628.970    5933.449    5718.512    2606.086
     109.020   315.93546   1010.6763     7.88867    9250.360    5636.179    5928.829    5764.042    2579.892
     109.030   315.95352   1001.7649     7.89095    9303.163    5611.825    5920.833    5807.171    2553.553
     109.040   316.05867    992.5676     7.89323    9355.967    5587.471    5909.512    5847.941    2527.200
     109.050   316.26507    983.2182     7.89551    9408.770    5563.117    5894.932    5886.406    2500.968
     109.060   316.57968    973.8535     7.90479    9577.160    5663.316    5877.179    5922.629    2474.996
     109.070   317.00245    964.6085     7.91406    9745.550    5763.515    5856.356    5956.680    2449.424
     109.080   317.52726    955.6116     7.91308    9723.193    5837.518    5832.582    5988.641    2424.397
     109.090   318.14344    946.9795     7.91211    9700.837    5911.521    5805.993    6018.593    2400.062
     109.100   318.83713    938.8137     7.91113    9678.480    5985.525    5776.742    6046.625    2376.565
     109.110   319.59236    931.1973     7.90592    9655.480    5900.355    5744.994    6072.827    2354.054
     109.120   320.39163    924.1929     7.90072    9632.480    5815.185    5710.931    6097.287    2332.676
     109.130   321.21606    917.8414     7.89551    9609.480    5730.015    5674.746    6120.092    2312.578
     109.140   322.04540    912.1621     7.90072    9575.043    5773.299    5636.647    6141.328    2293.906
     109.150   322.85814    907.1530     7.90592    9540.607    5816.583    5596.849    6161.072    2276.802
