~VERSION INFORMATION SECTION
VERS.           2.0  :CWLS Log ASCII Standard - 2.0
WRAP.           NO   :One line per depth
#               Created in SeisLab
~WELL INFORMATION SECTION
#MNEM.UNIT  VALUE/NAME               :DESCRIPTION    
STRT.m  10                           :Start Depth    
STOP.m  124                          :Stop Depth     
STEP.m  0.01                         :Step           
NULL.    -999.25                     :Null Value     
WELL.    GDP1                        :Well Name      
CTRY.    Switzerland                 :Country        
CNTY.                                :County         
STAT.    Central Swiss Alps          :State          
API .                                :API number     
UWI .                                :Unique well ID 
LOC .    Grimsel pass, Switzerland   :Well Location  
FLD .    n/a                         :Field          
COMP.    n/a                         :Company        
SRVC.    University of Lausanne      :Service Company
DATE.    2015/2016                   :Date           
~PARAMETER INFORMATION SECTION
#MNEM .UNITS  VALUE   :DESCRIPTION OF PARAMETER
Casing.n/a    0       :open hole/cased hole    
~CURVE INFORMATION SECTION
#MNEM       .UNITS  API CODES   :DESCRIPTION OF MNEMONIC      
depth       .m                  :measured depth (interpolated)
BHR velocity.m/ns               :BHR velocity 2015            
BHR velocity.m/ns               :BHR velocity 2016            
~A depth       BHR_velocity BHR_velocity
# ...
     103.310     0.11524     0.11604
     103.320     0.11524     0.11588
     103.330     0.11524     0.11572
     103.340     0.11525     0.11556
     103.350     0.11526     0.11540
     103.360     0.11525     0.11524
     103.370     0.11524     0.11522
     103.380     0.11524     0.11520
     103.390     0.11524     0.11518
     103.400     0.11526     0.11516
     103.410     0.11528     0.11514
     103.420     0.11529     0.11522
     103.430     0.11531     0.11530
     103.440     0.11534     0.11538
     103.450     0.11537     0.11546
     103.460     0.11543     0.11554
     103.470     0.11549     0.11562
     103.480     0.11555     0.11570
     103.490     0.11560     0.11578
     103.500     0.11566     0.11586
     103.510     0.11572     0.11594
     103.520     0.11579     0.11592
     103.530     0.11586     0.11590
     103.540     0.11589     0.11588
     103.550     0.11593     0.11586
     103.560     0.11593     0.11584
     103.570     0.11593     0.11584
     103.580     0.11590     0.11584
     103.590     0.11588     0.11584
     103.600     0.11586     0.11584
     103.610     0.11583     0.11584
     103.620     0.11576     0.11594
     103.630     0.11570     0.11604
     103.640     0.11564     0.11614
     103.650     0.11558     0.11624
     103.660     0.11556     0.11634
     103.670     0.11553     0.11634
     103.680     0.11549     0.11634
     103.690     0.11544     0.11634
     103.700     0.11536     0.11634
     103.710     0.11528     0.11634
     103.720     0.11524     0.11642
     103.730     0.11519     0.11650
     103.740     0.11513     0.11658
     103.750     0.11508     0.11666
     103.760     0.11499     0.11674
     103.770     0.11490     0.11666
     103.780     0.11483     0.11658
     103.790     0.11476     0.11650
     103.800     0.11469     0.11642
     103.810     0.11462     0.11634
     103.820     0.11452     0.11628
     103.830     0.11442     0.11622
     103.840     0.11432     0.11616
     103.850     0.11422     0.11610
     103.860     0.11414     0.11604
     103.870     0.11406     0.11596
     103.880     0.11397     0.11588
     103.890     0.11388     0.11580
     103.900     0.11376     0.11572
     103.910     0.11364     0.11564
     103.920     0.11354     0.11556
     103.930     0.11344     0.11548
     103.940     0.11333     0.11540
     103.950     0.11322     0.11532
     103.960     0.11307     0.11524
     103.970     0.11293     0.11520
     103.980     0.11281     0.11516
     103.990     0.11269     0.11512
     104.000     0.11260     0.11508
     104.010     0.11251     0.11504
     104.020     0.11244     0.11500
     104.030     0.11236     0.11496
     104.040     0.11229     0.11493
     104.050     0.11221     0.11489
     104.060     0.11218     0.11485
     104.070     0.11215     0.11475
     104.080     0.11212     0.11465
     104.090     0.11210     0.11455
     104.100     0.11211     0.11446
     104.110     0.11212     0.11436
     104.120     0.11218     0.11420
     104.130     0.11223     0.11405
     104.140     0.11228     0.11389
     104.150     0.11232     0.11374
     104.160     0.11234     0.11358
     104.170     0.11236     0.11349
     104.180     0.11235     0.11339
     104.190     0.11234     0.11330
     104.200     0.11233     0.11320
     104.210     0.11232     0.11311
     104.220     0.11226     0.11305
     104.230     0.11221     0.11299
     104.240     0.11219     0.11293
     104.250     0.11217     0.11288
     104.260     0.11218     0.11282
     104.270     0.11219     0.11286
     104.280     0.11220     0.11290
     104.290     0.11221     0.11293
     104.300     0.11221     0.11297
     104.310     0.11221     0.11301
     104.320     0.11223     0.11301
     104.330     0.11225     0.11301
     104.340     0.11225     0.11301
     104.350     0.11225     0.11301
     104.360     0.11225     0.11301
     104.370     0.11225     0.11295
     104.380     0.11228     0.11290
     104.390     0.11230     0.11284
     104.400     0.11232     0.11278
     104.410     0.11234     0.11273
     104.420     0.11233     0.11273
     104.430     0.11232     0.11273
     104.440     0.11233     0.11273
     104.450     0.11234     0.11273
     104.460     0.11234     0.11273
     104.470     0.11234     0.11278
     104.480     0.11234     0.11284
     104.490     0.11234     0.11290
     104.500     0.11234     0.11295
     104.510     0.11234     0.11301
     104.520     0.11235     0.11309
     104.530     0.11236     0.11316
     104.540     0.11238     0.11324
     104.550     0.11241     0.11332
     104.560     0.11243     0.11339
     104.570     0.11245     0.11341
     104.580     0.11248     0.11343
     104.590     0.11251     0.11345
     104.600     0.11255     0.11347
     104.610     0.11258     0.11349
     104.620     0.11261     0.11343
     104.630     0.11265     0.11337
     104.640     0.11268     0.11332
     104.650     0.11271     0.11326
     104.660     0.11274     0.11320
     104.670     0.11278     0.11320
     104.680     0.11278     0.11320
     104.690     0.11278     0.11320
     104.700     0.11277     0.11320
     104.710     0.11275     0.11320
     104.720     0.11277     0.11324
     104.730     0.11278     0.11328
     104.740     0.11277     0.11332
     104.750     0.11275     0.11335
     104.760     0.11277     0.11339
     104.770     0.11278     0.11339
     104.780     0.11279     0.11339
     104.790     0.11280     0.11339
     104.800     0.11282     0.11339
     104.810     0.11284     0.11339
     104.820     0.11286     0.11335
     104.830     0.11289     0.11332
     104.840     0.11290     0.11328
     104.850     0.11291     0.11324
     104.860     0.11292     0.11320
     104.870     0.11293     0.11320
     104.880     0.11296     0.11320
     104.890     0.11300     0.11320
     104.900     0.11305     0.11320
     104.910     0.11311     0.11320
     104.920     0.11314     0.11299
     104.930     0.11317     0.11278
     104.940     0.11323     0.11257
     104.950     0.11328     0.11237
     104.960     0.11333     0.11216
     104.970     0.11337     0.11199
     104.980     0.11339     0.11183
     104.990     0.11342     0.11166
     105.000     0.11342     0.11149
     105.010     0.11342     0.11132
     105.020     0.11345     0.11142
     105.030     0.11348     0.11151
     105.040     0.11351     0.11160
     105.050     0.11355     0.11169
     105.060     0.11356     0.11179
     105.070     0.11357     0.11183
     105.080     0.11361     0.11186
     105.090     0.11366     0.11190
     105.100     0.11370     0.11194
     105.110     0.11375     0.11197
     105.120     0.11376     0.11216
     105.130     0.11377     0.11235
     105.140     0.11379     0.11254
     105.150     0.11381     0.11273
     105.160     0.11385     0.11292
     105.170     0.11388     0.11303
     105.180     0.11389     0.11314
     105.190     0.11390     0.11326
     105.200     0.11393     0.11337
     105.210     0.11395     0.11349
     105.220     0.11394     0.11353
     105.230     0.11393     0.11356
     105.240     0.11392     0.11360
     105.250     0.11390     0.11364
     105.260     0.11389     0.11368
     105.270     0.11388     0.11368
     105.280     0.11384     0.11368
     105.290     0.11379     0.11368
     105.300     0.11375     0.11368
     105.310     0.11370     0.11368
     105.320     0.11369     0.11372
     105.330     0.11368     0.11376
     105.340     0.11364     0.11380
     105.350     0.11359     0.11383
     105.360     0.11356     0.11387
     105.370     0.11353     0.11391
     105.380     0.11353     0.11395
     105.390     0.11353     0.11399
     105.400     0.11350     0.11403
     105.410     0.11348     0.11407
     105.420     0.11348     0.11407
     105.430     0.11348     0.11407
     105.440     0.11350     0.11407
     105.450     0.11353     0.11407
     105.460     0.11355     0.11407
     105.470     0.11357     0.11412
