~VERSION INFORMATION SECTION
VERS.           2.0  :CWLS Log ASCII Standard - 2.0
WRAP.           NO   :One line per depth
#               Created in SeisLab
~WELL INFORMATION SECTION
#MNEM.UNIT  VALUE/NAME               :DESCRIPTION    
STRT.m  10                           :Start Depth    
STOP.m  124                          :Stop Depth     
STEP.m  0.01                         :Step           
NULL.    -999.25                     :Null Value     
WELL.    GDP1                        :Well Name      
CTRY.    Switzerland                 :Country        
CNTY.                                :County         
STAT.    Central Swiss Alps          :State          
API .                                :API number     
UWI .                                :Unique well ID 
LOC .    Grimsel pass, Switzerland   :Well Location  
FLD .    n/a                         :Field          
COMP.    n/a                         :Company        
SRVC.    University of Lausanne      :Service Company
DATE.    2015                        :Date           
~PARAMETER INFORMATION SECTION
#MNEM .UNITS    VALUE   :DESCRIPTION OF PARAMETER
Casing.n/a      0       :open hole               
Mud   .Polymer  1       :Mud type                
~CURVE INFORMATION SECTION
#MNEM.UNITS  API CODES   :DESCRIPTION OF MNEMONIC      
depth.m                  :measured depth (interpolated)
Cal  .mm                 :Caliper                      
NN   .cps                :Neutron-Neutron              
GG   .cps                :Gamma-Gamma                  
~A depth       Cal         NN          GG          
# ...
     114.960    97.88517    506.8200   1058.9330
     114.970    97.88563    513.7714   1075.3860
     114.980    97.88736    503.2805   1093.7200
     114.990    97.88908    492.7896   1112.0540
     115.000    97.89175    494.9720   1123.9060
     115.010    97.89441    497.1545   1135.7580
     115.020    97.89612    507.3288   1129.4530
     115.030    97.89783    517.5032   1123.1480
     115.040    97.90207    500.0444   1117.4960
     115.050    97.90632    482.5856   1111.8440
     115.060    97.91226    479.4699   1101.8555
     115.070    97.91820    476.3542   1091.8670
     115.080    97.92369    483.8076   1070.1940
     115.090    97.92917    491.2610   1048.5210
     115.100    97.97318    490.2401   1079.2560
     115.110    98.01719    489.2192   1109.9910
     115.120    97.96503    485.1483   1138.3720
     115.130    97.91288    481.0775   1166.7530
     115.140    97.90207    476.3041   1150.6005
     115.150    97.89127    471.5308   1134.4480
     115.160    97.89229    491.6907   1118.8570
     115.170    97.89331    511.8507   1103.2660
     115.180    97.87866    514.7331   1090.9040
     115.190    97.86402    517.6154   1078.5420
     115.200    97.85870    507.1619   1074.0930
     115.210    97.85338    496.7084   1069.6440
     115.220    97.85448    487.5378   1071.5245
     115.230    97.85557    478.3672   1073.4050
     115.240    97.85540    475.1715   1073.2110
     115.250    97.85524    471.9758   1073.0170
     115.260    97.85493    473.7556   1062.8030
     115.270    97.85462    475.5353   1052.5890
     115.280    97.85493    482.2942   1047.7335
     115.290    97.85524    489.0531   1042.8780
     115.300    97.85493    498.2961   1042.3540
     115.310    97.85462    507.5391   1041.8300
     115.320    97.85493    517.2508   1048.5650
     115.330    97.85524    526.9625   1055.3000
     115.340    97.85557    514.9320   1037.9595
     115.350    97.85590    502.9015   1020.6190
     115.360    97.85526    501.6121   1012.0255
     115.370    97.85462    500.3226   1003.4320
     115.380    97.85573    507.5803   1035.1235
     115.390    97.85684    514.8381   1066.8150
     115.400    97.85699    525.1119   1063.0465
     115.410    97.85713    535.3857   1059.2780
     115.420    97.89785    524.1190   1051.7495
     115.430    97.93857    512.8522   1044.2210
     115.440    97.99322    488.2674   1053.0340
     115.450    98.04787    463.6826   1061.8470
     115.460    98.07448    489.6892   1063.7530
     115.470    98.10110    515.6959   1065.6590
     115.480    98.16042    525.4099   1063.4225
     115.490    98.21974    535.1238   1061.1860
     115.500    98.05050    532.0223   1053.3155
     115.510    97.88126    528.9208   1045.4450
     115.520    97.87342    523.4527   1058.3160
     115.530    97.86559    517.9846   1071.1870
     115.540    97.86715    514.7940   1083.5885
     115.550    97.86872    511.6033   1095.9900
     115.560    97.86847    510.2089   1091.9600
     115.570    97.86822    508.8146   1087.9300
     115.580    97.85577    507.8517   1091.8280
     115.590    97.84333    506.8889   1095.7260
     115.600    97.84240    495.0655   1100.7005
     115.610    97.84147    483.2420   1105.6750
     115.620    97.84194    464.7758   1107.6140
     115.630    97.84241    446.3096   1109.5530
     115.640    97.84288    454.3643   1128.8785
     115.650    97.84336    462.4190   1148.2040
     115.660    97.84320    466.1187   1172.8360
     115.670    97.84303    469.8185   1197.4680
     115.680    97.84288    470.4856   1223.0100
     115.690    97.84274    471.1526   1248.5520
     115.700    97.84320    477.0493   1238.5805
     115.710    97.84366    482.9460   1228.6090
     115.720    97.84304    488.6166   1212.3900
     115.730    97.84241    494.2872   1196.1710
     115.740    97.84288    498.9514   1189.8630
     115.750    97.84336    503.6156   1183.5550
     115.760    97.84258    495.8511   1182.3150
     115.770    97.84180    488.0867   1181.0750
     115.780    97.83976    482.0416   1186.8830
     115.790    97.83772    475.9964   1192.6910
     115.800    97.83850    472.4649   1213.0090
     115.810    97.83928    468.9334   1233.3270
     115.820    97.84085    482.8858   1219.3250
     115.830    97.84241    496.8383   1205.3230
     115.840    97.84350    509.5069   1193.7100
     115.850    97.84460    522.1755   1182.0970
     115.860    97.84711    531.9205   1201.9090
     115.870    97.84962    541.6654   1221.7210
     115.880    97.86292    522.8505   1226.0280
     115.890    97.87623    504.0355   1230.3350
     115.900    97.88736    495.8095   1228.3445
     115.910    97.89848    487.5835   1226.3540
     115.920    97.89926    487.9078   1219.4705
     115.930    97.90005    488.2322   1212.5870
     115.940    97.90224    493.4526   1204.2785
     115.950    97.90443    498.6731   1195.9700
     115.960    97.90631    497.2984   1191.9950
     115.970    97.90818    495.9236   1188.0200
     115.980    97.90849    489.5617   1196.3205
     115.990    97.90880    483.1999   1204.6210
     116.000    97.90944    478.9178   1216.6065
     116.010    97.91007    474.6357   1228.5920
     116.020    97.91164    477.5272   1232.3150
     116.030    97.91321    480.4187   1236.0380
     116.040    97.91383    488.4585   1215.6695
     116.050    97.91444    496.4983   1195.3010
     116.060    97.91618    498.2937   1203.4975
     116.070    97.91791    500.0891   1211.6940
     116.080    97.91330    495.3972   1223.6085
     116.090    97.90868    490.7053   1235.5230
     116.100    97.90968    482.5220   1236.0825
     116.110    97.91069    474.3387   1236.6420
     116.120    97.90974    489.1443   1217.6925
     116.130    97.90880    503.9499   1198.7430
     116.140    97.90944    510.0245   1183.6590
     116.150    97.91007    516.0992   1168.5750
     116.160    97.91383    515.7640   1177.8395
     116.170    97.91758    515.4287   1187.1040
     116.180    97.92980    520.6591   1170.5630
     116.190    97.94202    525.8895   1154.0220
     116.200    97.95736    517.8057   1140.2840
     116.210    97.97270    509.7219   1126.5460
     116.220    97.98852    492.9878   1139.0435
     116.230    98.00433    476.2537   1151.5410
     116.240    98.01936    484.5520   1132.3000
     116.250    98.03439    492.8503   1113.0590
     116.260    98.03518    496.4736   1088.6715
     116.270    98.03596    500.0969   1064.2840
     116.280    98.03459    499.8372   1049.8700
     116.290    98.03323    499.5775   1035.4560
     116.300    98.03288    495.4652   1043.8395
     116.310    98.03252    491.3528   1052.2230
     116.320    98.03236    498.4941   1055.4560
     116.330    98.03220    505.6355   1058.6890
     116.340    98.03489    519.4166   1031.8860
     116.350    98.03758    533.1977   1005.0830
     116.360    98.05417    515.5664   1012.5715
     116.370    98.07075    497.9351   1020.0600
     116.380    98.10190    488.9998   1032.1280
     116.390    98.13305    480.0644   1044.1960
     116.400    98.24268    478.6130   1042.8945
     116.410    98.35231    477.1617   1041.5930
     116.420    98.56356    486.5217   1051.0310
     116.430    98.77480    495.8816   1060.4690
     116.440    98.44564    502.5876   1066.3900
     116.450    98.11647    509.2936   1072.3110
     116.460    98.11145    513.7064   1061.2640
     116.470    98.10642    518.1192   1050.2170
     116.480    98.15576    519.0018   1049.5420
     116.490    98.20509    519.8844   1048.8670
     116.500    97.96174    527.2207   1054.4665
     116.510    97.71839    534.5571   1060.0660
     116.520    97.63476    545.3498   1074.2770
     116.530    97.55113    556.1425   1088.4880
     116.540    97.55098    543.6677   1070.4635
     116.550    97.55083    531.1929   1052.4390
     116.560    97.54879    523.2168   1030.9475
     116.570    97.54675    515.2407   1009.4560
     116.580    97.54755    511.4227   1002.7187
     116.590    97.54835    507.6047    995.9813
