~VERSION INFORMATION SECTION
VERS.           2.0  :CWLS Log ASCII Standard - 2.0
WRAP.           NO   :One line per depth
#               Created in SeisLab
~WELL INFORMATION SECTION
#MNEM.UNIT  VALUE/NAME               :DESCRIPTION    
STRT.m  10                           :Start Depth    
STOP.m  125                          :Stop Depth     
STEP.m  0.01                         :Step           
NULL.    -999.25                     :Null Value     
WELL.    GDP1                        :Well Name      
CTRY.    Switzerland                 :Country        
CNTY.                                :County         
STAT.    Central Swiss Alps          :State          
API .                                :API number     
UWI .                                :Unique well ID 
LOC .    Grimsel Pass, Switzerland   :Well Location  
FLD .    n/a                         :Field          
COMP.    n/a                         :Company        
SRVC.    University of Lausanne      :Service Company
DATE.    2015                        :Date           
~PARAMETER INFORMATION SECTION
#MNEM .UNITS    VALUE   :DESCRIPTION OF PARAMETER
Casing.n/a      0       :open hole               
Mud   .Polymer  1       :Mud type                
~CURVE INFORMATION SECTION
#MNEM.UNITS  API CODES   :DESCRIPTION OF MNEMONIC
depth.m                  :measured depth         
NG   .cps                :Natural gamma          
Sp   .mV                 :Self potential         
Temp .DegC               :Temperature            
SPR  .Ohm                :Single point resistance
R8   .Ohm.m              :Normal resistivity     
R16  .Ohm.m              :Single point resistance
R32  .Ohm.m              :Normal resistivity     
R64  .Ohm.m              :Normal resistivity     
~A depth       NG          Sp          Temp        SPR         R8          R16         R32         R64         
# ...
     123.960   269.87473   -999.2500     9.23536    5004.772    4878.906    6653.250    9536.849    6915.891
     123.970   270.01660   -999.2500     9.21680    5127.813    4870.078    6672.300    9488.056    6899.821
     123.980   270.13839   -999.2500     9.21973    5252.354    4863.056    6695.908    9429.170    6883.114
     123.990   270.24059   -999.2500     9.22266    5377.939    4858.020    6724.225    9359.865    6865.865
     124.000   270.32395   -999.2500     9.21680    5504.109    4855.150    6757.373    9279.859    6848.172
     124.010   270.38941   -999.2500     9.21094    5630.402    4854.622    6795.442    9188.920    6830.135
     124.020   270.43806   -999.2500     9.21973    5756.358    4856.610    6838.488    9086.866    6811.858
     124.030   270.47113   -999.2500     9.22852    5881.524    4861.281    6886.530    8973.575    6793.445
     124.040   270.48993   -999.2500     9.24415    6005.453    4868.792    6939.545    8848.979    6774.999
     124.050   270.49584   -999.2500     9.25977    6127.712    4879.291    6997.469    8713.075    6756.626
     124.060   270.49026   -999.2500     9.26172    6247.881    4892.911    7060.192    8565.918    6738.429
     124.070   270.47462   -999.2500     9.26367    6365.557    4909.770    7127.556    8407.630    6720.508
     124.080   270.45031   -999.2500     9.24804    6480.359    4929.968    7199.355    8238.396    6702.963
     124.090   270.41869   -999.2500     9.23242    6591.925    4953.586    7275.332    8058.467    6685.890
     124.100   270.38109   -999.2500     9.23535    6699.922    4980.679    7355.179    7868.161    6669.380
     124.110   270.33875   -999.2500     9.23828    6804.038    5011.282    7438.539    7667.857    6653.522
     124.120   270.29286   -999.2500     9.26660    6903.994    5045.399    7524.999    7457.999    6638.396
     124.130   270.24449   -999.2500     9.29492    6999.538    5083.008    7614.099    7239.094    6624.081
     124.140   270.19465   -999.2500     9.29199    7090.450    5124.056    7705.326    7011.705    6610.645
     124.150   270.14425   -999.2500     9.28906    7176.539    5168.458    7798.121    6776.453    6598.153
     124.160   270.09409   -999.2500     9.27832    7257.650    5216.097    7891.876    6534.013    6586.661
     124.170   270.04488   -999.2500     9.26758    7333.656    5266.821    7985.942    6285.105    6576.218
     124.180   269.99723   -999.2500     9.27832    7404.466    5320.443    8079.626    6030.497    6566.863
     124.190   269.95167   -999.2500     9.28906    7470.019    5376.742    8172.201    5770.994    6558.631
     124.200   269.90862   -999.2500     9.27929    7530.286    5435.459    8262.905    5507.435    6551.545
     124.210   269.86841   -999.2500     9.26953    7585.270    5496.302    8350.949    5240.688    6545.621
     124.220   269.83131   -999.2500     9.25586    7635.002    5558.944    8435.520    4971.643    6540.866
     124.230   269.79750   -999.2500     9.24219    7679.544    5623.022    8515.789    4701.203    6537.279
     124.240   269.76708   -999.2500     9.25781    7718.982    5688.143    8590.913    4430.284    6534.849
     124.250   269.74011   -999.2500     9.27344    7753.430    5753.881    8660.047    4159.803    6533.558
     124.260   269.71658   -999.2500     9.26367    7783.027    5819.780    8722.346    3890.671    6533.379
     124.270   269.69643   -999.2500     9.25391    7807.931    5885.361    8776.974    3623.792    6534.278
     124.280   269.67955   -999.2500     9.27148    7828.322    5950.116    8823.112    3360.049    6536.213
     124.290   269.66582   -999.2500     9.28906    7844.398    6013.520    8859.964    3100.304    6539.135
     124.300   269.65506   -999.2500     9.26367    7856.374    6075.027    8886.765    2845.388    6542.986
     124.310   269.64709   -999.2500     9.23828    7864.475    6134.080    8902.787    2596.098    6547.706
     124.320   269.64168   -999.2500     9.25000    7868.943    6190.112    8907.350    2353.189    6553.226
     124.330   269.63862   -999.2500     9.26172    7870.025    6242.549    8899.825    2117.372    6559.474
     124.340   269.63767   -999.2500     9.24902    7867.976    6290.816    8879.646    1889.304    6566.372
     124.350   269.63860   -999.2500     9.23633    7863.059    6334.345    8846.311    1669.593    6573.838
     124.360   269.64118   -999.2500     9.23438    7855.537    6372.574    8799.391    1458.786    6581.789
     124.370   269.64516   -999.2500     9.23242    7845.674    6404.956    8738.538    1257.371    6590.138
     124.380   269.65033   -999.2500     9.25097    7833.734    6430.965    8663.485    1065.771    6598.796
     124.390   269.65647   -999.2500     9.26953    7819.977    6450.099    8574.055     884.348    6607.674
     124.400   269.66337   -999.2500     9.26172    7804.660    6461.884    8470.162     713.396    6616.682
     124.410   269.67083   -999.2500     9.25391    7788.032    6465.883    8351.817     553.144    6625.731
     124.420   269.67869   -999.2500     9.25391    7770.334    6461.700    8219.125     403.754    6634.732
     124.430   269.68678   -999.2500     9.25391    7751.800    6448.982    8072.290     265.324    6643.599
     124.440   269.69494   -999.2500     9.23438    7732.652    6427.426    7911.614     137.885    6652.247
     124.450   269.70306   -999.2500     9.21484    7713.099    6396.783    7737.496      21.409    6660.596
     124.460   269.71101   -999.2500     9.24414    7693.339    6356.863    7550.429     -84.195    6668.566
     124.470   269.71870   -999.2500     9.27344    7673.558    6307.536    7350.999    -179.076    6676.085
     124.480   269.72605   -999.2500     9.28125    7653.926    6248.734    7139.878    -263.436    6683.084
     124.490   269.73297   -999.2500     9.28906    7634.599    6180.459    6917.822    -337.530    6689.497
     124.500   269.73944   -999.2500     9.26953    7615.719    6102.777    6685.661    -401.661    6695.268
     124.510   269.74539   -999.2500     9.25000    7597.411    6015.828    6444.296    -456.175    6700.342
     124.520   269.75080   -999.2500     9.26269    7579.788    5919.816    6194.688    -501.459    6704.674
     124.530   269.75566   -999.2500     9.27539    7562.946    5815.016    5937.854    -537.935    6708.223
     124.540   269.75997   -999.2500     9.27832    7546.966    5701.773    5674.851    -566.054    6710.955
     124.550   269.76371   -999.2500     9.28125    7531.916    5580.494    5406.772    -586.297    6712.845
     124.560   269.76691   -999.2500     9.28614    7517.848    5451.652    5134.736    -599.164    6713.873
     124.570   269.76957   -999.2500     9.29102    7504.801    5315.777    4859.876    -605.171    6714.027
     124.580   269.77173   -999.2500     9.27637    7492.803    5173.454    4583.328    -604.850    6713.300
     124.590   269.77341   -999.2500     9.26172    7481.867    5025.322    4306.225    -598.739    6711.695
     124.600   269.77465   -999.2500     9.25196    7471.997    4872.059    4029.684    -587.378    6709.220
     124.610   269.77547   -999.2500     9.24219    7463.183    4714.385    3754.798    -571.309    6705.890
     124.620   269.77592   -999.2500     9.24805    7455.409    4553.049    3482.626    -551.067    6701.728
     124.630   269.77603   -999.2500     9.25391    7448.648    4388.827    3214.185    -527.180    6696.761
     124.640   269.77584   -999.2500     9.25000    7442.865    4222.508    2950.444    -500.164    6691.024
     124.650   269.77539   -999.2500     9.24609    7438.018    4054.892    2692.313    -470.516    6684.557
     124.660   269.77472   -999.2500     9.25976    7434.060    3886.781    2440.640    -438.719    6677.405
     124.670   269.77386   -999.2500     9.27344    7430.939    3718.966    2196.203    -405.233    6669.618
     124.680   269.77285   -999.2500     9.26758    7428.596    3552.229    1959.708    -370.493    6661.251
     124.690   269.77172   -999.2500     9.26172    7426.973    3387.326    1731.782    -334.909    6652.363
