~VERSION INFORMATION SECTION
VERS.           2.0  :CWLS Log ASCII Standard - 2.0
WRAP.           NO   :One line per depth
#               Created in SeisLab
~WELL INFORMATION SECTION
#MNEM.UNIT  VALUE/NAME               :DESCRIPTION    
STRT.m  10                           :Start Depth    
STOP.m  125                          :Stop Depth     
STEP.m  0.01                         :Step           
NULL.    -999.25                     :Null Value     
WELL.    GDP1                        :Well Name      
CTRY.    Switzerland                 :Country        
CNTY.                                :County         
STAT.    Central Swiss Alps          :State          
API .                                :API number     
UWI .                                :Unique well ID 
LOC .    Grimsel Pass, Switzerland   :Well Location  
FLD .    n/a                         :Field          
COMP.    n/a                         :Company        
SRVC.    University of Lausanne      :Service Company
DATE.    2016                        :Date           
~PARAMETER INFORMATION SECTION
#MNEM .UNITS  VALUE   :DESCRIPTION OF PARAMETER
Casing.n/a    1       :slotted PVC casing      
~CURVE INFORMATION SECTION
#MNEM.UNITS  API CODES   :DESCRIPTION OF MNEMONIC
depth.m                  :measured depth         
NG   .cps                :Natural gamma          
Sp   .mV                 :Self potential         
Temp .DegC               :Temperature            
SPR  .Ohm                :Single point resistance
R8   .Ohm.m              :Normal resistivity     
R16  .Ohm.m              :Single point resistance
R32  .Ohm.m              :Normal resistivity     
R64  .Ohm.m              :Normal resistivity     
~A depth       NG          Sp          Temp        SPR         R8          R16         R32         R64         
# ...
      93.620   293.48965   1022.3536     7.29460    5689.855    1750.924    1545.586     893.465     995.604
      93.630   293.59158   1021.0318     7.30371    5722.689    1807.432    1574.114     880.190    1004.685
      93.640   293.77632   1019.7610     7.30436    5755.524    1875.362    1602.268     866.904    1014.251
      93.650   294.04683   1018.5422     7.30501    5788.358    1943.291    1629.955     853.665    1024.317
      93.660   294.39888   1017.3754     7.30566    5821.193    2007.768    1657.084     840.534    1034.898
      93.670   294.82138   1016.2599     7.30322    5854.027    2072.245    1683.560     827.567    1046.003
      93.680   295.29761   1015.1949     7.30078    5886.862    2112.216    1709.288     814.824    1057.642
      93.690   295.80705   1014.1789     7.30762    5919.696    2152.187    1734.173     802.362    1069.821
      93.700   296.32737   1013.2109     7.31445    5952.531    2172.946    1758.120     790.239    1082.542
      93.710   296.83614   1012.2895     7.32129    5985.366    2193.706    1781.034     778.510    1095.805
      93.720   297.31192   1011.4136     7.31673    6018.200    2188.121    1802.825     767.230    1109.606
      93.730   297.73480   1010.5823     7.31218    6051.035    2182.536    1823.400     756.452    1123.938
      93.740   298.08652   1009.7944     7.30762    6083.869    2171.401    1842.671     746.225    1138.790
      93.750   298.35050   1009.0486     7.30925    6116.704    2160.266    1860.553     736.597    1154.146
      93.760   298.51219   1008.3432     7.31087    6149.538    2160.754    1876.966     727.614    1169.988
      93.770   298.55981   1007.6759     7.31250    6182.373    2161.241    1891.831     719.319    1186.292
      93.780   298.48531   1007.0435     7.30794    6215.207    2182.957    1905.078     711.749    1203.032
      93.790   298.28510   1006.4413     7.30339    6248.042    2204.672    1916.641     704.939    1220.176
      93.800   297.96033   1005.8635     7.29883    6280.876    2230.021    1926.458     698.922    1237.690
      93.810   297.51669   1005.3020     7.30274    6313.711    2255.371    1934.476     693.724    1255.532
      93.820   296.96384   1004.7468     7.30664    6346.545    2251.353    1940.650     689.367    1273.661
      93.830   296.31489   1004.1856     7.31054    6379.380    2247.336    1944.942     685.871    1292.029
      93.840   295.58591   1003.6035     7.31445    6412.214    2257.630    1947.319     683.249    1310.585
      93.850   294.79562   1002.9828     7.31836    6445.049    2267.925    1947.762     681.510    1329.274
      93.860   293.96528   1002.3035     7.32227    6477.884    2290.867    1946.256     680.657    1348.039
      93.870   293.11866   1001.5429     7.32227    6510.718    2313.809    1942.798     680.689    1366.819
      93.880   292.28184   1000.6759     7.32227    6543.553    2301.072    1937.393     681.601    1385.550
      93.890   291.48268    999.6758     7.32227    6576.387    2288.335    1930.057     683.381    1404.167
      93.900   290.75016    998.5145     7.32398    6609.222    2271.384    1920.812     686.013    1422.600
      93.910   290.11363    997.1631     7.32569    6642.056    2254.432    1909.694     689.477    1440.780
      93.920   289.60226    995.5930     7.32739    6674.891    2263.163    1896.745     693.745    1458.635
      93.930   289.24460    993.7769     7.32910    6707.725    2271.894    1882.017     698.789    1476.093
      93.940   289.06804    991.6896     7.32194    6740.560    2293.269    1865.572     704.573    1493.081
      93.950   289.09815    989.3095     7.31478    6773.394    2314.643    1847.480     711.058    1509.526
      93.960   289.35762    986.6200     7.30762    6806.229    2321.250    1827.818     718.201    1525.355
      93.970   289.86505    983.6101     7.31771    6839.063    2327.856    1806.673     725.954    1540.497
      93.980   290.63364    980.2766     7.32780    6871.898    2283.754    1784.138     734.269    1554.880
      93.990   291.67008    976.6242     7.33789    6904.733    2239.652    1760.312     743.090    1568.436
      94.000   292.97341    972.6671     7.34082    6937.567    2229.143    1735.302     752.363    1581.099
      94.010   294.53400    968.4289     7.34375    6970.402    2218.634    1709.218     762.029    1592.803
      94.020   296.33266    963.9432     7.34668    7003.236    2208.125    1682.177     772.028    1603.488
      94.030   298.34000    959.2527     7.34147    7036.071    2195.361    1654.296     782.298    1613.095
      94.040   300.51636    954.4086     7.33626    7068.905    2182.597    1625.700     792.777    1621.572
      94.050   302.81262    949.4690     7.33105    7101.740    2169.834    1596.512     803.402    1628.866
      94.060   305.17180    944.4968     7.31836    7134.574    2155.595    1566.857     814.108    1634.933
      94.070   307.53158    939.5575     7.30566    7167.409    2141.357    1536.863     824.834    1639.732
      94.080   309.82753    934.7167     7.31705    7200.243    2138.890    1506.654     835.516    1643.225
      94.090   311.99662    930.0372     7.32845    7292.727    2136.424    1476.354     846.094    1645.382
      94.100   313.98081    925.5762     7.33984    7385.210    2133.957    1446.085     856.509    1646.176
      94.110   315.73016    921.3833     7.34310    7426.160    2109.637    1415.968     866.703    1645.587
      94.120   317.20515    917.4978     7.34635    7467.110    2085.317    1386.116     876.622    1643.600
      94.130   318.37828    913.9475     7.34961    7508.060    2060.996    1356.640     886.213    1640.204
      94.140   319.23477    910.7478     7.34180    7552.630    2015.357    1327.647     895.427    1635.397
      94.150   319.77298    907.9005     7.33398    7597.200    1969.717    1299.236     904.219    1629.180
      94.160   320.00423    905.3949     7.32617    7641.770    1924.077    1271.500     912.548    1621.560
      94.170   319.95212    903.2080     7.33301    7638.007    1876.265    1244.526     920.376    1612.551
      94.180   319.65072    901.3068     7.33984    7634.245    1828.452    1218.394     927.669    1602.173
      94.190   319.14164    899.6504     7.34668    7630.483    1780.640    1193.175     934.398    1590.451
      94.200   318.47030    898.1929     7.35352    7626.720    1732.828    1168.932     940.540    1577.415
      94.210   317.68207    896.8872     7.35742    7579.827    1671.932    1145.722     946.073    1563.102
      94.220   316.81897    895.6886     7.36133    7532.933    1611.036    1123.591     950.983    1547.554
      94.230   315.91732    894.5574     7.36523    7486.040    1550.140    1102.577     955.259    1530.818
      94.240   315.00637    893.4630     7.35938    7275.540    1443.799    1082.712     958.896    1512.949
      94.250   314.10769    892.3848     7.35352    7065.040    1337.458    1064.017     961.893    1494.003
      94.260   313.23510    891.3142     7.34506    6905.533    1279.872    1046.505     964.252    1474.044
      94.270   312.39511    890.2546     7.33659    6746.027    1222.286    1030.182     965.981    1453.140
      94.280   311.58797    889.2204     7.32813    6586.520    1164.701    1015.047     967.093    1431.364
      94.290   310.80906    888.2363     7.33350    6468.412    1138.536    1001.088     967.603    1408.792
      94.300   310.05038    887.3359     7.33887    6350.305    1112.372     988.289     967.532    1385.506
      94.310   309.30199    886.5591     7.34424    6232.198    1086.207     976.627     966.903    1361.590
      94.320   308.55318    885.9512     7.34961    6114.090    1060.043     966.072     965.742    1337.133
      94.330   307.79336    885.5605     7.35645    5956.960    1032.720     956.588     964.078    1312.225
      94.340   307.01280    885.4361     7.36328    5799.830    1005.396     948.134     961.946    1286.960
      94.350   306.20308    885.6266     7.37012    5642.700     978.073     940.664     959.378    1261.435
