~VERSION INFORMATION SECTION
VERS.           2.0  :CWLS Log ASCII Standard - 2.0
WRAP.           NO   :One line per depth
#               Created in SeisLab
~WELL INFORMATION SECTION
#MNEM.UNIT  VALUE/NAME               :DESCRIPTION    
STRT.m  10                           :Start Depth    
STOP.m  125                          :Stop Depth     
STEP.m  0.01                         :Step           
NULL.    -999.25                     :Null Value     
WELL.    GDP1                        :Well Name      
CTRY.    Switzerland                 :Country        
CNTY.                                :County         
STAT.    Central Swiss Alps          :State          
API .                                :API number     
UWI .                                :Unique well ID 
LOC .    Grimsel Pass, Switzerland   :Well Location  
FLD .    n/a                         :Field          
COMP.    n/a                         :Company        
SRVC.    University of Lausanne      :Service Company
DATE.    2017                        :Date           
~PARAMETER INFORMATION SECTION
#MNEM .UNITS  VALUE   :DESCRIPTION OF PARAMETER
Casing.n/a    1       :slotted PVC casing      
~CURVE INFORMATION SECTION
#MNEM.UNITS  API CODES   :DESCRIPTION OF MNEMONIC
depth.m                  :measured depth         
NG   .cps                :Natural gamma          
Sp   .mV                 :Self potential         
Temp .DegC               :Temperature            
SPR  .Ohm                :Single point resistance
R8   .Ohm.m              :Normal resistivity     
R16  .Ohm.m              :Single point resistance
R32  .Ohm.m              :Normal resistivity     
R64  .Ohm.m              :Normal resistivity     
~A depth       NG          Sp          Temp        SPR         R8          R16         R32         R64         
# ...
      82.520   202.57043   1222.9787     6.76563    4105.680     579.690     670.518     758.366    1111.447
      82.530   202.50309   1222.7212     6.76612    4114.215     578.804     670.959     759.977    1112.825
      82.540   202.58735   1222.4239     6.76660    4122.750     577.919     671.401     761.588    1114.202
      82.550   202.81569   1222.0975     6.75293    4133.010     576.284     670.432     764.330    1112.217
      82.560   203.17569   1221.7521     6.73926    4143.270     574.650     669.463     767.073    1111.346
      82.570   203.65134   1221.3971     6.74805    4154.580     572.945     668.703     768.225    1110.475
      82.580   204.22439   1221.0403     6.75684    4165.890     571.240     667.944     769.378    1109.604
      82.590   204.87571   1220.6874     6.76465    4179.020     570.136     667.822     769.926    1108.732
      82.600   205.58644   1220.3415     6.77246    4192.150     569.031     667.700     770.473    1107.861
      82.610   206.33882   1220.0029     6.77050    4205.710     568.142     667.102     772.659    1106.990
      82.620   207.11668   1219.6695     6.76855    4219.270     567.253     666.503     774.845    1106.119
      82.630   207.90574   1219.3363     6.75586    4228.495     565.954     664.930     777.812    1105.248
      82.640   208.69378   1218.9965     6.74316    4237.720     564.655     663.357     780.779    1104.377
      82.650   209.47068   1218.6416     6.74316    4240.615     562.850     661.809     781.785    1103.505
      82.660   210.22838   1218.2626     6.74316    4243.510     561.045     660.260     782.790    1102.634
      82.670   210.96066   1217.8509     6.74414    4245.450     559.512     659.132     782.475    1101.763
      82.680   211.66292   1217.3986     6.74512    4247.390     557.980     658.004     782.160    1100.892
      82.690   212.33197   1216.8995     6.74414    4253.315     557.066     656.729     784.195    1100.021
      82.700   212.96614   1216.3499     6.74316    4259.240     556.151     655.455     786.229    1099.149
      82.710   213.56560   1215.7482     6.75586    4267.720     555.292     653.938     788.313    1098.278
      82.720   214.13283   1215.0953     6.76855    4276.200     554.433     652.421     790.397    1097.407
      82.730   214.67281   1214.3947     6.76855    4278.760     553.344     651.690     792.643    1096.536
      82.740   215.19297   1213.6518     6.76855    4281.320     552.254     650.960     794.889    1095.665
      82.750   215.70266   1212.8742     6.75732    4273.440     551.124     650.910     793.584    1094.794
      82.760   216.21254   1212.0708     6.74609    4265.560     549.993     650.860     792.280    1093.922
      82.770   216.73387   1211.2517     6.75586    4253.610     549.211     649.890     796.646    1093.051
      82.780   217.27783   1210.4278     6.76563    4241.660     548.428     648.920     801.012    1092.180
      82.790   217.85485   1209.6102     6.76807    4238.085     547.932     647.209     803.465    1091.309
      82.800   218.47406   1208.8101     6.77051    4234.510     547.436     645.498     805.918    1090.438
      82.810   219.14276   1208.0375     6.76123    4241.835     546.955     644.446     809.061    1089.567
      82.820   219.86555   1207.3010     6.75195    4249.160     546.475     643.394     812.204    1088.695
      82.830   220.64328   1206.6074     6.76563    4254.195     546.517     642.884     812.785    1087.824
      82.840   221.47224   1205.9604     6.77930    4259.230     546.559     642.374     813.365    1086.953
      82.850   222.34406   1205.3611     6.77930    4245.590     546.877     641.049     816.431    1086.082
      82.860   223.24664   1204.8074     6.77930    4231.950     547.195     639.724     819.496    1085.211
      82.870   224.16551   1204.2941     6.76953    4203.545     546.996     638.236     825.328    1084.340
      82.880   225.08555   1203.8132     6.75977    4175.140     546.798     636.748     831.160    1083.468
      82.890   225.99257   1203.3545     6.75293    4153.135     546.007     636.957     830.464    1082.597
      82.900   226.87456   1202.9056     6.74609    4131.130     545.215     637.167     829.767    1081.726
      82.910   227.72230   1202.4530     6.75976    4127.600     544.403     637.730     832.739    1080.855
      82.920   228.52943   1201.9826     6.77344    4124.070     543.591     638.294     835.712    1079.984
      82.930   229.29212   1201.4803     6.77539    4133.115     542.666     639.054     835.286    1079.113
      82.940   230.00856   1200.9327     6.77734    4142.160     541.741     639.814     834.860    1078.241
      82.950   230.67838   1200.3278     6.76709    4154.365     540.074     638.416     835.321    1077.370
      82.960   231.30203   1199.6554     6.75684    4166.570     538.406     637.017     835.781    1076.499
      82.970   231.88030   1198.9073     6.75098    4180.255     536.699     638.699     833.866    1075.628
      82.980   232.41405   1198.0780     6.74512    4193.940     534.992     640.381     832.385    1074.757
      82.990   232.90420   1197.1644     6.75098    4208.375     534.829     640.925     830.905    1073.886
      83.000   233.35192   1196.1657     6.75684    4222.810     534.666     641.469     829.424    1073.014
      83.010   233.75877   1195.0837     6.76612    4229.790     535.457     642.519     827.944    1072.143
      83.020   234.12655   1193.9220     6.77539    4236.770     536.248     643.569     826.464    1071.272
      83.030   234.45674   1192.6861     6.76709    4226.685     537.478     643.452     824.983    1070.401
      83.040   234.74987   1191.3830     6.75879    4216.600     538.708     643.334     823.503    1069.530
      83.050   235.00490   1190.0206     6.75586    4196.825     538.290     645.038     822.022    1068.659
      83.060   235.21879   1188.6077     6.75293    4177.050     537.871     646.742     820.542    1067.787
      83.070   235.38626   1187.1538     6.75293    4163.385     538.574     649.835     819.062    1066.916
      83.080   235.49977   1185.6688     6.75293    4149.720     539.277     652.928     817.581    1066.045
      83.090   235.54975   1184.1635     6.76612    4144.570     539.073     652.482     779.752    1065.174
      83.100   235.52528   1182.6495     6.77930    4139.420     538.869     652.036     808.116    1064.303
      83.110   235.41517   1181.1395     6.76709    4140.530     538.989     654.234     836.480    1063.432
      83.120   235.20967   1179.6480     6.75488    4141.640     539.110     656.432     869.855    1062.560
      83.130   234.90257   1178.1911     6.76513    4151.745     538.521     656.373     903.230    1061.689
      83.140   234.49329   1176.7868     6.77539    4161.850     537.931     656.313     880.916    1060.818
      83.150   233.98853   1175.4553     6.76856    4173.625     538.395     656.633     858.602    1059.947
      83.160   233.40295   1174.2182     6.76172    4185.400     538.859     656.953     833.789    1059.076
      83.170   232.75884   1173.0989     6.76611    4185.070     540.542     655.839     808.976    1058.205
      83.180   232.08458   1172.1214     6.77051    4184.740     542.225     654.725     816.718    1057.333
      83.190   231.41228   1171.3098     6.76270    4162.840     542.041     654.105     824.460    1056.462
      83.200   230.77499   1170.6875     6.75488    4140.940     541.857     653.486     858.522    1055.591
      83.210   230.20392   1170.2755     6.76270    4112.240     543.288     650.679     892.584    1054.720
      83.220   229.72633   1170.0917     6.77051    4083.540     544.719     647.872     920.540    1053.849
      83.230   229.36397   1170.1497     6.77979    4063.770     545.467     647.387     948.496    1052.978
      83.240   229.13220   1170.4572     6.78906    4044.000     546.216     646.903     964.451    1052.106
      83.250   229.03943   1171.0154     6.77539    4036.940     547.784     667.857     980.407    1067.040
