~VERSION INFORMATION SECTION
VERS.           2.0  :CWLS Log ASCII Standard - 2.0
WRAP.           NO   :One line per depth
#               Created in SeisLab
~WELL INFORMATION SECTION
#MNEM.UNIT  VALUE/NAME               :DESCRIPTION    
STRT.m  10                           :Start Depth    
STOP.m  124                          :Stop Depth     
STEP.m  0.01                         :Step           
NULL.    -999.25                     :Null Value     
WELL.    GDP1                        :Well Name      
CTRY.    Switzerland                 :Country        
CNTY.                                :County         
STAT.    Central Swiss Alps          :State          
API .                                :API number     
UWI .                                :Unique well ID 
LOC .    Grimsel pass, Switzerland   :Well Location  
FLD .    n/a                         :Field          
COMP.    n/a                         :Company        
SRVC.    University of Lausanne      :Service Company
DATE.    2015                        :Date           
~PARAMETER INFORMATION SECTION
#MNEM .UNITS    VALUE   :DESCRIPTION OF PARAMETER
Casing.n/a      0       :open hole               
Mud   .Polymer  1       :Mud type                
~CURVE INFORMATION SECTION
#MNEM.UNITS  API CODES   :DESCRIPTION OF MNEMONIC      
depth.m                  :measured depth (interpolated)
Cal  .mm                 :Caliper                      
NN   .cps                :Neutron-Neutron              
GG   .cps                :Gamma-Gamma                  
~A depth       Cal         NN          GG          
# ...
      18.200   103.01310    473.0401   1173.1810
      18.210   103.01620    475.9573   1169.3550
      18.220   103.01410    478.8636   1168.2995
      18.230   103.01200    481.7700   1167.2440
      18.240   103.01300    483.5909   1174.3980
      18.250   103.01400    485.4118   1181.5520
      18.260   103.01410    471.1986   1188.5150
      18.270   103.01420    456.9854   1195.4780
      18.280   103.01440    451.7905   1197.4075
      18.290   103.01460    446.5956   1199.3370
      18.300   103.01520    448.9132   1188.3830
      18.310   103.01580    451.2308   1177.4290
      18.320   103.01600    461.1770   1172.3105
      18.330   103.01620    471.1231   1167.1920
      18.340   103.01690    471.2275   1164.6400
      18.350   103.01760    471.3319   1162.0880
      18.360   103.01800    465.1360   1161.8880
      18.370   103.01840    458.9401   1161.6880
      18.380   103.02075    472.6684   1165.1615
      18.390   103.02310    486.3967   1168.6350
      18.400   103.02455    488.5665   1171.3730
      18.410   103.02600    490.7364   1174.1110
      18.420   103.02760    485.5495   1172.2465
      18.430   103.02920    480.3626   1170.3820
      18.440   103.02965    499.3000   1163.7460
      18.450   103.03010    518.2375   1157.1100
      18.460   103.03125    512.9759   1149.7675
      18.470   103.03240    507.7144   1142.4250
      18.480   103.03370    484.7456   1136.7640
      18.490   103.03500    461.7769   1131.1030
      18.500   103.03570    454.8904   1158.6465
      18.510   103.03640    448.0038   1186.1900
      18.520   103.03760    451.5099   1212.2345
      18.530   103.03880    455.0160   1238.2790
      18.540   103.03900    466.0708   1236.0770
      18.550   103.03920    477.1256   1233.8750
      18.560   103.03965    480.4781   1220.5310
      18.570   103.04010    483.8305   1207.1870
      18.580   103.04135    491.3481   1196.9620
      18.590   103.04260    498.8658   1186.7370
      18.600   103.04450    508.9830   1192.7695
      18.610   103.04640    519.1002   1198.8020
      18.620   103.05460    519.7564   1194.6290
      18.630   103.06280    520.4126   1190.4560
      18.640   103.05750    519.4980   1185.5930
      18.650   103.05220    518.5834   1180.7300
      18.660   103.05265    516.1420   1181.5885
      18.670   103.05310    513.7006   1182.4470
      18.680   103.05310    506.6912   1182.7390
      18.690   103.05310    499.6818   1183.0310
      18.700   103.05390    498.4398   1181.3465
      18.710   103.05470    497.1979   1179.6620
      18.720   103.05490    500.0612   1173.2820
      18.730   103.05510    502.9245   1166.9020
      18.740   103.05685    500.2410   1164.1460
      18.750   103.05860    497.5576   1161.3900
      18.760   103.06050    499.0669   1163.1765
      18.770   103.06240    500.5762   1164.9630
      18.780   103.06570    503.4621   1175.8285
      18.790   103.06900    506.3479   1186.6940
      18.800   103.08225    481.2076   1195.4345
      18.810   103.09550    456.0674   1204.1750
      18.820   103.06140    454.1746   1207.8600
      18.830   103.02730    452.2819   1211.5450
      18.840   103.02350    467.2056   1203.7135
      18.850   103.01970    482.1292   1195.8820
      18.860   103.01935    478.7327   1190.6360
      18.870   103.01900    475.3362   1185.3900
      18.880   103.01900    471.6403   1189.3040
      18.890   103.01900    467.9445   1193.2180
      18.900   103.01840    465.5854   1218.9255
      18.910   103.01780    463.2262   1244.6330
      18.920   103.01660    484.1483   1232.7735
      18.930   103.01540    505.0704   1220.9140
      18.940   103.01615    503.2412   1197.6265
      18.950   103.01690    501.4119   1174.3390
      18.960   103.01690    483.7719   1149.0610
      18.970   103.01690    466.1319   1123.7830
      18.980   103.01830    476.2754   1139.3020
      18.990   103.01970    486.4188   1154.8210
      19.000   103.02035    493.8519   1177.9735
      19.010   103.02100    501.2849   1201.1260
      19.020   103.02035    505.8986   1214.0205
      19.030   103.01970    510.5124   1226.9150
      19.040   103.01970    504.4911   1215.0550
      19.050   103.01970    498.4697   1203.1950
      19.060   103.02005    495.9319   1187.5745
      19.070   103.02040    493.3942   1171.9540
      19.080   103.02040    492.8896   1164.7980
      19.090   103.02040    492.3850   1157.6420
      19.100   103.01895    481.9327   1193.9855
      19.110   103.01750    471.4804   1230.3290
      19.120   103.01635    471.0192   1256.8505
      19.130   103.01520    470.5580   1283.3720
      19.140   103.01470    478.1663   1252.5800
      19.150   103.01420    485.7746   1221.7880
      19.160   103.01485    497.9420   1206.9460
      19.170   103.01550    510.1095   1192.1040
      19.180   103.01535    512.8665   1188.4945
      19.190   103.01520    515.6235   1184.8850
      19.200   103.01400    510.4745   1198.6120
      19.210   103.01280    505.3255   1212.3390
      19.220   103.01480    491.2569   1215.5475
      19.230   103.01680    477.1883   1218.7560
      19.240   103.01920    475.3152   1220.8905
      19.250   103.02160    473.4421   1223.0250
      19.260   103.02795    479.6168   1230.1095
      19.270   103.03430    485.7916   1237.1940
      19.280   103.03775    470.9411   1246.4900
      19.290   103.04120    456.0907   1255.7860
      19.300   103.04480    451.3993   1258.4885
      19.310   103.04840    446.7079   1261.1910
      19.320   103.05180    451.6117   1245.2260
      19.330   103.05520    456.5154   1229.2610
      19.340   103.05965    486.7794   1230.4780
      19.350   103.06410    517.0435   1231.6950
      19.360   103.06770    525.5190   1231.4010
      19.370   103.07130    533.9946   1231.1070
      19.380   103.07955    525.6349   1214.2600
      19.390   103.08780    517.2753   1197.4130
      19.400   103.06695    510.1444   1205.8360
      19.410   103.04610    503.0135   1214.2590
      19.420   103.04335    496.8909   1227.6570
      19.430   103.04060    490.7684   1241.0550
      19.440   103.05470    485.1966   1248.7525
      19.450   103.06880    479.6248   1256.4500
      19.460   103.08105    470.5982   1255.6225
      19.470   103.09330    461.5716   1254.7950
      19.480   103.10515    467.2043   1251.5300
      19.490   103.11700    472.8370   1248.2650
      19.500   103.12500    487.9776   1244.9555
      19.510   103.13300    503.1181   1241.6460
      19.520   103.13750    490.1929   1261.9350
      19.530   103.14200    477.2676   1282.2240
      19.540   103.14425    474.6931   1294.8980
      19.550   103.14650    472.1186   1307.5720
      19.560   103.14910    477.7885   1283.2005
      19.570   103.15170    483.4583   1258.8290
      19.580   103.16145    492.1673   1254.6765
      19.590   103.17120    500.8763   1250.5240
      19.600   103.63620    497.5932   1258.7345
      19.610   104.10120    494.3102   1266.9450
      19.620   105.20950    483.0928   1292.2815
      19.630   106.31780    471.8755   1317.6180
      19.640   106.16370    481.0908   1295.8445
      19.650   106.00960    490.3061   1274.0710
      19.660   105.10885    498.5019   1258.1300
      19.670   104.20810    506.6978   1242.1890
      19.680   103.58195    513.1032   1275.8995
      19.690   102.95580    519.5087   1309.6100
      19.700   102.94220    510.9968   1300.1110
      19.710   102.92860    502.4849   1290.6120
      19.720   102.92900    490.4936   1274.0870
      19.730   102.92940    478.5023   1257.5620
      19.740   102.93025    466.2812   1254.5955
      19.750   102.93110    454.0601   1251.6290
      19.760   102.93085    478.6499   1253.1955
      19.770   102.93060    503.2398   1254.7620
      19.780   102.93065    505.1690   1260.1555
      19.790   102.93070    507.0981   1265.5490
      19.800   102.93105    491.4593   1277.5125
      19.810   102.93140    475.8206   1289.4760
      19.820   102.93105    460.4981   1308.3130
      19.830   102.93070    445.1757   1327.1500
