~VERSION INFORMATION SECTION
VERS.           2.0  :CWLS Log ASCII Standard - 2.0
WRAP.           NO   :One line per depth
#               Created in SeisLab
~WELL INFORMATION SECTION
#MNEM.UNIT  VALUE/NAME               :DESCRIPTION    
STRT.m  10                           :Start Depth    
STOP.m  124                          :Stop Depth     
STEP.m  0.01                         :Step           
NULL.    -999.25                     :Null Value     
WELL.    GDP1                        :Well Name      
CTRY.    Switzerland                 :Country        
CNTY.                                :County         
STAT.    Central Swiss Alps          :State          
API .                                :API number     
UWI .                                :Unique well ID 
LOC .    Grimsel pass, Switzerland   :Well Location  
FLD .    n/a                         :Field          
COMP.    n/a                         :Company        
SRVC.    University of Lausanne      :Service Company
DATE.    2015/2016                   :Date           
~PARAMETER INFORMATION SECTION
#MNEM .UNITS  VALUE   :DESCRIPTION OF PARAMETER
Casing.n/a    0       :open hole/cased hole    
~CURVE INFORMATION SECTION
#MNEM       .UNITS  API CODES   :DESCRIPTION OF MNEMONIC      
depth       .m                  :measured depth (interpolated)
BHR velocity.m/ns               :BHR velocity 2015            
BHR velocity.m/ns               :BHR velocity 2016            
~A depth       BHR_velocity BHR_velocity
# ...
      33.870     0.11456     0.11520
      33.880     0.11456     0.11516
      33.890     0.11456     0.11512
      33.900     0.11458     0.11508
      33.910     0.11460     0.11504
      33.920     0.11462     0.11502
      33.930     0.11465     0.11500
      33.940     0.11465     0.11498
      33.950     0.11465     0.11496
      33.960     0.11466     0.11495
      33.970     0.11467     0.11493
      33.980     0.11470     0.11491
      33.990     0.11474     0.11489
      34.000     0.11475     0.11487
      34.010     0.11476     0.11485
      34.020     0.11477     0.11489
      34.030     0.11478     0.11493
      34.040     0.11478     0.11496
      34.050     0.11478     0.11500
      34.060     0.11480     0.11504
      34.070     0.11483     0.11504
      34.080     0.11483     0.11504
      34.090     0.11483     0.11504
      34.100     0.11482     0.11504
      34.110     0.11480     0.11504
      34.120     0.11479     0.11506
      34.130     0.11478     0.11508
      34.140     0.11482     0.11510
      34.150     0.11485     0.11512
      34.160     0.11485     0.11514
      34.170     0.11485     0.11516
      34.180     0.11484     0.11518
      34.190     0.11483     0.11520
      34.200     0.11486     0.11522
      34.210     0.11490     0.11524
      34.220     0.11493     0.11518
      34.230     0.11496     0.11512
      34.240     0.11496     0.11506
      34.250     0.11496     0.11500
      34.260     0.11495     0.11495
      34.270     0.11494     0.11502
      34.280     0.11497     0.11510
      34.290     0.11501     0.11518
      34.300     0.11500     0.11526
      34.310     0.11499     0.11534
      34.320     0.11500     0.11534
      34.330     0.11501     0.11534
      34.340     0.11502     0.11534
      34.350     0.11503     0.11534
      34.360     0.11508     0.11534
      34.370     0.11512     0.11534
      34.380     0.11515     0.11534
      34.390     0.11517     0.11534
      34.400     0.11518     0.11534
      34.410     0.11519     0.11534
      34.420     0.11520     0.11538
      34.430     0.11521     0.11542
      34.440     0.11525     0.11546
      34.450     0.11528     0.11550
      34.460     0.11527     0.11554
      34.470     0.11526     0.11554
      34.480     0.11525     0.11554
      34.490     0.11524     0.11554
      34.500     0.11527     0.11554
      34.510     0.11531     0.11554
      34.520     0.11532     0.11556
      34.530     0.11533     0.11558
      34.540     0.11533     0.11560
      34.550     0.11533     0.11562
      34.560     0.11536     0.11564
      34.570     0.11540     0.11566
      34.580     0.11543     0.11568
      34.590     0.11547     0.11570
      34.600     0.11545     0.11572
      34.610     0.11544     0.11574
      34.620     0.11544     0.11576
      34.630     0.11544     0.11578
      34.640     0.11544     0.11580
      34.650     0.11544     0.11582
      34.660     0.11542     0.11584
      34.670     0.11540     0.11582
      34.680     0.11540     0.11580
      34.690     0.11540     0.11578
      34.700     0.11542     0.11576
      34.710     0.11544     0.11574
      34.720     0.11545     0.11574
      34.730     0.11547     0.11574
      34.740     0.11548     0.11574
      34.750     0.11549     0.11574
      34.760     0.11553     0.11574
      34.770     0.11558     0.11582
      34.780     0.11559     0.11590
      34.790     0.11560     0.11598
      34.800     0.11563     0.11606
      34.810     0.11565     0.11614
      34.820     0.11567     0.11616
      34.830     0.11570     0.11618
      34.840     0.11573     0.11620
      34.850     0.11576     0.11622
      34.860     0.11578     0.11624
      34.870     0.11579     0.11622
      34.880     0.11581     0.11620
      34.890     0.11583     0.11618
      34.900     0.11586     0.11616
      34.910     0.11588     0.11614
      34.920     0.11590     0.11610
      34.930     0.11593     0.11606
      34.940     0.11594     0.11602
      34.950     0.11595     0.11598
      34.960     0.11596     0.11594
      34.970     0.11597     0.11598
      34.980     0.11601     0.11602
      34.990     0.11604     0.11606
      35.000     0.11605     0.11610
      35.010     0.11607     0.11614
      35.020     0.11610     0.11618
      35.030     0.11614     0.11622
      35.040     0.11617     0.11626
      35.050     0.11620     0.11630
      35.060     0.11624     0.11634
      35.070     0.11627     0.11638
      35.080     0.11629     0.11642
      35.090     0.11630     0.11646
      35.100     0.11636     0.11650
      35.110     0.11641     0.11654
      35.120     0.11644     0.11656
      35.130     0.11646     0.11658
      35.140     0.11648     0.11660
      35.150     0.11651     0.11662
      35.160     0.11654     0.11664
      35.170     0.11658     0.11668
      35.180     0.11662     0.11672
      35.190     0.11667     0.11676
      35.200     0.11667     0.11680
      35.210     0.11667     0.11685
      35.220     0.11668     0.11689
      35.230     0.11669     0.11693
      35.240     0.11673     0.11697
      35.250     0.11677     0.11701
      35.260     0.11678     0.11705
      35.270     0.11679     0.11709
      35.280     0.11679     0.11713
      35.290     0.11679     0.11717
      35.300     0.11680     0.11721
      35.310     0.11681     0.11725
      35.320     0.11682     0.11723
      35.330     0.11684     0.11721
      35.340     0.11685     0.11719
      35.350     0.11686     0.11717
      35.360     0.11688     0.11715
      35.370     0.11691     0.11715
      35.380     0.11692     0.11715
      35.390     0.11693     0.11715
      35.400     0.11694     0.11715
      35.410     0.11695     0.11715
      35.420     0.11699     0.11713
      35.430     0.11702     0.11711
      35.440     0.11700     0.11709
      35.450     0.11698     0.11707
      35.460     0.11696     0.11705
      35.470     0.11695     0.11707
      35.480     0.11696     0.11709
      35.490     0.11698     0.11711
      35.500     0.11698     0.11713
      35.510     0.11698     0.11715
      35.520     0.11695     0.11715
      35.530     0.11693     0.11715
      35.540     0.11694     0.11715
      35.550     0.11695     0.11715
      35.560     0.11695     0.11715
      35.570     0.11695     0.11717
      35.580     0.11694     0.11719
      35.590     0.11693     0.11721
      35.600     0.11692     0.11723
      35.610     0.11691     0.11725
      35.620     0.11691     0.11723
      35.630     0.11691     0.11721
      35.640     0.11692     0.11719
      35.650     0.11693     0.11717
      35.660     0.11693     0.11715
      35.670     0.11693     0.11717
      35.680     0.11691     0.11719
      35.690     0.11688     0.11721
      35.700     0.11689     0.11723
      35.710     0.11691     0.11725
      35.720     0.11691     0.11725
      35.730     0.11691     0.11725
      35.740     0.11688     0.11725
      35.750     0.11686     0.11725
      35.760     0.11687     0.11725
      35.770     0.11688     0.11727
      35.780     0.11693     0.11729
      35.790     0.11698     0.11731
      35.800     0.11698     0.11734
      35.810     0.11698     0.11736
      35.820     0.11696     0.11734
      35.830     0.11695     0.11731
      35.840     0.11698     0.11729
      35.850     0.11700     0.11727
      35.860     0.11700     0.11725
      35.870     0.11700     0.11727
      35.880     0.11698     0.11729
      35.890     0.11695     0.11731
      35.900     0.11693     0.11734
      35.910     0.11691     0.11736
      35.920     0.11693     0.11742
      35.930     0.11695     0.11748
      35.940     0.11692     0.11754
      35.950     0.11688     0.11760
      35.960     0.11689     0.11766
      35.970     0.11691     0.11764
      35.980     0.11691     0.11762
      35.990     0.11691     0.11760
      36.000     0.11692     0.11758
      36.010     0.11693     0.11756
      36.020     0.11692     0.11758
      36.030     0.11691     0.11760
