~VERSION INFORMATION SECTION
VERS.           2.0  :CWLS Log ASCII Standard - 2.0
WRAP.           NO   :One line per depth
#               Created in SeisLab
~WELL INFORMATION SECTION
#MNEM.UNIT  VALUE/NAME               :DESCRIPTION    
STRT.m  10                           :Start Depth    
STOP.m  125                          :Stop Depth     
STEP.m  0.01                         :Step           
NULL.    -999.25                     :Null Value     
WELL.    GDP1                        :Well Name      
CTRY.    Switzerland                 :Country        
CNTY.                                :County         
STAT.    Central Swiss Alps          :State          
API .                                :API number     
UWI .                                :Unique well ID 
LOC .    Grimsel Pass, Switzerland   :Well Location  
FLD .    n/a                         :Field          
COMP.    n/a                         :Company        
SRVC.    University of Lausanne      :Service Company
DATE.    2017                        :Date           
~PARAMETER INFORMATION SECTION
#MNEM .UNITS  VALUE   :DESCRIPTION OF PARAMETER
Casing.n/a    1       :slotted PVC casing      
~CURVE INFORMATION SECTION
#MNEM.UNITS  API CODES   :DESCRIPTION OF MNEMONIC
depth.m                  :measured depth         
NG   .cps                :Natural gamma          
Sp   .mV                 :Self potential         
Temp .DegC               :Temperature            
SPR  .Ohm                :Single point resistance
R8   .Ohm.m              :Normal resistivity     
R16  .Ohm.m              :Single point resistance
R32  .Ohm.m              :Normal resistivity     
R64  .Ohm.m              :Normal resistivity     
~A depth       NG          Sp          Temp        SPR         R8          R16         R32         R64         
# ...
     121.000   280.94148   1105.1565     7.96484    -999.250    2410.884    2830.476    3641.865    3632.369
     121.010   281.80880   1105.1874     7.95996    -999.250    2478.307    2852.983    3668.107    3578.516
     121.020   282.74419   1105.2070     7.95508    -999.250    2545.729    2722.155    3747.313    3575.442
     121.030   283.72458   1105.2164     7.95996    -999.250    2609.931    2723.034    3826.520    3572.368
     121.040   284.72878   1105.2172     7.96484    -999.250    2674.134    2723.912    3925.932    3569.295
     121.050   285.73818   1105.2108     7.96680    -999.250    2737.473    2728.371    4025.344    3566.221
     121.060   286.73731   1105.1987     7.96875    -999.250    2800.813    2732.829    4141.127    3563.147
     121.070   287.71417   1105.1822     7.96875    -999.250    2852.944    2736.904    4256.911    3560.073
     121.080   288.66055   1105.1626     7.96875    -999.250    2905.075    2959.114    4323.384    3563.781
     121.090   289.57219   1105.1411     7.96289    -999.250    2949.528    3009.790    4389.857    3564.547
     121.100   290.44880   1105.1186     7.95703    -999.250    2993.981    3101.876    4460.034    3565.313
     121.110   291.29361   1105.0962     7.95703    -999.250    3027.737    3195.389    4530.211    3560.715
     121.120   292.11262   1105.0745     7.95703    -999.250    3061.493    3290.341    4557.607    3556.118
     121.130   292.91382   1105.0541     7.94482    -999.250    3095.965    3386.738    4585.003    3549.275
     121.140   293.70639   1105.0355     7.93262    -999.250    3130.436    3484.573    4572.381    3542.433
     121.150   294.49984   1105.0188     7.95411    -999.250    3167.993    3583.833    4559.759    3543.261
     121.160   295.30286   1105.0045     7.97559    -999.250    3230.177    3684.494    4581.137    3544.089
     121.170   296.12235   1104.9924     7.96290    -999.250    3313.499    3786.522    4602.515    3548.269
     121.180   296.96267   1104.9826     7.95020    -999.250    3396.259    3889.876    4664.673    3552.449
     121.190   297.82571   1104.9751     7.95703    -999.250    3478.490    3994.503    4726.831    3546.102
     121.200   298.71130   1104.9697     7.96387    -999.250    3560.234    4100.344    4887.021    3539.755
     121.210   299.61765   1104.9662     7.96973    -999.250    3641.539    4207.331    5047.210    3524.758
     121.220   300.54141   1104.9643     7.97559    -999.250    3722.461    4315.391    5238.799    3509.761
     121.230   301.47751   1104.9640     7.97706    -999.250    3803.063    4424.443    5430.387    3510.225
     121.240   302.41904   1104.9649     7.97852    -999.250    3883.412    4534.403    5449.911    3510.689
     121.250   303.35730   1104.9667     7.97266    -999.250    3963.582    4645.183    5469.435    3520.497
     121.260   304.28211   1104.9693     7.96680    -999.250    4043.651    4756.691    5417.624    3530.304
     121.270   305.18210   1104.9725     7.97022    -999.250    4123.698    4868.838    5365.813    3530.633
     121.280   306.04510   1104.9760     7.97363    -999.250    4203.808    4981.534    5463.031    3530.962
     121.290   306.85852   1104.9797     7.97217    -999.250    4284.066    5094.689    5560.249    3521.154
     121.300   307.60993   1104.9834     7.97070    -999.250    4364.560    5208.220    5685.382    3511.347
     121.310   308.28747   1104.9870     7.96631    -999.250    4445.376    5322.047    5810.516    3509.134
     121.320   308.88064   1104.9904     7.96191    -999.250    4526.603    5436.097    5936.172    3506.920
     121.330   309.38115   1104.9936     7.97119    -999.250    4608.324    5550.305    6061.828    3508.224
     121.340   309.78376   1104.9964     7.98047    -999.250    4690.626    5664.611    6221.089    3509.528
     121.350   310.08663   1104.9988     7.96875    -999.250    4773.589    5778.970    6380.350    3497.577
     121.360   310.29091   1105.0009     7.95703    -999.250    4857.291    5893.344    6467.358    3485.626
     121.370   310.39979   1105.0026     7.96289    -999.250    4941.807    6007.706    6554.366    3460.911
     121.380   310.41754   1105.0039     7.96875    -999.250    5027.207    6122.041    6625.646    3436.196
     121.390   310.34886   1105.0048     7.96778    -999.250    5113.556    6236.345    6696.926    3415.309
     121.400   310.19876   1105.0055     7.96680    -999.250    5200.911    6350.627    6851.133    3394.421
     121.410   309.97263   1105.0058     7.97608    -999.250    5289.327    6464.905    7005.339    3377.822
     121.420   309.67661   1105.0059     7.98535    -999.250    5378.848    6579.209    7117.817    3361.223
     121.430   309.31774   1105.0058     7.98291    -999.250    5469.513    6693.580    7230.295    3349.028
     121.440   308.90431   1105.0055     7.98047    -999.250    5561.353    6808.067    7325.055    3336.833
     121.450   308.44603   1105.0051     7.98145    -999.250    5654.390    6922.728    7419.816    3321.085
     121.460   307.95397   1105.0046     7.98242    -999.250    5748.638    7037.627    7595.583    3305.338
     121.470   307.44012   1105.0041     7.98388    -999.250    5844.103    7152.836    7771.350    3285.290
     121.480   306.91678   1105.0035     7.98535    -999.250    5940.782    7268.427    7880.279    3265.242
     121.490   306.39597   1105.0028     7.97363    -999.250    6038.662    7384.480    4164.189    3253.315
     121.500   305.88889   1105.0022     7.96191    -999.250    6137.721    7501.070    4237.138    3241.387
     121.510   305.40511   1105.0017     7.95068    -999.250    6237.930    7618.275    4309.097    3226.881
     121.520   304.95180   1105.0012     7.93945    -999.250    6339.248    7736.169    4381.055    3212.376
     121.530   304.53319   1105.0007     7.95166    -999.250    6441.627    7854.821    4450.498    3200.340
     121.540   304.15073   1105.0003     7.96387    -999.250    6545.010    7974.292    4519.940    3188.303
     121.550   303.80372   1104.9999     7.97461    -999.250    6649.334    8094.639    4598.881    3185.946
     121.560   303.49019   1104.9996     7.98535    -999.250    6754.524    8215.906    4677.821    3183.589
     121.570   303.20751   1104.9994     7.98535    -999.250    6860.501    8338.126    4759.524    3186.418
     121.580   302.95279   1104.9992     7.98535    -999.250    6967.180    8461.322    4841.228    -999.250
     121.590   302.72310   1104.9991     7.97509    -999.250    7074.466    8585.500    4912.520    -999.250
     121.600   302.51585   1104.9990     7.96484    -999.250    7182.264    8710.653    4983.813    -999.250
     121.610   302.32923   1104.9990     7.97119    -999.250    7290.471    8836.760    5037.430    -999.250
     121.620   302.16241   1104.9990     7.97754    -999.250    7398.980    8963.783    5091.048    -999.250
     121.630   302.01545   1104.9991     7.97119    -999.250    7507.683    9091.666    5129.227    -999.250
     121.640   301.88885   1104.9991     7.96484    -999.250    7616.470    9220.340    5167.407    -999.250
     121.650  -999.25000   1104.9992     7.97021    -999.250    7725.229    9349.718    5212.010    -999.250
     121.660  -999.25000   1104.9993     7.97559    -999.250    7833.846    9479.696    5256.614    -999.250
     121.670  -999.25000   1104.9994     7.96631    -999.250    7942.211    9610.159    5304.376    -999.250
     121.680  -999.25000   1104.9995     7.95703    -999.250    8050.212    9740.973    5352.138    -999.250
     121.690  -999.25000   1104.9996     7.96728    -999.250    8157.742    9871.993    5392.547    -999.250
     121.700  -999.25000   1104.9997     7.97754    -999.250    8264.694   10003.063    5432.955    -999.250
     121.710  -999.25000   1104.9998     7.97998    -999.250    8370.966   10134.015    5462.674    -999.250
     121.720  -999.25000   1104.9999     7.98242    -999.250    8476.459   10264.671    5492.394    -999.250
     121.730  -999.25000   1104.9999     7.98731    -999.250    8581.079   10394.846    5526.467    -999.250
