~VERSION INFORMATION SECTION
VERS.           2.0  :CWLS Log ASCII Standard - 2.0
WRAP.           NO   :One line per depth
#               Created in SeisLab
~WELL INFORMATION SECTION
#MNEM.UNIT  VALUE/NAME               :DESCRIPTION    
STRT.m  10                           :Start Depth    
STOP.m  125                          :Stop Depth     
STEP.m  0.01                         :Step           
NULL.    -999.25                     :Null Value     
WELL.    GDP1                        :Well Name      
CTRY.    Switzerland                 :Country        
CNTY.                                :County         
STAT.    Central Swiss Alps          :State          
API .                                :API number     
UWI .                                :Unique well ID 
LOC .    Grimsel Pass, Switzerland   :Well Location  
FLD .    n/a                         :Field          
COMP.    n/a                         :Company        
SRVC.    University of Lausanne      :Service Company
DATE.    2015                        :Date           
~PARAMETER INFORMATION SECTION
#MNEM .UNITS    VALUE   :DESCRIPTION OF PARAMETER
Casing.n/a      0       :open hole               
Mud   .Polymer  1       :Mud type                
~CURVE INFORMATION SECTION
#MNEM.UNITS  API CODES   :DESCRIPTION OF MNEMONIC
depth.m                  :measured depth         
NG   .cps                :Natural gamma          
Sp   .mV                 :Self potential         
Temp .DegC               :Temperature            
SPR  .Ohm                :Single point resistance
R8   .Ohm.m              :Normal resistivity     
R16  .Ohm.m              :Single point resistance
R32  .Ohm.m              :Normal resistivity     
R64  .Ohm.m              :Normal resistivity     
~A depth       NG          Sp          Temp        SPR         R8          R16         R32         R64         
# ...
     108.420   288.48634    594.0870     9.03760    9257.455    5789.121    5310.799    5831.301    3848.592
     108.430   289.66067    592.1107     9.03418    9441.213    5907.066    5347.313    5825.265    3851.478
     108.440   290.92509    590.0206     9.01465    9627.721    6025.751    5383.083    5819.268    3855.221
     108.450   292.26739    587.8391     8.99512    9816.100    6144.772    5418.170    5813.521    3859.949
     108.460   293.67493    585.5853     9.00098   10005.460    6263.721    5452.639    5808.229    3865.785
     108.470   295.13481    583.2766     9.00684   10194.904    6382.194    5486.566    5803.586    3872.851
     108.480   296.63409    580.9297     9.02735   10383.534    6499.792    5520.032    5799.778    3881.260
     108.490   298.15990    578.5632     9.04785   10570.459    6616.123    5553.124    5796.977    3891.121
     108.500   299.69953    576.1987     9.04834   10754.805    6730.805    5585.931    5795.342    3902.534
     108.510   301.24059    573.8626     9.04883   10935.717    6843.472    5618.548    5795.016    3915.590
     108.520   302.77113    571.5867     9.05762   11112.369    6953.771    5651.070    5796.127    3930.370
     108.530   304.27983    569.4087     9.06641   11283.970    7061.369    5683.591    5798.785    3946.944
     108.540   305.75615    567.3716     9.05372   11449.770    7165.951    5716.207    5803.080    3965.371
     108.550   307.19048    565.5241     9.04102   11609.065    7267.227    5749.009    5809.086    3985.695
     108.560   308.57424    563.9190     9.04346   11761.202    7364.929    5782.084    5816.854    4007.950
     108.570   309.89998    562.6125     9.04590   11905.585    7458.816    5815.516    5826.419    4032.151
     108.580   311.16145    561.6613     9.03907   12041.681    7548.671    5849.378    5837.792    4058.301
     108.590   312.35363    561.1193     9.03223   12169.018    7634.306    5883.741    5850.965    4086.385
     108.600   313.47265    561.0332     9.02979   12287.193    7715.562    5918.661    5865.910    4116.375
     108.610   314.51567    561.4382     9.02734   12395.872    7792.307    5954.188    5882.581    4148.224
     108.620   315.48074    562.3527     9.02392   12494.794    7864.439    5990.358    5900.910    4181.868
     108.630   316.36658    563.7754     9.02051   12583.766    7931.884    6027.197    5920.812    4217.229
     108.640   317.17237    565.6826     9.00244   12662.672    7994.594    6064.717    5942.184    4254.210
     108.650   317.89756    568.0272     8.98438   12731.465    8052.552    6102.916    5964.906    4292.700
     108.660   318.54174    570.7398     8.98682   12790.170    8105.764    6141.778    5988.844    4332.570
     108.670   319.10459    573.7312     8.98926   12838.880    8154.264    6181.273    6013.847    4373.677
     108.680   319.58591    576.8967     8.96289   12877.756    8198.109    6221.357    6039.754    4415.864
     108.690   319.98567    580.1210     8.93652   12907.020    8237.377    6261.968    6066.391    4458.959
     108.700   320.30415    583.2845     8.96045   12926.957    8272.169    6303.033    6093.576    4502.780
     108.710   320.54196    586.2697     8.98438   12937.905    8302.602    6344.463    6121.118    4547.130
     108.720   320.70009    588.9675     8.95361   12940.254    8328.811    6386.153    6148.818    4591.806
     108.730   320.77996    591.2826     8.92285   12934.441    8350.946    6427.987    6176.477    4636.596
     108.740   320.78326    593.1380     8.92822   12920.942    8369.168    6469.836    6203.890    4681.278
     108.750   320.71202    594.4789     8.93359   12900.270    8383.649    6511.556    6230.854    4725.629
     108.760   320.56855    595.2738     8.95068   12872.965    8394.569    6552.995    6257.164    4769.420
     108.770   320.35560    595.5160     8.96777   12839.593    8402.112    6593.988    6282.622    4812.422
     108.780   320.07649    595.2222     8.95214   12800.734    8406.466    6634.364    6307.034    4854.407
     108.790   319.73532    594.4308     8.93652   12756.980    8407.821    6673.942    6330.211    4895.148
     108.800   319.33703    593.1991     8.93847   12708.930    8406.364    6712.535    6351.976    4934.424
     108.810   318.88747    591.5999     8.94043   12657.178    8402.279    6749.952    6372.159    4972.019
     108.820   318.39340    589.7164     8.92139   12602.314    8395.746    6785.997    6390.604    5007.727
     108.830   317.86241    587.6383     8.90234   12544.915    8386.938    6820.473    6407.168    5041.351
     108.840   317.30288    585.4561     8.89843   12485.537    8376.018    6853.182    6421.723    5072.707
     108.850   316.72383    583.2563     8.89453   12424.718    8363.139    6883.929    6434.157    5101.626
     108.860   316.13480    581.1166     8.91064   12362.964    8348.444    6912.521    6444.374    5127.952
     108.870   315.54567    579.1016     8.92676   12300.753    8332.063    6938.768    6452.296    5151.549
     108.880   314.96640    577.2602     8.92090   12238.526    8314.112    6962.488    6457.866    5172.298
     108.890   314.40680    575.6231     8.91504   12176.685    8294.692    6983.507    6461.043    5190.100
     108.900   313.87624    574.2036     8.90185   12115.592    8273.892    7001.659    6461.807    5204.877
     108.910   313.38338    572.9989     8.88867   12055.565    8251.783    7016.788    6460.159    5216.573
     108.920   312.93597    571.9937     8.91211   11996.875    8228.424    7028.754    6456.118    5225.153
     108.930   312.54072    571.1639     8.93555   11939.750    8203.857    7037.427    6449.724    5230.608
     108.940   312.20318    570.4812     8.92188   11884.369    8178.109    7042.692    6441.036    5232.949
     108.950   311.92774    569.9157     8.90820   11830.865    8151.196    7044.454    6430.132    5232.212
     108.960   311.71756    569.4391     8.91504   11779.323    8123.118    7042.630    6417.108    5228.455
     108.970   311.57448    569.0253     8.92188   11729.784    8093.863    7037.159    6402.080    5221.759
     108.980   311.49889    568.6516     8.91992   11682.243    8063.409    7027.997    6385.176    5212.229
     108.990   311.48966    568.2987     8.91797   11636.654    8031.723    7015.120    6366.544    5199.988
     109.000   311.54405    567.9506     8.91309   11592.930    7998.764    6998.524    6346.345    5185.182
     109.010   311.65777    567.5942     8.90820   11550.946    7964.483    6978.227    6324.750    5167.974
     109.020   311.82504    567.2201     8.90723   11510.544    7928.826    6954.267    6301.946    5148.547
     109.030   312.03881    566.8216     8.90625   11471.532    7891.735    6926.702    6278.128    5127.098
     109.040   312.29092    566.3962     8.89502   11433.691    7853.150    6895.613    6253.498    5103.842
     109.050   312.57230    565.9448     8.88379   11396.780    7813.011    6861.101    6228.266    5079.002
     109.060   312.87323    565.4724     8.88232   11360.534    7771.259    6823.287    6202.648    5052.816
     109.070   313.18359    564.9881     8.88086   11324.673    7727.837    6782.311    6176.860    5025.528
     109.080   313.49314    564.5039     8.91308   11288.908    7682.696    6738.336    6151.121    4997.391
     109.090   313.79181    564.0345     8.94531   11252.937    7635.789    6691.540    6125.651    4968.662
     109.100   314.06999    563.5950     8.93848   11216.458    7587.083    6642.119    6100.665    4939.599
     109.110   314.31883    563.1999     8.93164   11179.168    7536.551    6590.287    6076.374    4910.462
     109.120   314.53052    562.8607     8.91992   11140.770    7484.178    6536.273    6052.986    4881.507
     109.130   314.69857    562.5842     8.90820   11100.973    7429.961    6480.318    6030.697    4852.988
     109.140   314.81803    562.3715     8.93164   11059.501    7373.914    6422.679    6009.698    4825.151
     109.150   314.88563    562.2169     8.95508   11016.095    7316.063    6363.620    5990.166    4798.233
