~VERSION INFORMATION SECTION
VERS.           2.0  :CWLS Log ASCII Standard - 2.0
WRAP.           NO   :One line per depth
#               Created in SeisLab
~WELL INFORMATION SECTION
#MNEM.UNIT  VALUE/NAME               :DESCRIPTION    
STRT.m  10                           :Start Depth    
STOP.m  125                          :Stop Depth     
STEP.m  0.01                         :Step           
NULL.    -999.25                     :Null Value     
WELL.    GDP1                        :Well Name      
CTRY.    Switzerland                 :Country        
CNTY.                                :County         
STAT.    Central Swiss Alps          :State          
API .                                :API number     
UWI .                                :Unique well ID 
LOC .    Grimsel Pass, Switzerland   :Well Location  
FLD .    n/a                         :Field          
COMP.    n/a                         :Company        
SRVC.    University of Lausanne      :Service Company
DATE.    2015                        :Date           
~PARAMETER INFORMATION SECTION
#MNEM .UNITS    VALUE   :DESCRIPTION OF PARAMETER
Casing.n/a      0       :open hole               
Mud   .Polymer  1       :Mud type                
~CURVE INFORMATION SECTION
#MNEM.UNITS  API CODES   :DESCRIPTION OF MNEMONIC
depth.m                  :measured depth         
NG   .cps                :Natural gamma          
Sp   .mV                 :Self potential         
Temp .DegC               :Temperature            
SPR  .Ohm                :Single point resistance
R8   .Ohm.m              :Normal resistivity     
R16  .Ohm.m              :Single point resistance
R32  .Ohm.m              :Normal resistivity     
R64  .Ohm.m              :Normal resistivity     
~A depth       NG          Sp          Temp        SPR         R8          R16         R32         R64         
# ...
      86.220   258.48891    580.1416    10.54685    3505.916     494.473     488.680     547.845     852.278
      86.230   258.78246    578.3619    10.54490    3516.637     497.210     487.418     549.094     863.303
      86.240   259.06394    576.7436    10.54590    3526.019     499.925     486.303     550.696     874.489
      86.250   259.33003    575.3136    10.54690    3534.041     502.621     485.346     552.631     885.770
      86.260   259.57732    574.0918    10.54785    3540.688     505.302     484.562     554.881     897.077
      86.270   259.80232    573.0917    10.54880    3545.947     507.971     483.963     557.424     908.342
      86.280   260.00160    572.3204    10.55465    3549.814     510.630     483.558     560.237     919.497
      86.290   260.17194    571.7793    10.56050    3552.287     513.282     483.357     563.299     930.473
      86.300   260.31051    571.4639    10.56250    3553.370     515.929     483.369     566.585     941.202
      86.310   260.41507    571.3645    10.56450    3553.072     518.573     483.600     570.072     951.616
      86.320   260.48414    571.4650    10.55570    3551.410     521.215     484.056     573.737     961.652
      86.330   260.51723    571.7434    10.54690    3548.404     523.856     484.741     577.557     971.243
      86.340   260.51488    572.1714    10.54495    3544.081     526.498     485.658     581.508     980.330
      86.350   260.47877    572.7152    10.54300    3538.475     529.140     486.807     585.569     988.854
      86.360   260.41154    573.3362    10.51370    3531.625     531.782     488.190     589.716     996.758
      86.370   260.31661    573.9929    10.48440    3523.576     534.424     489.803     593.930    1003.992
      86.380   260.19800    574.6431    10.48635    3514.380     537.065     491.644     598.189    1010.506
      86.390   260.06006    575.2462    10.48830    3504.095     539.702     493.709     602.476    1016.257
      86.400   259.90729    575.7657    10.50880    3492.786     542.333     495.991     606.773    1021.204
      86.410   259.74408    576.1721    10.52930    3480.521     544.957     498.484     611.062    1025.314
      86.420   259.57451    576.4443    10.53030    3467.377     547.570     501.179     615.329    1028.556
      86.430   259.40216    576.5711    10.53130    3453.435     550.168     504.066     619.560    1030.907
      86.440   259.22994    576.5516    10.55080    3438.783     552.749     507.135     623.742    1032.345
      86.450   259.05992    576.3943    10.57030    3423.513     555.308     510.373     627.864    1032.859
      86.460   258.89325    576.1160    10.55175    3407.721     557.840     513.769     631.917    1032.440
      86.470   258.73000    575.7388    10.53320    3391.510     560.340     517.309     635.892    1031.085
      86.480   258.56919    575.2879    10.53810    3374.986     562.805     520.978     639.782    1028.798
      86.490   258.40880    574.7877    10.54300    3358.257     565.229     524.761     643.582    1025.589
      86.500   258.24581    574.2604    10.51565    3341.438     567.606     528.643     647.287    1021.471
      86.510   258.07643    573.7232    10.48830    3324.645     569.932     532.607     650.893    1016.466
      86.520   257.89624    573.1885    10.51855    3307.994     572.202     536.639     654.399    1010.599
      86.530   257.70048    572.6638    10.54880    3291.606     574.410     540.720     657.802    1003.902
      86.540   257.48432    572.1527    10.52635    3275.601     576.551     544.835     661.103     996.411
      86.550   257.24316    571.6573    10.50390    3260.101     578.621     548.966     664.300     988.166
      86.560   256.97285    571.1795    10.52150    3245.227     580.614     553.097     667.395     979.214
      86.570   256.66994    570.7234    10.53910    3231.099     582.528     557.213     670.390     969.605
      86.580   256.33186    570.2956    10.52735    3217.835     584.357     561.296     673.285     959.393
      86.590   255.95718    569.9060    10.51560    3205.550     586.098     565.332     676.083     948.635
      86.600   255.54560    569.5663    10.54295    3194.359     587.749     569.304     678.786     937.393
      86.610   255.09798    569.2889    10.57030    3184.369     589.305     573.200     681.395     925.728
      86.620   254.61602    569.0847    10.56345    3175.686     590.766     577.004     683.913     913.708
      86.630   254.10210    568.9617    10.55660    3168.407     592.129     580.704     686.342     901.400
      86.640   253.55902    568.9235    10.52930    3162.627     593.392     584.288     688.684     888.872
      86.650   252.99001    568.9690    10.50200    3158.432     594.556     587.744     690.940     876.195
      86.660   252.39882    569.0922    10.51665    3155.899     595.620     591.061     693.112     863.439
      86.670   251.78980    569.2835    10.53130    3155.099     596.584     594.230     695.202     850.673
      86.680   251.16809    569.5312    10.52640    3156.095     597.450     597.243     697.208     837.968
      86.690   250.53968    569.8232    10.52150    3158.938     598.219     600.092     699.133     825.392
      86.700   249.91156    570.1484    10.50975    3163.670     598.892     602.770     700.976     813.011
      86.710   249.29167    570.4981    10.49800    3170.323     599.472     605.273     702.737     800.890
      86.720   248.68891    570.8661    10.53515    3178.918     599.962     607.595     704.415     789.092
      86.730   248.11303    571.2490    10.57230    3189.462     600.365     609.734     706.009     777.676
      86.740   247.57441    571.6453    10.53225    3201.954     600.685     611.687     707.519     766.698
      86.750   247.08377    572.0550    10.49220    3216.379     600.926     613.453     708.942     756.210
      86.760   246.65188    572.4787    10.49805    3232.709     601.091     615.033     710.278     746.260
      86.770   246.28905    572.9177    10.50390    3250.904     601.186     616.427     711.525     736.893
      86.780   246.00475    573.3741    10.52540    3270.911     601.216     617.636     712.681     728.149
      86.790   245.80708    573.8514    10.54690    3292.666     601.184     618.665     713.745     720.061
      86.800   245.70244    574.3559    10.53420    3316.090     601.096     619.515     714.715     712.659
      86.810   245.69523    574.8979    10.52150    3341.094     600.958     620.193     715.590     705.969
      86.820   245.78779    575.4917    10.51760    3367.575     600.773     620.702     716.370     700.008
      86.830   245.98045    576.1557    10.51370    3395.419     600.547     621.051     717.054     694.792
      86.840   246.27167    576.9111    10.54200    3424.500     600.284     621.244     717.641     690.329
      86.850   246.65840    577.7800    10.57030    3454.683     599.990     621.289     718.133     686.622
      86.860   247.13632    578.7825    10.53025    3485.821     599.669     621.195     718.530     683.671
      86.870   247.69998    579.9347    10.49020    3517.758     599.324     620.971     718.834     681.469
      86.880   248.34294    581.2460    10.50290    3550.331     598.961     620.624     719.048     680.004
      86.890   249.05775    582.7171    10.51560    3583.367     598.582     620.164     719.173     679.261
      86.900   249.83595    584.3393    10.52440    3616.687     598.191     619.602     719.214     679.220
      86.910   250.66809    586.0940    10.53320    3650.109     597.791     618.947     719.176     679.856
      86.920   251.54369    587.9535    10.51955    3683.443     597.385     618.209     719.062     681.142
      86.930   252.45122    589.8822    10.50590    3716.498     596.975     617.399     718.881     683.047
      86.940   253.37804    591.8385    10.53320    3749.080     596.562     616.528     718.637     685.536
      86.950   254.31043    593.7773    10.56050    3780.995     596.149     615.606     718.339     688.572
