~VERSION INFORMATION SECTION
VERS.           2.0  :CWLS Log ASCII Standard - 2.0
WRAP.           NO   :One line per depth
#               Created in SeisLab
~WELL INFORMATION SECTION
#MNEM.UNIT  VALUE/NAME               :DESCRIPTION    
STRT.m  10                           :Start Depth    
STOP.m  125                          :Stop Depth     
STEP.m  0.01                         :Step           
NULL.    -999.25                     :Null Value     
WELL.    GDP1                        :Well Name      
CTRY.    Switzerland                 :Country        
CNTY.                                :County         
STAT.    Central Swiss Alps          :State          
API .                                :API number     
UWI .                                :Unique well ID 
LOC .    Grimsel Pass, Switzerland   :Well Location  
FLD .    n/a                         :Field          
COMP.    n/a                         :Company        
SRVC.    University of Lausanne      :Service Company
DATE.    2016                        :Date           
~PARAMETER INFORMATION SECTION
#MNEM .UNITS  VALUE   :DESCRIPTION OF PARAMETER
Casing.n/a    1       :slotted PVC casing      
~CURVE INFORMATION SECTION
#MNEM.UNITS  API CODES   :DESCRIPTION OF MNEMONIC
depth.m                  :measured depth         
NG   .cps                :Natural gamma          
Sp   .mV                 :Self potential         
Temp .DegC               :Temperature            
SPR  .Ohm                :Single point resistance
R8   .Ohm.m              :Normal resistivity     
R16  .Ohm.m              :Single point resistance
R32  .Ohm.m              :Normal resistivity     
R64  .Ohm.m              :Normal resistivity     
~A depth       NG          Sp          Temp        SPR         R8          R16         R32         R64         
# ...
      40.340   340.37934   1048.0000     6.72233   21430.283   17157.556   21503.855   11828.162    8716.607
      40.350   340.91394   1048.0000     6.73926   21386.825   16972.742   21322.899   11799.735    8758.492
      40.360   341.42018   1048.0000     6.72526   21343.367   16685.704   21132.218   11760.869    8799.455
      40.370   341.87753   1048.0000     6.71127   21299.908   16398.665   20932.269   11711.348    8839.710
      40.380   342.26396   1048.0000     6.69727   21256.450   16111.627   20723.497   11651.014    8879.464
      40.390   342.55521   1048.0000     6.68978   21212.992   16125.533   20506.336   11579.766    8918.905
      40.400   342.72402   1048.0000     6.68229   21169.533   16139.440   20281.209   11497.563    8958.210
      40.410   342.73975   1048.0000     6.67480   21126.075   16153.347   20048.519   11404.423    8997.531
      40.420   342.56862   1048.0000     6.68945   21082.617   16405.683   19808.658   11300.428    9037.002
      40.430   342.17507   1048.0000     6.70410   21039.158   16658.019   19561.999   11185.716    9076.728
      40.440   341.52386   1048.0000     6.70020   20995.700   16527.091   19308.895   11060.488    9116.789
      40.450   340.58237   1048.0000     6.69629   20913.875   16396.162   19049.686   10925.002    9157.235
      40.460   339.32237   1048.0000     6.69238   20832.050   16265.234   18784.691   10779.574    9198.083
      40.470   337.72109   1048.0000     6.68848   20750.225   16134.306   18514.213   10624.575    9239.319
      40.480   335.76199   1048.0000     6.68946   20668.400   15879.957   18238.540   10460.429    9280.894
      40.490   333.43540   1048.0000     6.69043   20586.575   15625.609   17957.942   10287.611    9322.724
      40.500   330.73941   1048.0000     6.69141   20504.750   15371.261   17672.678   10106.643    9364.691
      40.510   327.68065   1048.0000     6.66357   20422.925   15388.986   17382.992    9918.091    9406.641
      40.520   324.27456   1048.0000     6.63574   20341.100   15406.711   17089.118    9722.562    9448.383
      40.530   320.54510   1048.0000     6.63916   20259.275   15477.497   16791.279    9520.698    9489.696
      40.540   316.52382   1048.0000     6.64258   20177.450   15548.283   16489.694    9313.177    9530.322
      40.550   312.24871   1048.0000     6.64599   20095.625   15619.068   16184.573    9100.701    9569.971
      40.560   307.76305   1048.0000     6.64941   20013.800   15689.854   15876.125    8884.000    9608.326
      40.570   303.11449   1048.0000     6.66699   19753.100   15521.888   15564.555    8663.820    9645.037
      40.580   298.35439   1048.0000     6.68457   19492.400   15353.922   15250.070    8440.924    9679.732
      40.590   293.53737   1048.0000     6.70215   19231.700   15185.956   14932.880    8216.084    9712.013
      40.600   288.72099   1048.0000     6.68164   18758.300   14667.855   14613.197    7990.077    9741.462
      40.610   283.96505   1048.0000     6.66113   18284.900   14149.753   14291.243    7763.680    9767.645
      40.620   279.33046   1048.0000     6.65136   18355.000   14068.712   13967.243    7537.668    9790.113
      40.630   274.87755   1048.0000     6.64160   18425.100   13987.670   13641.435    7312.806    9808.405
      40.640   270.66396   1048.0000     6.63183   18495.200   13906.628   13314.067    7089.846    9822.055
      40.650   266.74256   1048.0000     6.62207   18565.300   13825.587   12985.397    6869.523    9830.594
      40.660   263.15971   1048.0000     6.62207   18775.967   13731.722   12655.697    6652.550    9833.554
      40.670   259.95442   1048.0000     6.62207   18986.633   13637.857   12325.254    6439.617    9830.471
      40.680   257.15826   1048.0000     6.62207   19197.300   13543.992   11994.366    6231.381    9820.891
      40.690   254.79571   1048.0000     6.64404   18871.450   13050.544   11663.348    6028.471    9804.373
      40.700   252.88427   1048.0000     6.66602   18545.600   12557.096   11332.527    5831.476    9780.494
      40.710   251.43420   1048.0000     6.65674   18264.825   12304.953   11002.247    5640.951    9748.852
      40.720   250.44814   1048.0000     6.64747   17984.050   12052.811   10672.863    5457.407    9709.069
      40.730   249.92111   1048.0000     6.63819   17703.275   11800.668   10344.744    5281.313    9660.798
      40.740   249.84107   1048.0000     6.62891   17422.500   11548.526   10018.272    5113.092    9603.725
      40.750   250.18992   1048.0000     6.61914   17375.600   11255.321    9693.837    4953.121    9537.571
      40.760   250.94469   1048.0000     6.60938   17328.700   10962.116    9371.843    4801.729    9462.099
      40.770   252.07877   1048.0000     6.59961   17281.800   10668.911    9052.699    4659.196    9377.112
      40.780   253.56308   1048.0000     6.60319   17224.000   10377.305    8736.820    4525.752    9282.461
      40.790   255.36716   1048.0000     6.60677   17166.200   10085.700    8424.627    4401.578    9178.044
      40.800   257.46012   1048.0000     6.61035   17108.400    9794.094    8116.543    4286.803    9063.811
      40.810   259.81144   1048.0000     6.63134   16555.100    9324.719    7812.990    4181.510    8939.761
      40.820   262.39135   1048.0000     6.65234   16001.800    8855.343    7514.389    4085.731    8805.952
      40.830   265.17088   1048.0000     6.64551   15690.050    8596.447    7221.156    3999.450    8662.492
      40.840   268.12165   1048.0000     6.63867   15378.300    8337.551    6933.701    3922.607    8509.547
      40.850   271.21555   1048.0000     6.63183   15066.550    8078.655    6652.425    3855.094    8347.339
      40.860   274.42444   1048.0000     6.62500   14754.800    7819.759    6377.715    3796.761    8176.145
      40.870   277.71980   1048.0000     6.60742   14483.900    7512.178    6109.946    3747.419    7996.300
      40.880   281.07245   1048.0000     6.58985   14213.000    7204.596    5849.476    3706.836    7808.188
      40.890   284.45234   1048.0000     6.57227   13942.100    6897.015    5596.646    3674.747    7612.252
      40.900   287.82834   1048.0000     6.58041   13646.367    6597.927    5351.772    3650.850    7408.982
      40.910   291.16832   1048.0000     6.58854   13350.633    6298.839    5115.152    3634.814    7198.919
      40.920   294.43940   1048.0000     6.59668   13054.900    5999.751    4887.055    3626.279    6982.648
      40.930   297.60877   1048.0000     6.60677   12699.700    5713.740    4667.726    3624.858    6760.800
      40.940   300.64508   1048.0000     6.61686   12344.500    5427.728    4457.380    3630.144    6534.043
      40.950   303.52022   1048.0000     6.62695   11989.300    5141.716    4256.205    3641.708    6303.082
      40.960   306.21116   1048.0000     6.62532   11620.833    4818.587    4064.354    3659.106    6068.655
      40.970   308.70111   1048.0000     6.62370   11252.367    4495.458    3881.952    3681.881    5831.526
      40.980   310.97969   1048.0000     6.62207   10883.900    4172.328    3709.090    3709.565    5592.482
      40.990   313.04223   1048.0000     6.60840   10460.050    3762.271    3545.824    3741.682    5352.327
      41.000   314.88872   1048.0000     6.59473   10036.200    3352.213    3392.180    3777.754    5111.880
      41.010   316.52285   1048.0000     6.59693    9854.850    3185.923    3248.148    3817.301    4871.968
      41.020   317.95140   1048.0000     6.59913    9673.500    3019.633    3113.684    3859.845    4633.419
      41.030   319.18429   1048.0000     6.60132    9492.150    2853.343    2988.714    3904.911    4397.059
      41.040   320.23486   1048.0000     6.60352    9310.800    2687.053    2873.130    3952.033    4163.708
      41.050   321.12005   1048.0000     6.60840    9055.120    2512.995    2766.792    4000.754    3934.171
      41.060   321.86024   1048.0000     6.61328    8799.440    2338.937    2669.529    4050.629    3709.236
      41.070   322.47844   1048.0000     6.61816    8543.760    2164.880    2581.144    4101.227    3489.671
