~VERSION INFORMATION SECTION
VERS.           2.0  :CWLS Log ASCII Standard - 2.0
WRAP.           NO   :One line per depth
#               Created in SeisLab
~WELL INFORMATION SECTION
#MNEM.UNIT  VALUE/NAME               :DESCRIPTION    
STRT.m  10                           :Start Depth    
STOP.m  124                          :Stop Depth     
STEP.m  0.01                         :Step           
NULL.    -999.25                     :Null Value     
WELL.    GDP1                        :Well Name      
CTRY.    Switzerland                 :Country        
CNTY.                                :County         
STAT.    Central Swiss Alps          :State          
API .                                :API number     
UWI .                                :Unique well ID 
LOC .    Grimsel pass, Switzerland   :Well Location  
FLD .    n/a                         :Field          
COMP.    n/a                         :Company        
SRVC.    University of Lausanne      :Service Company
DATE.    2015                        :Date           
~PARAMETER INFORMATION SECTION
#MNEM .UNITS    VALUE   :DESCRIPTION OF PARAMETER
Casing.n/a      0       :open hole               
Mud   .Polymer  1       :Mud type                
~CURVE INFORMATION SECTION
#MNEM.UNITS  API CODES   :DESCRIPTION OF MNEMONIC      
depth.m                  :measured depth (interpolated)
Cal  .mm                 :Caliper                      
NN   .cps                :Neutron-Neutron              
GG   .cps                :Gamma-Gamma                  
~A depth       Cal         NN          GG          
      10.000   103.15455   1100.0905   1343.3815
      10.010   103.15500   1100.4120   1356.0180
      10.020   103.15545   1106.3255   1343.2380
      10.030   103.15590   1112.2390   1330.4580
      10.040   103.15590   1105.8785   1329.7855
      10.050   103.15590   1099.5180   1329.1130
      10.060   103.15660   1111.3170   1335.8675
      10.070   103.15730   1123.1160   1342.6220
      10.080   103.15800   1148.1950   1359.6930
      10.090   103.15870   1173.2740   1376.7640
      10.100   103.15835   1186.3020   1358.5155
      10.110   103.15800   1199.3300   1340.2670
      10.120   103.15690   1199.5560   1322.5145
      10.130   103.15580   1199.7820   1304.7620
      10.140   103.15550   1191.2025   1314.1975
      10.150   103.15520   1182.6230   1323.6330
      10.160   103.15555   1191.0320   1322.4840
      10.170   103.15590   1199.4410   1321.3350
      10.180   103.15625   1176.4590   1317.5495
      10.190   103.15660   1153.4770   1313.7640
      10.200   103.15485   1107.0220   1310.9425
      10.210   103.15310   1060.5670   1308.1210
      10.220   103.15345   1027.5413   1308.5115
      10.230   103.15380    994.5156   1308.9020
      10.240   103.15710    963.9891   1305.9895
      10.250   103.16040    933.4627   1303.0770
      10.260   103.16270    905.0307   1289.2655
      10.270   103.16500    876.5986   1275.4540
      10.280   103.16670    850.4253   1278.9875
      10.290   103.16840    824.2520   1282.5210
      10.300   103.16740    794.4895   1290.0850
      10.310   103.16640    764.7270   1297.6490
      10.320   103.16915    733.5557   1302.9055
      10.330   103.17190    702.3843   1308.1620
      10.340   103.17605    691.8229   1301.4110
      10.350   103.18020    681.2615   1294.6600
      10.360   103.18290    656.4159   1287.1795
      10.370   103.18560    631.5704   1279.6990
      10.380   103.18640    597.6956   1279.1670
      10.390   103.18720    563.8209   1278.6350
      10.400   103.19070    560.6268   1271.5170
      10.410   103.19420    557.4326   1264.3990
      10.420   103.19835    556.3381   1256.5950
      10.430   103.20250    555.2435   1248.7910
      10.440   103.20215    554.8863   1244.0510
      10.450   103.20180    554.5291   1239.3110
      10.460   103.19870    540.9216   1236.3605
      10.470   103.19560    527.3141   1233.4100
      10.480   103.19035    522.6273   1230.4295
      10.490   103.18510    517.9406   1227.4490
      10.500   103.18510    519.7937   1223.0775
      10.510   103.18510    521.6467   1218.7060
      10.520   103.18500    517.6526   1225.6065
      10.530   103.18490    513.6584   1232.5070
      10.540   103.18500    507.5987   1236.5400
      10.550   103.18510    501.5390   1240.5730
      10.560   103.18440    494.2767   1228.9085
      10.570   103.18370    487.0144   1217.2440
      10.580   103.18300    485.7200   1235.7510
      10.590   103.18230    484.4256   1254.2580
      10.600   103.18335    482.8328   1266.4245
      10.610   103.18440    481.2400   1278.5910
      10.620   103.18440    481.1621   1252.1855
      10.630   103.18440    481.0841   1225.7800
      10.640   103.18440    506.9457   1237.8020
      10.650   103.18440    532.8072   1249.8240
      10.660   103.18440    530.9614   1264.8810
      10.670   103.18440    529.1156   1279.9380
      10.680   103.18510    506.8897   1274.6385
      10.690   103.18580    484.6639   1269.3390
      10.700   103.18685    479.0726   1270.4425
      10.710   103.18790    473.4813   1271.5460
      10.720   103.18580    466.6504   1275.4285
      10.730   103.18370    459.8195   1279.3110
      10.740   103.18370    453.4536   1285.6840
      10.750   103.18370    447.0876   1292.0570
      10.760   103.19830    461.9848   1292.8930
      10.770   103.21290    476.8821   1293.7290
      10.780   103.23560    478.0940   1293.1610
      10.790   103.25830    479.3060   1292.5930
      10.800   103.26585    471.5077   1292.4620
      10.810   103.27340    463.7094   1292.3310
      10.820   103.27340    479.8850   1295.3025
      10.830   103.27340    496.0607   1298.2740
      10.840   103.27410    497.6599   1302.3345
      10.850   103.27480    499.2592   1306.3950
      10.860   103.27585    489.2822   1310.9950
      10.870   103.27690    479.3053   1315.5950
      10.880   103.27700    465.3414   1315.8305
      10.890   103.27710    451.3776   1316.0660
      10.900   103.27835    449.9643   1311.6010
      10.910   103.27960    448.5511   1307.1360
      10.920   103.27650    456.9097   1293.7090
      10.930   103.27340    465.2683   1280.2820
      10.940   103.27375    473.9827   1294.2485
      10.950   103.27410    482.6970   1308.2150
      10.960   103.27620    479.9167   1318.4195
      10.970   103.27830    477.1364   1328.6240
      10.980   103.28385    466.6288   1308.9555
      10.990   103.28940    456.1212   1289.2870
      11.000   103.29495    463.3943   1283.0135
      11.010   103.30050    470.6674   1276.7400
      11.020   103.31060    476.6791   1280.2510
      11.030   103.32070    482.6909   1283.7620
      11.040   103.34675    486.4589   1302.7370
      11.050   103.37280    490.2269   1321.7120
      11.060   103.37730    475.1210   1321.5905
      11.070   103.38180    460.0152   1321.4690
      11.080   103.38180    455.9154   1307.3935
      11.090   103.38180    451.8157   1293.3180
      11.100   103.38325    456.3110   1257.1480
      11.110   103.38470    460.8063   1220.9780
      11.120   103.48430    465.9950   1236.2255
      11.130   103.58390    471.1837   1251.4730
      11.140   104.27930    482.2540   1270.0765
      11.150   104.97470    493.3243   1288.6800
      11.160   105.87280    506.4737   1278.1630
      11.170   106.77090    519.6230   1267.6460
      11.180   107.70265    495.7959   1263.3945
      11.190   108.63440    471.9688   1259.1430
      11.200   108.43085    465.0371   1257.4865
      11.210   108.22730    458.1054   1255.8300
      11.220   105.73860    463.8215   1256.2850
      11.230   103.24990    469.5375   1256.7400
      11.240   103.19460    468.3451   1278.0725
      11.250   103.13930    467.1527   1299.4050
      11.260   103.13860    468.7777   1315.8135
      11.270   103.13790    470.4028   1332.2220
      11.280   103.13650    473.4469   1320.5970
      11.290   103.13510    476.4910   1308.9720
      11.300   103.13540    468.0687   1303.3725
      11.310   103.13570    459.6464   1297.7730
      11.320   103.13715    460.8118   1298.1925
      11.330   103.13860    461.9771   1298.6120
      11.340   103.14030    469.9832   1310.1745
      11.350   103.14200    477.9893   1321.7370
      11.360   103.14755    477.0296   1317.4575
      11.370   103.15310    476.0699   1313.1780
      11.380   103.17850    479.6719   1302.4825
      11.390   103.20390    483.2738   1291.7870
      11.400   103.24305    489.1463   1276.1320
      11.410   103.28220    495.0188   1260.4770
      11.420   103.24965    482.0517   1255.6270
      11.430   103.21710    469.0846   1250.7770
      11.440   103.15840    479.3803   1250.6600
      11.450   103.09970    489.6760   1250.5430
      11.460   103.09930    514.6722   1254.7350
      11.470   103.09890    539.6684   1258.9270
      11.480   103.09890    514.4116   1255.7480
      11.490   103.09890    489.1547   1252.5690
      11.500   103.09880    481.0441   1251.7565
      11.510   103.09870    472.9335   1250.9440
      11.520   103.10055    478.0382   1261.6790
      11.530   103.10240    483.1429   1272.4140
      11.540   103.10425    486.8019   1279.5400
      11.550   103.10610    490.4609   1286.6660
      11.560   103.10600    484.5169   1290.9465
      11.570   103.10590    478.5729   1295.2270
      11.580   103.10580    465.5345   1294.7975
      11.590   103.10570    452.4961   1294.3680
      11.600   103.10440    444.7772   1285.2255
      11.610   103.10310    437.0582   1276.0830
      11.620   103.10240    439.7927   1267.0415
      11.630   103.10170    442.5271   1258.0000
