~VERSION INFORMATION SECTION
VERS.           2.0  :CWLS Log ASCII Standard - 2.0
WRAP.           NO   :One line per depth
#               Created in SeisLab
~WELL INFORMATION SECTION
#MNEM.UNIT  VALUE/NAME               :DESCRIPTION    
STRT.m  11                           :Start Depth    
STOP.m  125                          :Stop Depth     
STEP.m  0.01                         :Step           
NULL.    -999.25                     :Null Value     
WELL.    GDP1                        :Well Name      
CTRY.    Switzerland                 :Country        
CNTY.                                :County         
STAT.                                :State          
API .                                :API number     
UWI .                                :Unique well ID 
LOC .    Grimsel pass, Switzerland   :Well Location  
FLD .    n/a                         :Field          
COMP.    n/a                         :Company        
SRVC.    University of Lausanne      :Service Company
DATE.    2016                        :Date           
~PARAMETER INFORMATION SECTION
#MNEM .UNITS  VALUE   :DESCRIPTION OF PARAMETER
Casing.n/a    0       :cased hole              
~CURVE INFORMATION SECTION
#MNEM     .UNITS  API CODES   :DESCRIPTION OF MNEMONIC      
depth     .m                  :measured depth (interpolated)
P_slowness.us/m               :FWS2016_25kHz_semblance      
S_slowness.us/m               :FWS2016_25kHz_semblance      
~A depth       P_slowness  S_slowness  
# ...
      56.570   198.18433   373.20657
      56.580   197.92616   373.70907
      56.590   197.66800   374.23723
      56.600   197.45287   374.76539
      56.610   197.23774   375.29356
      56.620   197.02261   375.80685
      56.630   196.80748   376.32015
      56.640   196.63538   376.80779
      56.650   196.50630   377.29543
      56.660   196.37721   377.75739
      56.670   196.24813   378.21936
      56.680   196.11905   378.65567
      56.690   195.98997   379.05348
      56.700   195.90390   379.41277
      56.710   195.87430   379.62662
      56.720   195.84469   379.84048
      56.730   195.81508   379.92525
      56.740   195.78548   379.99720
      56.750   195.75587   379.98310
      56.760   195.76930   379.96900
      56.770   195.80838   379.86884
      56.780   195.84746   379.76867
      56.790   195.93787   379.62549
      56.800   196.02828   379.48231
      56.810   196.14436   379.29610
      56.820   196.30348   379.09705
      56.830   196.51392   378.85497
      56.840   196.72436   378.58721
      56.850   196.96046   378.36249
      56.860   197.19656   378.12495
      56.870   197.43266   377.88741
      56.880   197.71177   377.64987
      56.890   198.01656   377.45536
      56.900   198.32134   377.26085
      56.910   198.65180   377.10936
      56.920   198.98226   376.95787
      56.930   199.37687   376.84941
      56.940   199.77148   376.71528
      56.950   200.19175   376.66720
      56.960   200.61203   376.60628
      56.970   201.05798   376.63143
      56.980   201.50393   376.65657
      56.990   201.97554   376.72474
      57.000   202.44715   376.75441
      57.010   202.91875   376.82711
      57.020   203.39036   376.95620
      57.030   203.88764   377.17133
      57.040   204.38492   377.38646
      57.050   204.90125   377.55754
      57.060   205.41757   377.72862
      57.070   205.89915   377.84798
      57.080   206.38072   377.96734
      57.090   206.91411   377.98523
      57.100   207.44751   378.00311
      57.110   207.96251   378.00816
      57.120   208.47751   377.97018
      57.130   208.96492   377.85520
      57.140   209.45233   377.65416
      57.150   209.91216   377.36331
      57.160   210.37200   376.96551
      57.170   210.78585   376.49070
      57.180   211.19970   375.96457
      57.190   211.54000   375.38711
      57.200   211.88030   374.78398
      57.210   212.14703   374.12952
      57.220   212.41377   373.47507
      57.230   212.59775   372.78211
      57.240   212.78174   372.08916
      57.250   212.96572   371.35770
      57.260   213.10669   370.62625
      57.270   213.24766   369.92597
      57.280   213.38862   369.22569
      57.290   213.52959   368.52541
      57.300   213.67056   367.86364
      57.310   213.81152   367.20187
      57.320   213.89603   366.68554
      57.330   213.98054   366.21225
      57.340   214.06505   365.86803
      57.350   214.14956   365.52382
      57.360   214.23407   365.26566
      57.370   214.37374   365.05051
      57.380   214.48775   364.92143
      57.390   214.67533   364.87841
      57.400   214.81157   364.87841
      57.410   214.99380   364.92143
      57.420   215.15036   365.00748
      57.430   215.30692   365.17959
      57.440   215.41215   365.39474
      57.450   215.57254   365.69593
      57.460   215.70728   365.95410
      57.470   215.86961   366.29831
      57.480   216.03193   366.64252
      57.490   216.24023   367.02977
      57.500   216.42285   367.37398
      57.510   216.62002   367.71820
      57.520   216.79151   368.01939
      57.530   216.98336   368.36362
      57.540   217.11107   368.66482
      57.550   217.31005   368.96602
      57.560   217.48336   369.18116
      57.570   217.65667   369.39631
      57.580   217.80431   369.52539
      57.590   217.96074   369.65448
      57.600   218.09151   369.74054
      57.610   218.22228   369.82661
      57.620   218.35305   369.86964
      57.630   218.48382   369.91267
      57.640   218.58892   369.86966
      57.650   218.73705   369.82664
      57.660   218.86613   369.82767
      57.670   218.99521   369.82870
      57.680   219.15905   369.88146
      57.690   219.32289   369.93421
      57.700   219.43490   370.08844
      57.710   219.50389   370.24267
      57.720   219.59126   370.40974
      57.730   219.67864   370.57680
      57.740   219.79361   370.82087
      57.750   219.90857   371.10795
      57.760   220.05111   371.48485
      57.770   220.15062   371.90479
      57.780   220.29611   372.40172
      57.790   220.44161   372.94169
      57.800   220.66066   373.53298
      57.810   220.87970   374.16730
      57.820   221.17231   374.85293
      57.830   221.42190   375.58161
      57.840   221.75425   376.34877
      57.850   222.08659   377.15897
      57.860   222.41893   378.00767
      57.870   222.70825   378.89939
      57.880   222.99756   379.75993
      57.890   223.28687   380.66351
      57.900   223.57618   381.56708
      57.910   223.86549   382.51369
      57.920   224.15480   383.46030
      57.930   224.40108   384.40690
      57.940   224.64736   385.31048
      57.950   224.89364   386.25707
      57.960   225.13992   387.20366
      57.970   225.38620   388.15025
      57.980   225.57731   389.05382
      57.990   225.72541   389.95739
      58.000   225.79995   390.77490
      58.010   225.83146   391.59241
      58.020   225.81698   392.36690
      58.030   225.80251   393.14139
      58.040   225.78803   393.82982
      58.050   225.68751   394.51825
      58.060   225.53182   395.12062
      58.070   225.33310   395.72300
      58.080   225.10679   396.23933
      58.090   224.83744   396.71264
      58.100   224.52213   397.14292
      58.110   224.12077   397.53016
      58.120   223.70487   397.91741
      58.130   223.24593   398.26162
      58.140   222.76664   398.56280
      58.150   222.24433   398.82097
      58.160   221.65074   399.07913
      58.170   221.01411   399.25123
      58.180   220.37749   399.42333
      58.190   219.69784   399.55241
      58.200   219.00939   399.68149
      58.210   218.32095   399.72451
      58.220   217.63251   399.76752
      58.230   216.90105   399.76752
      58.240   216.16959   399.76752
      58.250   215.43813   399.72449
      58.260   214.66364   399.68146
      58.270   213.88915   399.63843
      58.280   213.11466   399.59539
      58.290   212.34016   399.50933
      58.300   211.56567   399.42326
      58.310   210.79118   399.33720
      58.320   210.05972   399.25113
      58.330   209.32826   399.16507
      58.340   208.59680   399.07900
      58.350   207.89562   398.99293
      58.360   207.19444   398.86385
      58.370   206.51380   398.73477
      58.380   205.87620   398.56266
      58.390   205.23859   398.39054
      58.400   204.60098   398.17539
      58.410   203.94643   397.96025
      58.420   203.29187   397.70208
      58.430   202.62036   397.44392
      58.440   201.99187   397.14272
      58.450   201.43118   396.84152
      58.460   200.87049   396.49730
      58.470   200.30980   396.15307
      58.480   199.79215   395.76582
      58.490   199.29992   395.37857
      58.500   198.80769   394.94830
      58.510   198.36633   394.51802
      58.520   197.92497   394.04470
      58.530   197.44969   393.57139
      58.540   197.01744   393.09808
      58.550   196.63607   392.62477
      58.560   196.25469   392.10844
      58.570   195.94959   391.59211
      58.580   195.64449   391.07579
      58.590   195.33939   390.55946
      58.600   195.07731   390.04313
      58.610   194.86610   389.52680
      58.620   194.69792   389.01048
      58.630   194.56364   388.53718
      58.640   194.42936   388.06389
      58.650   194.29508   387.59059
      58.660   194.24685   387.11730
      58.670   194.30882   386.64400
      58.680   194.41382   386.17070
      58.690   194.59510   385.74044
      58.700   194.81941   385.35320
      58.710   195.11154   384.96595
      58.720   195.48972   384.62174
      58.730   196.00605   384.27752
