~VERSION INFORMATION SECTION
VERS.           2.0  :CWLS Log ASCII Standard - 2.0
WRAP.           NO   :One line per depth
#               Created in SeisLab
~WELL INFORMATION SECTION
#MNEM.UNIT  VALUE/NAME               :DESCRIPTION    
STRT.m  24.75                        :Start Depth    
STOP.m  125.11                       :Stop Depth     
STEP.m  0.02                         :Step           
NULL.    -999.25                     :Null Value     
WELL.    GDP1                        :Well Name      
CTRY.    Switzerland                 :Country        
CNTY.                                :County         
STAT.    Central Swiss Alps          :State          
API .                                :API number     
UWI .                                :Unique well ID 
LOC .    Grimsel Pass, Switzerland   :Well Location  
FLD .    n/a                         :Field          
COMP.    n/a                         :Company        
SRVC.    University of Lausanne      :Service Company
DATE.    2015                        :Date           
~PARAMETER INFORMATION SECTION
#MNEM .UNITS    VALUE   :DESCRIPTION OF PARAMETER
Casing.n/a      0       :open hole               
Mud   .Polymer  1       :Mud type                
~CURVE INFORMATION SECTION
#MNEM.UNITS  API CODES   :DESCRIPTION OF MNEMONIC
depth.m                  :measured depth         
NG   .cps                :Natural gamma          
Sp   .mV                 :Self potential         
Temp .DegC               :Temperature            
SPR  .Ohm                :Single point resistance
R8   .Ohm.m              :Normal resistivity     
R16  .Ohm.m              :Single point resistance
R32  .Ohm.m              :Normal resistivity     
R64  .Ohm.m              :Normal resistivity     
~A depth       NG          Sp          Temp        SPR         R8          R16         R32         R64         
# ...
      41.030   2234.1200    544.1250    11.13670    9568.100    1443.730    1554.830    2204.220    6846.170
      41.050   3242.4600    571.5000    11.10740    8656.260    1254.010    1625.910    2082.250    6883.680
      41.070   3178.7400    586.7500    11.07420    7471.810    1128.100    1609.280    2063.260    6563.110
      41.090   3611.3900    581.0000    11.09570    6394.550    1080.740    1548.090    2170.670    6365.870
      41.110   3082.4900    571.0000    11.11720    5480.250    1079.890    1484.370    2339.690    5852.800
      41.130   3447.9400    550.8750    11.14650    4726.310    1111.600    1427.090    2354.040    4886.070
      41.150   3429.5400    537.0000    11.08980    4172.360    1135.330    1419.850    2278.920    4640.050
      41.170   3210.1100    532.3750    11.08010    3896.670    1118.830    1482.200    2339.460    5115.360
      41.190   3170.4100    534.1250    11.08400    3964.960    1078.960    1562.440    2350.300    4469.930
      41.210   3701.8400    551.2500    11.10160    4192.730    1041.920    1574.060    2327.820    3109.840
      41.230   3189.3900    557.8750    11.12300    4337.420    1008.810    1517.060    2444.030    3116.790
      41.250   3815.3300    544.3750    11.08400    4258.380     996.565    1464.160    2537.500    3558.810
      41.270   4335.3300    531.5000    11.08200    3966.740    1012.610    1467.640    2531.780    3441.730
      41.290   3530.6300    518.3750    11.12700    3699.240    1033.250    1531.310    2475.960    3461.820
      41.310   3550.5800    516.7500    11.11520    3514.900    1018.660    1618.050    2347.270    3405.030
      41.330   3188.4200    536.2500    11.09570    3358.730     973.018    1602.390    2236.450    3535.420
      41.350   3369.8900    555.3750    11.05270    3285.070     932.231    1546.570    2223.540    3847.900
      41.370   3211.4700    576.6250    11.13090    3299.380     921.374    1567.680    2255.090    3590.320
      41.390   3396.2300    590.0000    11.10550    3355.640     946.940    1559.340    2316.810    3232.400
      41.410   3141.9400    587.1250    11.07620    3380.520     982.679    1550.270    2440.440    3146.010
      41.430   3994.8600    580.7500    11.05470    3380.800     977.836    1618.220    2592.270    3049.500
      41.450   3716.9400    565.2500    11.09180    3373.190     954.652    1647.460    2690.850    2728.740
      41.470   4408.7300    550.8750    11.10940    3371.720     978.574    1610.680    2721.810    2400.140
      41.490   3701.8400    537.3750    11.10160    3408.840     997.544    1560.280    2713.670    2320.200
      41.510   4497.6200    536.1250    11.12110    3463.890    1014.790    1473.750    2614.650    2501.250
      41.530   3447.3600    560.3750    11.11520    3463.650    1065.900    1410.670    2498.010    2790.820
      41.550   3035.4200    575.7500    11.11330    3456.390    1090.740    1398.370    2573.900    2940.890
      41.570   3748.9000    574.7500    11.09570    3529.800    1086.250    1420.980    2678.770    2866.430
      41.590   3495.0000    572.1250    11.12110    3716.280    1074.270    1456.740    2671.410    2695.260
      41.610   4182.7200    565.6250    11.05660    3902.340    1048.670    1521.180    2498.000    2549.460
      41.630   4364.7700    564.6250    11.09180    3923.500    1025.660    1614.740    2220.190    2382.480
      41.650   3399.1300    573.1250    11.11910    3800.360    1026.890    1680.850    2106.300    2256.430
      41.670   4082.2000    571.7500    11.09180    3600.170    1047.610    1727.830    2207.440    2363.350
      41.690   4021.9700    550.1250    11.07030    3470.990    1067.960    1747.450    2390.160    2637.580
      41.710   4048.3100    540.5000    11.05080    3484.670    1104.670    1693.160    2388.830    2782.490
      41.730   4617.7000    551.1250    11.09180    3560.170    1160.390    1609.080    2289.350    2633.920
      41.750   4078.7200    558.1250    11.05660    3615.820    1202.610    1638.840    2266.840    2378.390
      41.770   3784.1500    559.3750    11.02930    3670.170    1223.170    1717.430    2275.240    2306.350
      41.790   3913.9100    558.3750    11.05660    3791.960    1230.840    1705.570    2161.520    2486.310
      41.810   3800.0300    551.1250    11.07420    3999.200    1196.560    1592.680    2076.320    2798.820
      41.830   4012.2900    553.2500    11.07620    4268.440    1151.250    1448.270    2112.350    2837.020
      41.850   4356.0500    575.2500    11.04300    4542.720    1172.300    1389.660    2081.200    2695.610
      41.870   3463.0400    585.2500    11.06450    4793.360    1208.070    1449.270    2040.790    2813.310
      41.890   3776.5900    571.6250    11.08980    4994.440    1210.730    1565.110    2028.790    2837.400
      41.910   4205.9600    567.2500    11.03710    5108.850    1169.890    1555.980    2091.720    2758.630
      41.930   3337.9300    578.2500    11.02930    5145.490    1105.310    1450.570    2175.130    2942.540
      41.950   3352.4600    575.2500    11.02730    5133.900    1083.790    1408.690    2082.590    3131.260
      41.970   3083.6500    543.8750    11.03320    5166.220    1122.820    1402.360    1909.510    3167.770
      41.990   3611.3900    525.2500    11.10160    5332.490    1181.560    1341.860    1853.350    3096.210
      42.010   3187.0700    528.0000    11.07230    5580.110    1168.200    1297.800    1931.150    2858.710
      42.030   3085.9700    537.7500    11.04880    5823.220    1097.340    1320.940    2078.780    2648.880
      42.050   3602.6800    563.0000    11.07810    5943.360    1057.460    1314.460    2204.300    2631.360
      42.070   3308.3000    569.3750    11.07030    5954.500    1044.360    1302.340    2199.820    2672.050
      42.090   3476.2100    541.3750    11.07810    5939.030    1014.000    1308.950    2123.560    2771.850
      42.110   3286.6100    524.1250    11.10350    5699.420    1007.760    1365.730    2074.180    2998.120
      42.130   3001.9200    525.2500    11.03910    5321.400    1048.670    1445.030    1999.820    3255.720
      42.150   3460.3300    535.5000    11.03320    4872.200    1070.980    1406.010    1970.840    3406.860
      42.170   3089.2600    565.1250    11.04880    4427.720    1084.870    1304.210    2019.180    3416.480
      42.190   2506.3200    583.2500    11.06640    4057.670    1106.350    1303.370    1968.860    3388.570
      42.210   2795.2700    581.0000    11.06050    3853.400    1151.990    1394.420    1913.270    3242.400
      42.230   3486.6700    577.2500    11.04300    3871.450    1208.050    1500.430    1943.800    3097.640
      42.250   3021.0900    569.0000    11.04690    3962.230    1195.820    1582.890    1912.960    3275.440
      42.270   3030.1900    566.5000    11.08980    4059.500    1141.990    1593.560    1922.400    3498.720
      42.290   2761.3800    575.0000    11.06840    4119.710    1136.340    1567.830    2054.340    3541.690
      42.310   2854.9200    575.8750    11.05270    4143.120    1172.400    1584.370    2107.330    3266.180
      42.330   3284.2900    563.3750    11.04690    4137.660    1200.260    1566.440    2058.270    2766.290
      42.350   3584.6700    548.5000    11.05660    4047.380    1215.600    1551.610    2000.200    2610.930
      42.370   2729.2300    525.5000    11.08010    3892.940    1200.480    1605.960    1950.310    2841.120
      42.390   3141.1700    514.2500    11.04490    3750.210    1168.150    1597.430    1946.570    3197.280
      42.410   2866.5400    525.6250    11.04880    3718.650    1161.720    1559.770    1929.160    3302.360
      42.430   2389.5400    535.5000    11.06840    3824.850    1139.130    1552.890    1942.420    3187.690
      42.450   2907.8000    540.7500    11.01170    3918.530    1121.680    1512.600    2083.330    3269.080
      42.470   2479.9800    544.2500    11.06450    3872.990    1144.700    1508.900    2260.630    3350.350
      42.490   3021.0900    544.6250    11.04100    3727.760    1132.210    1587.830    2291.220    3155.740
