~VERSION INFORMATION SECTION
VERS.           2.0  :CWLS Log ASCII Standard - 2.0
WRAP.           NO   :One line per depth
#               Created in SeisLab
~WELL INFORMATION SECTION
#MNEM.UNIT  VALUE/NAME               :DESCRIPTION    
STRT.m  33.03                        :Start Depth    
STOP.m  122.23                       :Stop Depth     
STEP.m  0.03                         :Step           
NULL.    -999.25                     :Null Value     
WELL.    GDP1                        :Well Name      
CTRY.    Switzerland                 :Country        
CNTY.                                :County         
STAT.    Central Swiss Alps          :State          
API .                                :API number     
UWI .                                :Unique well ID 
LOC .    Grimsel Pass, Switzerland   :Well Location  
FLD .    n/a                         :Field          
COMP.    n/a                         :Company        
SRVC.    University of Lausanne      :Service Company
DATE.    2016                        :Date           
~PARAMETER INFORMATION SECTION
#MNEM .UNITS  VALUE   :DESCRIPTION OF PARAMETER
Casing.n/a    1       :slotted PVC casing      
~CURVE INFORMATION SECTION
#MNEM.UNITS  API CODES   :DESCRIPTION OF MNEMONIC
depth.m                  :measured depth         
NG   .cps                :Natural gamma          
Sp   .mV                 :Self potential         
Temp .DegC               :Temperature            
SPR  .Ohm                :Single point resistance
R8   .Ohm.m              :Normal resistivity     
R16  .Ohm.m              :Single point resistance
R32  .Ohm.m              :Normal resistivity     
R64  .Ohm.m              :Normal resistivity     
~A depth       NG          Sp          Temp        SPR         R8          R16         R32         R64         
# ...
      75.210   192.59400   1194.6300     6.95605        3911       503.5       752.3       909.4     -9187.1
      75.240   185.81300   1170.8800     6.91211        3795       526.9       795.7       881.4    -58017.0
      75.280   182.75000   1182.2500     6.94629        3737       531.3       829.5       839.9      4252.1
      75.310   208.10900   1200.8800     6.95313        3686       523.0       841.0       874.3      2152.4
      75.330   165.51600   1203.5000     6.95801        3616       537.8       835.5       916.1      1895.3
      75.370   156.50800   1203.2500     6.93066        3570       555.9       794.9       907.6      1752.2
      75.400   130.93800   1209.8800     6.94238        3556       560.1       731.4       898.5      1512.7
      75.430   191.84400   1217.6300     6.95605        3554       549.8       719.1       919.4      1360.1
      75.460   152.27300   1186.2500     6.95410        3571       521.2       698.9       973.1      1391.1
      75.490   185.11700   1146.8800     6.95605        3582       486.3       656.5      1031.9      1427.5
      75.510   180.71100   1146.8800     6.93945        3574       480.1       656.7      1050.0      1341.0
      75.540   168.17200   1155.1300     6.95410        3568       470.1       689.2       991.7      1333.0
      75.570   155.10900   1176.8800     6.94238        3524       450.9       681.4       940.9      1285.1
      75.600   124.57800   1201.6300     6.92871        3447       450.6       659.9       975.4      1196.3
      75.630   155.36700   1180.3800     6.94922        3390       469.1       675.2       976.5      1199.1
      75.670   164.74200   1149.2500     6.96094        3337       466.8       709.5       940.4      1249.8
      75.690   181.42200   1161.0000     6.95605        3295       455.3       734.4       925.0      1216.1
      75.720   135.78900   1181.8800     6.94434        3287       461.4       739.9       924.1      1255.7
      75.760   144.34400   1180.8800     6.94434        3316       474.4       719.3       853.3      1434.0
      75.790   157.75000   1175.6300     6.93750        3314       481.6       687.6       763.0      1496.6
      75.820   143.73400   1183.6300     6.95313        3261       477.2       696.7       824.8      1517.8
      75.850   144.10200   1194.1300     6.95410        3222       460.1       693.4       923.4      1515.4
      75.880   202.35900   1168.8800     6.95313        3227       436.2       658.1       992.0      1407.5
      75.900   160.63300   1135.6300     6.96777        3251       435.7       639.8       718.9      1278.8
      75.930   162.59400   1126.1300     6.96777        3252       432.3       638.5       863.6      1216.2
      75.960   171.85200   1121.8800     6.92871        3241       414.5       596.8       908.8      1136.4
      75.990   178.64100   1128.6300     6.95996        3280       406.4       550.3       981.1      1096.3
      76.030   174.73400   1137.8800     6.94238        3324       411.6       581.5      1093.2      1141.7
      76.060   161.64800   1141.5000     6.97656        3290       391.4       624.9       863.6      1192.8
      76.080   161.68000   1143.8800     6.93359        3259       366.3       649.4      1028.2      1160.8
      76.120   158.12500   1142.0000     6.95801        3282       379.3       485.6       959.6      1164.8
      76.150   156.55500   1139.8800     6.95996        3309       400.3       552.4      1055.3      1231.3
      76.180   183.24200   1144.5000     6.95410        3302       415.3       571.5       773.0      1307.5
      76.210   167.93800   1150.3800     6.94043        3306       328.6       615.9       828.8      1437.4
      76.240   163.44500   1143.7500     6.95996        3333       369.4       687.5       900.0      1486.1
      76.260   171.14100   1135.3800     6.97168        3366       380.0       568.6       813.0      1356.5
      76.290   194.87500   1132.3800     6.97461        3371       407.5       658.9       892.2      1247.2
      76.320   196.35200   1129.6300     6.93262        3296       448.9       630.2       672.4      1345.6
      76.350   211.78100   1111.7500     6.95605        3316       383.9       698.1       683.2      1364.0
      76.380   212.14100   1090.2500     6.96484        3352       429.2       544.8       430.2      1296.1
      76.420   187.12500   1104.6300     6.96973        3367       408.9       582.9      2526.2      1298.4
      76.440   213.35900   1126.0000     6.97266        3372       442.9       621.6     34018.4      1294.4
      76.470   208.55500   1121.5000     6.96680        3381       357.8       575.6     33680.5      1166.8
      76.510   203.98400   1112.2500     6.97949        3461       374.3       647.8    -56084.3      1013.4
      76.540   207.44500   1096.6300     6.95117        3451       388.9       548.5      8833.0      1121.6
      76.570   200.22700   1078.7500     6.97852        3439       364.7       580.6      2611.8      1320.4
      76.600   190.79700   1069.7500     6.95605        3399       410.2       550.8      1167.4      1456.1
      76.630   232.23400   1063.0000     6.98828        3434       360.7      2239.9       844.0       975.7
      76.650   198.58600   1017.0000     6.97461        3436       395.0     22204.6       887.4      1255.0
      76.680   216.68000    961.7500     6.93262        3440       467.4     21007.2       886.3      1331.2
      76.710   210.45300    853.0000     6.93359        3974      1944.2    -39677.6       846.3      1436.5
      76.740   193.43000    733.5000     6.99023        5415     22765.1      6232.2       854.6      1616.3
      76.780   190.60200    637.3750     6.96973       10166     38405.1      1718.5       784.3      1207.3
      76.810   204.68800    545.7500     6.95801       26776   -120391.0       783.8       782.6      1524.9
      76.830   199.33600    535.0000     6.93359       87250     35570.0       588.4       887.2      1410.1
      76.870   188.82000    540.8750     6.95313      673227     12797.6       599.7       825.6      1590.2
      76.900   215.82800    545.5000     6.97656      681510      5285.1       585.6       704.1      1119.1
      76.930   213.07800    548.1250     6.93359    -1181940      3232.9       575.4       803.1      1268.6
      76.960   223.14800    648.2500     6.96777      140869      2061.6       590.6       897.0      1444.2
      76.990   225.25000    768.5000     6.99707       28247      1204.5       553.2       834.5      1265.6
      77.010   195.47700    869.6250     6.97949        8614       827.5       568.3       787.1      1351.0
      77.040   214.62500    967.1250     6.95410        4630       593.0       637.6       819.9       928.7
      77.070   205.52300    995.0000     6.97461        3780       470.3       608.5       869.3       915.1
      77.100   212.06300   1009.1300     7.00391        3437       410.5       524.7       823.1       239.2
      77.130   199.76600   1026.1300     6.98145        3382       431.0       572.2       809.1      3499.8
      77.170   248.65600   1043.5000     6.98145        3379       406.3       625.2       828.6     58939.3
      77.190   222.71100   1032.1300     6.98145        3391       364.6       594.8       783.3     58459.2
      77.220   199.18000   1014.3800     6.99316        3421       391.5       579.2       798.5    -90406.2
      77.260   205.59400   1038.3800     6.97949        3459       429.9       605.4       907.2     14104.2
      77.290   190.69500   1071.1300     6.97168        3471       419.9       633.1      1006.2      4329.3
      77.320   176.48400   1072.0000     6.96289        3454       414.5       596.3       939.8      1847.5
      77.350   187.73400   1065.5000     6.97852        3450       433.7       581.3       762.8      1260.7
      77.380   186.02300   1055.7500     7.01074        3454       447.5       611.1       695.5      1323.6
      77.400   222.07800   1045.7500     6.98145        3465       425.7       598.7       828.0      1346.0
