~VERSION INFORMATION SECTION
VERS.           2.0  :CWLS Log ASCII Standard - 2.0
WRAP.           NO   :One line per depth
#               Created in SeisLab
~WELL INFORMATION SECTION
#MNEM.UNIT  VALUE/NAME               :DESCRIPTION    
STRT.m  10                           :Start Depth    
STOP.m  125                          :Stop Depth     
STEP.m  0.01                         :Step           
NULL.    -999.25                     :Null Value     
WELL.    GDP1                        :Well Name      
CTRY.    Switzerland                 :Country        
CNTY.                                :County         
STAT.    Central Swiss Alps          :State          
API .                                :API number     
UWI .                                :Unique well ID 
LOC .    Grimsel Pass, Switzerland   :Well Location  
FLD .    n/a                         :Field          
COMP.    n/a                         :Company        
SRVC.    University of Lausanne      :Service Company
DATE.    2015                        :Date           
~PARAMETER INFORMATION SECTION
#MNEM .UNITS    VALUE   :DESCRIPTION OF PARAMETER
Casing.n/a      0       :open hole               
Mud   .Polymer  1       :Mud type                
~CURVE INFORMATION SECTION
#MNEM.UNITS  API CODES   :DESCRIPTION OF MNEMONIC
depth.m                  :measured depth         
NG   .cps                :Natural gamma          
Sp   .mV                 :Self potential         
Temp .DegC               :Temperature            
SPR  .Ohm                :Single point resistance
R8   .Ohm.m              :Normal resistivity     
R16  .Ohm.m              :Single point resistance
R32  .Ohm.m              :Normal resistivity     
R64  .Ohm.m              :Normal resistivity     
~A depth       NG          Sp          Temp        SPR         R8          R16         R32         R64         
# ...
      25.540   269.75586    513.1026  -999.25000    7546.796    3201.234    3162.319    3654.143    3723.737
      25.550   269.75571    513.4029  -999.25000    7546.801    3195.500    3159.562    3656.271    3731.384
      25.560   269.75556    513.7032  -999.25000    7546.806    3189.759    3156.801    3658.402    3739.044
      25.570   269.75541    514.0035  -999.25000    7546.811    3184.012    3154.037    3660.537    3746.717
      25.580   269.75525    514.3038  -999.25000    7546.816    3178.257    3151.271    3662.675    3754.403
      25.590   269.75509    514.6041  -999.25000    7546.820    3172.498    3148.502    3664.817    3762.101
      25.600   269.75493    514.9044  -999.25000    7546.824    3166.733    3145.730    3666.963    3769.811
      25.610   269.75477    515.2047  -999.25000    7546.827    3160.963    3142.956    3669.111    3777.532
      25.620   269.75463    515.5050  -999.25000    7546.830    3155.190    3140.181    3671.264    3785.263
      25.630   269.75449    515.8053  -999.25000    7546.833    3149.413    3137.405    3673.419    3793.005
      25.640   269.75437    516.1056  -999.25000    7546.835    3143.634    3134.627    3675.577    3800.756
      25.650   269.75427    516.4059  -999.25000    7546.836    3137.853    3131.849    3677.739    3808.516
      25.660   269.75419    516.7061  -999.25000    7546.837    3132.071    3129.070    3679.903    3816.283
      25.670   269.75414    517.0064  -999.25000    7546.837    3126.289    3126.291    3682.070    3824.058
      25.680   269.75412    517.3067  -999.25000    7546.837    3120.507    3123.513    3684.239    3831.839
      25.690   269.75413    517.6070  -999.25000    7546.835    3114.725    3120.735    3686.411    3839.626
      25.700   269.75419    517.9073  -999.25000    7546.833    3108.944    3117.958    3688.584    3847.417
      25.710   269.75430    518.2076  -999.25000    7546.830    3103.166    3115.182    3690.760    3855.212
      25.720   269.75445    518.5079  -999.25000    7546.826    3097.389    3112.407    3692.938    3863.010
      25.730   269.75466    518.8082  -999.25000    7546.821    3091.615    3109.633    3695.117    3870.811
      25.740   269.75493    519.1085  -999.25000    7546.816    3085.844    3106.861    3697.298    3878.613
      25.750   269.75525    519.4088  -999.25000    7546.809    3080.076    3104.090    3699.480    3886.416
      25.760   269.75565    519.7091  -999.25000    7546.802    3074.311    3101.321    3701.664    3894.220
      25.770   269.75610    520.0094  -999.25000    7546.793    3068.549    3098.554    3703.848    3902.022
      25.780   269.75663    520.3097  -999.25000    7546.784    3062.790    3095.788    3706.033    3909.824
      25.790   269.75722    520.6100  -999.25000    7546.774    3057.035    3093.024    3708.219    3917.625
      25.800   269.75788    520.9103  -999.25000    7546.763    3051.282    3090.261    3710.405    3925.423
      25.810   269.75860    521.2106  -999.25000    7546.752    3045.533    3087.500    3712.592    3933.219
      25.820   269.75938    521.5109  -999.25000    7546.740    3039.785    3084.740    3714.779    3941.011
      25.830   269.76022    521.8112  -999.25000    7546.727    3034.040    3081.980    3716.966    3948.800
      25.840   269.76111    522.1115  -999.25000    7546.714    3028.296    3079.221    3719.153    3956.586
      25.850   269.76204    522.4118  -999.25000    7546.701    3022.553    3076.462    3721.339    3964.368
      25.860   269.76299    522.7121  -999.25000    7546.687    3016.810    3073.703    3723.526    3972.145
      25.870   269.76397    523.0124  -999.25000    7546.673    3011.067    3070.944    3725.711    3979.918
      25.880   269.76494    523.3127  -999.25000    7546.659    3005.322    3068.184    3727.896    3987.686
      25.890   269.76591    523.6130  -999.25000    7546.645    2999.576    3065.423    3730.080    3995.450
      25.900   269.76684    523.9133  -999.25000    7546.631    2993.827    3062.660    3732.263    4003.209
      25.910   269.76773    524.2136  -999.25000    7546.617    2988.075    3059.896    3734.445    4010.963
      25.920   269.76854    524.5139  -999.25000    7546.604    2982.319    3057.128    3736.625    4018.712
      25.930   269.76926    524.8142  -999.25000    7546.591    2976.557    3054.358    3738.804    4026.457
      25.940   269.76986    525.1145  -999.25000    7546.580    2970.790    3051.585    3740.981    4034.197
      25.950   269.77031    525.4148  -999.25000    7546.569    2965.016    3048.808    3743.157    4041.932
      25.960   269.77059    525.7151  -999.25000    7546.559    2959.234    3046.027    3745.331    4049.663
      25.970   269.77067    526.0154  -999.25000    7546.550    2953.444    3043.241    3747.502    4057.389
      25.980   269.77052    526.3157  -999.25000    7546.543    2947.645    3040.451    3749.671    4065.112
      25.990   269.77011    526.6160  -999.25000    7546.538    2941.837    3037.656    3751.838    4072.830
      26.000   269.76942    526.9163  -999.25000    7546.533    2936.019    3034.855    3754.002    4080.545
      26.010   269.76841    527.0091  -999.25000    7546.531    2930.190    3032.049    3756.164    4088.256
      26.020   269.76707    527.2563  -999.25000    7546.531    2924.351    3029.237    3758.323    4095.964
      26.030   269.76537    527.5063  -999.25000    7546.533    2918.500    3026.419    3760.479    4103.668
      26.040   269.76329    527.7587  -999.25000    7546.536    2912.639    3023.595    3762.632    4111.370
      26.050   269.76082    528.0132  -999.25000    7546.543    2906.766    3020.765    3764.782    4119.069
      26.060   269.75794    528.2703  -999.25000    7546.551    2900.882    3017.930    3766.929    4126.766
      26.070   269.75465    528.5306  -999.25000    7546.562    2894.987    3015.089    3769.072    4134.461
      26.080   269.75095    528.7957  -999.25000    7546.575    2889.081    3012.242    3771.212    4142.154
      26.090   269.74684    529.0672  -999.25000    7546.591    2883.166    3009.391    3773.349    4149.845
      26.100   269.74234    529.3475  -999.25000    7546.609    2877.241    3006.534    3775.482    4157.535
      26.110   269.73748    529.6392  -999.25000    7546.629    2871.308    3003.673    3777.612    4165.223
      26.120   269.73228    529.9452  -999.25000    7546.652    2865.368    3000.809    3779.739    4172.911
      26.130   269.72679    530.2688  -999.25000    7546.677    2859.421    2997.941    3781.862    4180.598
      26.140   269.72107    530.6131  -999.25000    7546.705    2853.469    2995.071    3783.982    4188.284
      26.150   269.71516    530.9814  -999.25000    7546.735    2847.513    2992.199    3786.099    4195.971
      26.160   269.70916    531.3763  -999.25000    7546.766    2841.555    2989.326    3788.213    4203.657
      26.170   269.70314    531.8003  -999.25000    7546.800    2835.597    2986.453    3790.324    4211.343
      26.180   269.69721    532.2549  -999.25000    7546.835    2829.639    2983.580    3792.432    4219.030
      26.190   269.69147    532.7409  -999.25000    7546.871    2823.685    2980.710    3794.539    4226.717
      26.200   269.68606    533.2576  -999.25000    7546.908    2817.736    2977.842    3796.642    4234.406
      26.210   269.68109    533.8031  -999.25000    7546.947    2811.794    2974.979    3798.745    4242.095
      26.220   269.67671    534.3736  -999.25000    7546.986    2805.862    2972.120    3800.845    4249.785
      26.230   269.67308    534.9633  -999.25000    7547.025    2799.941    2969.268    3802.944    4257.477
      26.240   269.67035    535.5645  -999.25000    7547.064    2794.033    2966.423    3805.043    4265.170
      26.250   269.66869    536.1670  -999.25000    7547.103    2788.141    2963.586    3807.141    4272.865
      26.260   269.66827    536.7581  -999.25000    7547.140    2782.267    2960.760    3809.240    4280.561
      26.270   269.66925    537.3229  -999.25000    7547.177    2776.414    2957.944    3811.338    4288.260
