~VERSION INFORMATION SECTION
VERS.           2.0  :CWLS Log ASCII Standard - 2.0
WRAP.           NO   :One line per depth
#               Created in SeisLab
~WELL INFORMATION SECTION
#MNEM.UNIT  VALUE/NAME               :DESCRIPTION    
STRT.m  24.75                        :Start Depth    
STOP.m  125.11                       :Stop Depth     
STEP.m  0.02                         :Step           
NULL.    -999.25                     :Null Value     
WELL.    GDP1                        :Well Name      
CTRY.    Switzerland                 :Country        
CNTY.                                :County         
STAT.    Central Swiss Alps          :State          
API .                                :API number     
UWI .                                :Unique well ID 
LOC .    Grimsel Pass, Switzerland   :Well Location  
FLD .    n/a                         :Field          
COMP.    n/a                         :Company        
SRVC.    University of Lausanne      :Service Company
DATE.    2015                        :Date           
~PARAMETER INFORMATION SECTION
#MNEM .UNITS    VALUE   :DESCRIPTION OF PARAMETER
Casing.n/a      0       :open hole               
Mud   .Polymer  1       :Mud type                
~CURVE INFORMATION SECTION
#MNEM.UNITS  API CODES   :DESCRIPTION OF MNEMONIC
depth.m                  :measured depth         
NG   .cps                :Natural gamma          
Sp   .mV                 :Self potential         
Temp .DegC               :Temperature            
SPR  .Ohm                :Single point resistance
R8   .Ohm.m              :Normal resistivity     
R16  .Ohm.m              :Single point resistance
R32  .Ohm.m              :Normal resistivity     
R64  .Ohm.m              :Normal resistivity     
~A depth       NG          Sp          Temp        SPR         R8          R16         R32         R64         
# ...
     116.510   3239.1600    589.3750     8.86816    2903.420    4143.130    5678.720    6813.220    3777.760
     116.530   3155.3000    582.2500     8.92188    3105.250    4209.670    5772.750    6978.080    3705.070
     116.550   3284.2900    572.7500     8.89941    3369.780    4360.370    5862.340    6882.790    3574.200
     116.570   3106.3100    571.2500     8.89746    3707.080    4511.130    5936.940    6894.800    3434.700
     116.590   3212.0500    584.2500     8.86719    4005.210    4715.550    5983.830    6965.470    3477.110
     116.610   3892.6000    578.0000     8.89941    4183.100    4977.940    5867.030    7113.740    3395.960
     116.630   2534.8900    530.2500     8.91309    4342.710    5313.150    5926.830    7410.010    3156.360
     116.650   3491.3200    515.8750     8.88867    4520.280    5690.470    6254.160    7545.400    3182.090
     116.670   2961.0500    573.6250     8.88086    4668.240    6045.630    6363.670    7447.910    3460.100
     116.690   2848.3400    604.1250     8.91113    4776.220    6339.430    6321.930    7328.570    3670.510
     116.710   2580.8800    578.7500     8.91797    4875.160    6461.100    6565.750    7427.720    3657.370
     116.730   3444.4500    567.6250     8.91797    4970.450    6662.930    6962.040    7482.230    3847.780
     116.750   2830.7200    588.5000     8.92188    5051.840    6982.020    7212.620    7429.220    4030.210
     116.770   3183.7700    583.6250     8.87012    5114.840    7125.050    7565.120    7579.760    3787.960
     116.790   3543.8000    524.5000     8.88086    5161.190    7138.110    7938.390    7748.330    3583.520
     116.810   3091.0100    507.6250     8.92871    5133.080    7259.870    8259.220    7738.420    3741.790
     116.830   3225.4100    580.1250     8.91504    5161.360    7394.720    8684.700    7491.170    3863.980
     116.850   2475.3300    621.3750     8.94043    5246.250    7388.920    9039.450    7319.700    3925.660
     116.870   3126.2500    600.1250     8.89941    5243.810    7447.900    9093.820    7336.770    4268.740
     116.890   2781.9100    575.2500     8.89258    5197.350    7553.290    9029.440    7476.210    4511.260
     116.910   3213.2100    540.1250     8.93164    5200.810    7610.430    9217.170    7780.100    4356.190
     116.930   3387.1300    523.3750     8.96094    5213.460    7719.570    9415.790    7997.320    4347.170
     116.950   2859.5700    540.3750     8.95703    5160.760    7830.380    9416.090    8223.920    4625.540
     116.970   3213.2100    564.7500     8.97070    5154.920    7775.100    9428.870    8640.690    4774.670
     116.990   2678.6900    605.1250     8.92969    5183.600    7641.880    9499.910    9093.890    5025.470
     117.010   2687.7900    614.2500     8.93555    5172.360    7667.290    9481.020    9361.930    5212.480
     117.030   2951.1800    560.3750     8.96777    5181.060    7701.570    9334.660    9509.060    5257.690
     117.050   3759.5500    535.5000     8.93164    5207.300    7634.590    9298.540    9794.860    5265.430
     117.070   3346.0700    567.0000     8.93652    5146.400    7597.650    9323.310   10082.300    5201.400
     117.090   3585.2500    579.7500     8.97949    5041.110    7587.610    9299.920   10270.300    4991.260
     117.110   3253.1100    554.0000     8.96582    5029.260    7512.820    9296.450   10523.100    4331.170
     117.130   2642.6600    543.3750     8.93652    5026.560    7372.560    9212.220   10699.500    4102.430
     117.150   3212.8200    564.6250     8.96094    4972.320    7305.660    9151.920   10682.000    4588.860
     117.170   3430.3100    572.2500     8.91309    4933.540    7265.530    9194.800   10559.700    4640.740
     117.190   2441.0500    552.2500     8.95410    4910.580    7215.280    9294.110   10572.300    4175.480
     117.210   3127.4200    546.8750     8.98438    4858.210    7189.230    9283.110   10726.700    4193.350
     117.230   2866.7400    569.5000     8.95215    4778.450    7102.280    9171.880   10799.000    4422.590
     117.250   3160.3400    580.6250     8.96191    4744.730    7036.140    9218.100   10568.400    4301.130
     117.270   3403.2000    574.5000     8.97461    4724.130    7032.230    9310.180   10485.600    4283.210
     117.290   2834.0100    569.7500     8.92285    4706.680    7059.420    9316.540   10630.000    4316.520
     117.310   3414.8200    565.5000     8.99805    4699.570    7027.320    9366.840   10668.400    4682.650
     117.330   2704.4400    562.2500     8.92676    4651.650    6942.100    9407.920   10766.500    5419.830
     117.350   2927.1600    559.7500     8.93848    4621.970    6968.650    9318.860   10798.400    5715.270
     117.370   3212.0500    572.7500     8.94238    4628.470    7028.410    9146.730   10747.800    5560.820
     117.390   3025.3500    619.8750     8.96387    4649.260    7038.860    9083.890   10715.000    5418.350
     117.410   2616.3200    652.7500     8.97461    4634.370    7061.220    9132.100   10703.500    5549.760
     117.430   3513.9800    661.7500     8.93652    4593.700    7077.540    9130.290   10698.700    5537.470
     117.450   3386.9300    656.5000     8.98438    4619.560    7033.170    8933.930   10798.700    5417.160
     117.470   3446.0000    617.3750     8.94336    4668.410    6939.060    8863.930   10854.300    5636.810
     117.490   2733.4900    598.1250     8.94043    4689.660    6901.580    8962.470   10775.700    5863.940
     117.510   2846.9800    619.5000     8.97070    4704.190    6929.060    8978.690   10558.300    5874.700
     117.530   3365.6300    625.5000     8.93164    4710.930    6930.460    9005.280   10304.400    5493.430
     117.550   2517.3600    601.5000     8.94043    4685.380    6826.820    8991.550   10388.200    5183.640
     117.570   2626.2000    599.3750     8.95020    4624.440    6801.170    8945.100   10635.400    5150.030
     117.590   3067.3800    646.5000     8.94336    4592.000    6861.030    8901.300   10665.900    5185.690
     117.610   2549.2200    675.5000     8.94922    4599.680    6870.520    8893.110   10531.300    5411.960
     117.630   2809.8000    667.0000     8.92188    4586.210    6887.270    8908.730   10521.600    5438.930
     117.650   3491.1300    660.3750     8.96777    4511.020    6877.750    8977.980   10484.800    5252.870
     117.670   2761.7700    655.8750     8.95508    4483.230    6850.050    9027.560   10163.300    5329.680
     117.690   3289.7100    639.8750     8.97559    4505.170    6817.670    9007.570   10048.900    5612.280
     117.710   3109.9900    594.7500     8.95898    4506.050    6798.440    8909.830   10403.400    5734.880
     117.730   3329.6100    562.0000     8.93848    4513.020    6789.490    8771.890   10603.200    5789.120
     117.750   3169.2500    551.5000     8.95508    4516.780    6796.850    8790.670   10592.000    5975.540
     117.770   2937.6200    552.2500     8.97266    4523.290    6793.640    8877.780   10547.800    6079.640
     117.790   3108.2400    580.1250     8.93359    4515.960    6761.300    8844.430   10392.600    6121.460
     117.810   2455.7700    606.8750     8.94727    4504.300    6682.370    8746.710   10374.300    6383.640
     117.830   2525.4000    636.5000     8.92871    4501.500    6598.410    8742.800   10475.600    6540.480
     117.850   2391.8600    653.6250     8.94922    4510.920    6606.380    8692.210   10419.000    6352.970
     117.870   2900.4400    644.6250     8.97949    4507.470    6649.970    8450.630   10243.100    5998.290
     117.890   3236.4500    622.5000     8.92676    4479.940    6632.670    8370.740   10468.700    5920.070
     117.910   2678.4900    568.5000     8.95410    4428.810    6565.690    8613.330   10865.700    6156.580
     117.930   3615.0700    548.3750     8.97754    4380.770    6543.860    8753.600   10921.400    6250.230
     117.950   2604.3200    604.3750     8.96387    4365.610    6509.630    8739.850   10909.100    5825.750
     117.970   3467.8900    631.0000     8.94336    4360.870    6371.200    8760.950   10739.700    5582.120
