~VERSION INFORMATION SECTION
VERS.           2.0  :CWLS Log ASCII Standard - 2.0
WRAP.           NO   :One line per depth
#               Created in SeisLab
~WELL INFORMATION SECTION
#MNEM.UNIT  VALUE/NAME               :DESCRIPTION    
STRT.m  10                           :Start Depth    
STOP.m  125                          :Stop Depth     
STEP.m  0.01                         :Step           
NULL.    -999.25                     :Null Value     
WELL.    GDP1                        :Well Name      
CTRY.    Switzerland                 :Country        
CNTY.                                :County         
STAT.    Central Swiss Alps          :State          
API .                                :API number     
UWI .                                :Unique well ID 
LOC .    Grimsel Pass, Switzerland   :Well Location  
FLD .    n/a                         :Field          
COMP.    n/a                         :Company        
SRVC.    University of Lausanne      :Service Company
DATE.    2016                        :Date           
~PARAMETER INFORMATION SECTION
#MNEM .UNITS  VALUE   :DESCRIPTION OF PARAMETER
Casing.n/a    1       :slotted PVC casing      
~CURVE INFORMATION SECTION
#MNEM.UNITS  API CODES   :DESCRIPTION OF MNEMONIC
depth.m                  :measured depth         
NG   .cps                :Natural gamma          
Sp   .mV                 :Self potential         
Temp .DegC               :Temperature            
SPR  .Ohm                :Single point resistance
R8   .Ohm.m              :Normal resistivity     
R16  .Ohm.m              :Single point resistance
R32  .Ohm.m              :Normal resistivity     
R64  .Ohm.m              :Normal resistivity     
~A depth       NG          Sp          Temp        SPR         R8          R16         R32         R64         
# ...
      47.740   217.81796   1048.0000     6.25342    4135.367     914.562    1373.547    1956.233    3200.454
      47.750   217.90738   1048.0000     6.26367    4143.925     895.109    1372.512    1952.801    3206.826
      47.760   218.07645   1048.0000     6.26343    4152.484     881.731    1371.454    1949.480    3213.153
      47.770   218.32660   1048.0000     6.26319    4161.042     868.352    1370.375    1946.275    3219.401
      47.780   218.66516   1048.0000     6.26294    4169.600     868.478    1369.275    1943.190    3225.536
      47.790   219.10393   1048.0000     6.26270    4178.158     868.604    1368.154    1940.230    3231.526
      47.800   219.65725   1048.0000     6.26758    4186.716     880.053    1367.015    1937.400    3237.338
      47.810   220.33997   1048.0000     6.27246    4195.274     891.502    1365.858    1934.706    3242.944
      47.820   221.16567   1048.0000     6.27734    4203.833     894.840    1364.686    1932.151    3248.315
      47.830   222.14527   1048.0000     6.26107    4212.391     898.177    1363.500    1929.741    3253.424
      47.840   223.28619   1048.0000     6.24479    4220.949     886.448    1362.303    1927.479    3258.247
      47.850   224.59219   1048.0000     6.22852    4229.507     874.720    1361.098    1925.371    3262.761
      47.860   226.06351   1048.0000     6.23470    4238.065     876.449    1359.888    1923.420    3266.945
      47.870   227.69730   1048.0000     6.24089    4246.623     878.179    1358.675    1921.631    3270.782
      47.880   229.48791   1048.0000     6.24707    4255.182     899.337    1357.464    1920.008    3274.256
      47.890  -999.25000   1048.0000     6.25781    4263.740     920.495    1356.258    1918.554    3277.352
      47.900  -999.25000   1048.0000     6.26856    4272.298     936.000    1355.062    1917.274    3280.059
      47.910  -999.25000   1048.0000     6.27930    4280.856     951.504    1353.880    1916.170    3282.368
      47.920  -999.25000   1048.0000     6.28125    4289.414     952.074    1352.716    1915.247    3284.272
      47.930   231.42709   1048.0000     6.28320    4297.972     952.645    1351.577    1914.507    3285.766
      47.940   233.50390   1048.0000     6.27368    4306.531     948.067    1350.466    1913.953    3286.848
      47.950   235.70439   1048.0000     6.26416    4315.089     943.489    1349.390    1913.588    3287.515
      47.960   238.01095   1048.0000     6.25464    4323.647     944.990    1348.354    1913.414    3287.770
      47.970   240.40160   1048.0000     6.24512    4332.205     946.491    1347.364    1913.433    3287.615
      47.980   242.84919   1048.0000     6.25033    4340.763     938.421    1346.425    1913.647    3287.054
      47.990   245.32103   1048.0000     6.25553    4349.321     930.350    1345.545    1914.058    3286.094
      48.000   247.77901   1048.0000     6.26074    4357.880     910.149    1344.728    1914.666    3284.741
      48.010   250.18033   1048.0000     6.26319    4366.438     889.948    1343.982    1915.472    3283.004
      48.020   252.47898   1048.0000     6.26563    4374.996     887.302    1343.312    1916.477    3280.893
      48.030   254.62774   1048.0000     6.26099    4383.554     884.656    1342.725    1917.680    3278.417
      48.040   256.58067   1048.0000     6.25635    4392.112     897.424    1342.228    1919.081    3275.589
      48.050   258.29560   1048.0000     6.25171    4400.670     910.193    1341.826    1920.678    3272.420
      48.060   259.73638   1048.0000     6.24707    4409.229     919.664    1341.526    1922.471    3268.922
      48.070   260.87470   1048.0000     6.23698    4417.787     929.135    1341.335    1924.456    3265.110
      48.080   261.69093   1048.0000     6.22689    4426.345     941.927    1341.258    1926.631    3260.996
      48.090   262.17442   1048.0000     6.21680    4434.903     954.720    1341.301    1928.993    3256.595
      48.100   262.32320   1048.0000     6.21241    4443.461     975.463    1341.471    1931.538    3251.920
      48.110   262.14385   1048.0000     6.20801    4452.019     996.207    1341.772    1934.260    3246.987
      48.120   261.65144   1048.0000     6.21973    4460.578    1003.273    1342.211    1937.154    3241.809
      48.130   260.86964   1048.0000     6.23144    4469.136    1010.339    1342.793    1940.215    3236.402
      48.140   259.83044   1048.0000     6.24316    4477.694     997.759    1343.521    1943.434    3230.780
      48.150   258.57345   1048.0000     6.24756    4486.252     985.179    1344.402    1946.805    3224.959
      48.160   257.14467   1048.0000     6.25195    4494.810     969.295    1345.438    1950.318    3218.953
      48.170   255.59478   1048.0000     6.25635    4503.368     953.411    1346.635    1953.964    3212.779
      48.180   253.97712   1048.0000     6.26074    4511.927     947.932    1347.995    1957.732    3206.451
      48.190   252.34541   1048.0000     6.24267    4520.485     942.453    1349.521    1961.611    3199.986
      48.200   250.75119   1048.0000     6.22461    4529.043     949.885    1351.216    1965.589    3193.398
      48.210   249.24132   1048.0000     6.22168    4537.601     957.317    1353.082    1969.653    3186.705
      48.220   247.85545   1048.0000     6.21875    4546.159     969.310    1355.120    1973.789    3179.923
      48.230   246.62369   1048.0000     6.21582    4554.717     975.646    1357.331    1977.981    3173.069
      48.240   245.56493   1048.0000     6.21289    4547.440     981.981    1359.716    1982.214    3166.159
      48.250   244.68590   1048.0000     6.22493    4531.690     984.304    1362.273    1986.472    3159.212
      48.260   243.98148   1048.0000     6.23698    4515.940     986.626    1365.004    1990.737    3152.244
      48.270   243.43632   1048.0000     6.24902    4500.190     988.948    1367.905    1994.991    3145.275
      48.280   243.02731   1048.0000     6.24837    4473.040     995.824    1370.976    1999.215    3138.323
      48.290   242.72671   1048.0000     6.24772    4445.890    1002.700    1374.213    2003.391    3131.408
      48.300   242.50516   1048.0000     6.24707    4418.740    1009.576    1377.614    2007.497    3124.548
      48.310   242.33422   1048.0000     6.22656    4361.965    1017.177    1381.174    2011.514    3117.765
      48.320   242.18786   1048.0000     6.20605    4305.190    1024.778    1384.888    2015.421    3111.079
      48.330   242.04303   1048.0000     6.20483    4298.127    1026.098    1388.753    2019.197    3104.510
      48.340   241.87948   1048.0000     6.20361    4291.065    1027.417    1392.763    2022.821    3098.080
      48.350   241.67937   1048.0000     6.20239    4284.002    1028.737    1396.911    2026.273    3091.811
      48.360   241.42709   1048.0000     6.20117    4276.940    1030.057    1401.190    2029.530    3085.723
      48.370   241.10951   1048.0000     6.21712    4258.647    1042.960    1405.595    2032.573    3079.839
      48.380   240.71699   1048.0000     6.23307    4240.353    1055.863    1410.117    2035.381    3074.180
      48.390   240.24482   1048.0000     6.24902    4222.060    1068.766    1414.749    2037.934    3068.768
      48.400   239.69486   1048.0000     6.24251    4226.361    1061.054    1419.481    2040.214    3063.623
      48.410   239.07693   1048.0000     6.23600    4230.663    1053.342    1424.307    2042.202    3058.768
      48.420   238.40919   1048.0000     6.22949    4234.964    1045.631    1429.217    2043.880    3054.223
      48.430   237.71750   1048.0000     6.21777    4239.265    1048.801    1434.202    2045.233    3050.006
      48.440   237.03340   1048.0000     6.20606    4243.566    1051.972    1439.253    2046.245    3046.138
      48.450   236.39103   1048.0000     6.19434    4247.867    1055.143    1444.362    2046.902    3042.636
      48.460   235.82346   1048.0000     6.20345    4252.169    1057.618    1449.518    2047.193    3039.518
      48.470   235.35895   1048.0000     6.21257    4256.470    1060.092    1454.714    2047.107    3036.798
