~VERSION INFORMATION SECTION
VERS.           2.0  :CWLS Log ASCII Standard - 2.0
WRAP.           NO   :One line per depth
#               Created in SeisLab
~WELL INFORMATION SECTION
#MNEM.UNIT  VALUE/NAME               :DESCRIPTION    
STRT.m  10                           :Start Depth    
STOP.m  125                          :Stop Depth     
STEP.m  0.01                         :Step           
NULL.    -999.25                     :Null Value     
WELL.    GDP1                        :Well Name      
CTRY.    Switzerland                 :Country        
CNTY.                                :County         
STAT.    Central Swiss Alps          :State          
API .                                :API number     
UWI .                                :Unique well ID 
LOC .    Grimsel Pass, Switzerland   :Well Location  
FLD .    n/a                         :Field          
COMP.    n/a                         :Company        
SRVC.    University of Lausanne      :Service Company
DATE.    2017                        :Date           
~PARAMETER INFORMATION SECTION
#MNEM .UNITS  VALUE   :DESCRIPTION OF PARAMETER
Casing.n/a    1       :slotted PVC casing      
~CURVE INFORMATION SECTION
#MNEM.UNITS  API CODES   :DESCRIPTION OF MNEMONIC
depth.m                  :measured depth         
NG   .cps                :Natural gamma          
Sp   .mV                 :Self potential         
Temp .DegC               :Temperature            
SPR  .Ohm                :Single point resistance
R8   .Ohm.m              :Normal resistivity     
R16  .Ohm.m              :Single point resistance
R32  .Ohm.m              :Normal resistivity     
R64  .Ohm.m              :Normal resistivity     
~A depth       NG          Sp          Temp        SPR         R8          R16         R32         R64         
# ...
      58.840   253.63841   1105.0006     6.21289    5530.150    1313.556    1239.829    1434.553    2222.655
      58.850   253.00257   1105.0006     6.19336    5527.660    1303.191    1225.021    1439.468    2216.628
      58.860   252.44071   1105.0007     6.17383    5525.170    1292.827    1210.214    1444.383    2210.600
      58.870   251.93995   1105.0007     6.18506    5556.305    1278.372    1196.881    1446.462    2204.573
      58.880   251.49036   1105.0007     6.19629    5587.440    1263.917    1183.548    1448.540    2198.545
      58.890   251.08495   1105.0007     6.17724    5652.360    1245.777    1172.774    1454.949    2192.517
      58.900   250.71917   1105.0007     6.15820    5717.280    1227.637    1161.999    1461.358    2186.490
      58.910   250.39006   1105.0006     6.16748    5801.085    1207.362    1153.965    1465.456    2180.462
      58.920   250.09567   1105.0005     6.17676    5884.890    1187.086    1145.930    1469.555    2174.435
      58.930   249.83454   1105.0003     6.17871    5999.730    1166.357    1139.223    1484.885    2168.407
      58.940   249.60569   1105.0001     6.18066    6114.570    1145.628    1132.516    1500.214    2162.379
      58.950   249.40872   1104.9999     6.17725    6230.850    1124.435    1176.539    1513.423    2156.352
      58.960   249.24382   1104.9996     6.17383    6347.130    1103.242    1173.553    1526.632    2150.324
      58.970   249.11170   1104.9993     6.18555    6365.385    1084.677    1171.386    1540.639    2144.297
      58.980   249.01345   1104.9989     6.19727    6383.640    1066.112    1170.062    1554.645    2138.269
      58.990   248.95076   1104.9985     6.19581    6312.815    1051.293    1169.594    1565.950    2132.241
      59.000   248.92629   1104.9980     6.19434    6241.990    1036.474    1169.984    1577.254    2126.214
      59.010   248.94398   1104.9976     6.18896    6127.910    1025.103    1171.224    1581.906    2120.186
      59.020   249.00914   1104.9971     6.18359    6013.830    1013.732    1173.296    1586.558    2114.159
      59.030   249.12830   1104.9967     6.19482    5879.560    1004.072    1176.169    1597.546    2108.131
      59.040   249.30877   1104.9963     6.20605    5745.290     994.413    1179.806    1608.533    2102.103
      59.050   249.55803   1104.9959     6.21729    5610.355     985.983    1184.160    1608.262    2096.076
      59.060   249.88313   1104.9957     6.22852    5475.420     977.554    1189.175    1607.991    2090.048
      59.070   250.29018   1104.9955     6.21582    5346.955     971.513    1194.789    1611.478    2084.021
      59.080   250.78405   1104.9956     6.20313    5218.490     965.471    1200.933    1614.965    2077.993
      59.090   251.36807   1104.9958     6.20215    5109.380     960.738    1207.532    1615.724    2071.965
      59.100   252.04359   1104.9962     6.20117    5000.270     956.005    1214.508    1783.452    2065.938
      59.110   252.80954   1104.9968     6.18750    4911.350     951.202    1221.781    1790.843    2059.910
      59.120   253.66208   1104.9977     6.17383    4822.430     946.399    1229.265    1768.400    2053.883
      59.130   254.59438   1104.9988     6.18555    4745.795     940.636    1236.879    1745.956    2047.855
      59.140   255.59665   1105.0003     6.19727    4669.160     934.874    1244.539    1719.796    2041.827
      59.150   256.65639   1105.0020     6.18994    4604.495     929.444    1252.162    1693.637    2035.800
      59.160   257.75868   1105.0041     6.18262    4539.830     924.014    1259.670    1686.926    2029.772
      59.170   258.88664   1105.0063     6.18848    4494.630     917.063    1266.988    1680.214    2023.745
      59.180   260.02197   1105.0088     6.19434    4449.430     910.112    1274.045    1660.874    2017.717
      59.190   261.14542   1105.0115     6.18896    4429.635     904.934    1280.778    1641.534    2011.689
      59.200   262.23711   1105.0143     6.18359    4409.840     899.756    1287.128    1650.466    2005.662
      59.210   263.27652   1105.0171     6.18652    4416.035     894.508    1293.044    1659.398    1999.634
      59.220   264.24264   1105.0198     6.18945    4422.230     889.260    1298.483    1695.146    1993.607
      59.230   265.11438   1105.0223     6.19775    4439.070     888.211    1303.411    1730.894    1987.579
      59.240   265.87157   1105.0244     6.20605    4455.910     887.162    1307.803    1720.119    2217.318
      59.250   266.49632   1105.0260     6.21143    4469.030     886.020    1311.640    1709.344    2450.030
      59.260   266.97493   1105.0269     6.21680    4482.150     884.879    1314.915    1675.641    2252.099
      59.270   267.29981   1105.0270     6.20362    4491.165     885.130    1317.628    1641.939    2054.168
      59.280   267.47109   1105.0261     6.19043    4500.180     885.382    1319.789    1659.664    1957.441
      59.290   267.49735   1105.0239     6.18310    4522.925     886.694    1321.416    1677.389    1951.413
      59.300   267.39551   1105.0203     6.17578    4545.670     888.006    1322.533    1722.259    1945.386
      59.310   267.18980   1105.0152     6.18408    4586.595     889.163    1323.174    1767.129    1939.358
      59.320   266.91000   1105.0085     6.19238    4627.520     890.320    1323.377    1754.063    1933.331
      59.330   266.58911   1105.0000     6.18750    4676.645     895.270    1323.189    1740.996    1927.303
      59.340   266.26099   1104.9898     6.18262    4725.770     900.220    1322.659    1705.773    1921.275
      59.350   265.95853   1104.9779     6.18506    4763.200     901.907    1321.842    1670.550    1915.248
      59.360   265.71214   1104.9644     6.18750    4800.630     903.595    1320.794    1664.527    1909.220
      59.370   265.54885   1104.9495     6.18896    4817.850     906.072    1319.576    1658.505    1903.193
      59.380   265.49163   1104.9335     6.19043    4835.070     908.549    1318.247    1671.399    1897.165
      59.390   265.55902   1104.9168     6.19727    4832.945     909.447    1316.869    1684.294    1891.137
      59.400   265.76514   1104.8999     6.20410    4830.820     910.344    1315.502    1725.743    1885.110
      59.410   266.11973   1104.8834     6.20752    4816.320     911.308    1314.205    1767.192    1879.082
      59.420   266.62828   1104.8680     6.21094    4801.820     912.272    1313.032    1798.366    1882.310
      59.430   267.29211   1104.8547     6.20264    4789.680     874.445    1312.038    1829.539    1883.142
      59.440   268.10844   1104.8443     6.19434    4777.540     874.128    1311.270    1834.017    1883.974
      59.450   269.07068   1104.8379     6.18409    4770.570     873.729    1310.773    1838.494    1889.803
      59.460   270.16853   1104.8365     6.17383    4763.600     873.287    1310.584    1857.128    1895.631
      59.470   271.38781   1104.8412     6.19189    4761.685     872.841    1310.736    1875.762    1907.865
      59.480   272.71039   1104.8531     6.20996    4759.770     872.432    1311.257    1851.952    1920.098
      59.490   274.11451   1104.8733     6.19873    4750.180     872.103    1312.167    1828.142    1936.713
      59.500   275.57543   1104.9027     6.18750    4740.590     871.894    1313.479    1754.163    1953.328
      59.510   277.06620   1104.9420     6.18408    4720.290     871.849    1315.201    1680.184    1970.419
      59.520   278.55842   1104.9917     6.18066    4699.990     872.006    1317.335    1649.574    1987.509
      59.530   280.02287   1105.0521     6.18311    4678.290     872.406    1319.873    1618.964    1998.717
      59.540   281.43019   1105.1231     6.18555    4656.590     873.084    1322.805    1653.234    2009.925
      59.550   282.75155   1105.2041     6.20118    4647.970     874.074    1326.113    1687.504    2023.030
      59.560   283.95938   1105.2940     6.21680    4639.350     875.406    1329.775    1737.184    2036.134
      59.570   285.02833   1105.3912     6.20996    4645.520     877.106    1333.762    1786.865    2039.977
