~VERSION INFORMATION SECTION
VERS.           2.0  :CWLS Log ASCII Standard - 2.0
WRAP.           NO   :One line per depth
#               Created in SeisLab
~WELL INFORMATION SECTION
#MNEM.UNIT  VALUE/NAME               :DESCRIPTION    
STRT.m  10                           :Start Depth    
STOP.m  124                          :Stop Depth     
STEP.m  0.01                         :Step           
NULL.    -999.25                     :Null Value     
WELL.    GDP1                        :Well Name      
CTRY.    Switzerland                 :Country        
CNTY.                                :County         
STAT.    Central Swiss Alps          :State          
API .                                :API number     
UWI .                                :Unique well ID 
LOC .    Grimsel pass, Switzerland   :Well Location  
FLD .    n/a                         :Field          
COMP.    n/a                         :Company        
SRVC.    University of Lausanne      :Service Company
DATE.    2015/2016                   :Date           
~PARAMETER INFORMATION SECTION
#MNEM .UNITS  VALUE   :DESCRIPTION OF PARAMETER
Casing.n/a    0       :open hole/cased hole    
~CURVE INFORMATION SECTION
#MNEM       .UNITS  API CODES   :DESCRIPTION OF MNEMONIC      
depth       .m                  :measured depth (interpolated)
BHR velocity.m/ns               :BHR velocity 2015            
BHR velocity.m/ns               :BHR velocity 2016            
~A depth       BHR_velocity BHR_velocity
# ...
      12.170     0.11604     0.12378
      12.180     0.11603     0.12371
      12.190     0.11602     0.12364
      12.200     0.11597     0.12358
      12.210     0.11593     0.12351
      12.220     0.11590     0.12324
      12.230     0.11588     0.12296
      12.240     0.11588     0.12270
      12.250     0.11588     0.12243
      12.260     0.11582     0.12216
      12.270     0.11576     0.12207
      12.280     0.11572     0.12198
      12.290     0.11567     0.12189
      12.300     0.11566     0.12181
      12.310     0.11565     0.12172
      12.320     0.11564     0.12174
      12.330     0.11563     0.12176
      12.340     0.11557     0.12178
      12.350     0.11551     0.12181
      12.360     0.11548     0.12183
      12.370     0.11544     0.12189
      12.380     0.11542     0.12196
      12.390     0.11540     0.12203
      12.400     0.11535     0.12209
      12.410     0.11531     0.12216
      12.420     0.11524     0.12203
      12.430     0.11517     0.12189
      12.440     0.11513     0.12176
      12.450     0.11510     0.12163
      12.460     0.11508     0.12150
      12.470     0.11505     0.12181
      12.480     0.11505     0.12212
      12.490     0.11505     0.12243
      12.500     0.11504     0.12274
      12.510     0.11503     0.12306
      12.520     0.11505     0.12317
      12.530     0.11508     0.12328
      12.540     0.11512     0.12339
      12.550     0.11517     0.12351
      12.560     0.11521     0.12362
      12.570     0.11526     0.12369
      12.580     0.11531     0.12376
      12.590     0.11535     0.12383
      12.600     0.11540     0.12390
      12.610     0.11544     0.12396
      12.620     0.11548     0.12390
      12.630     0.11551     0.12383
      12.640     0.11553     0.12376
      12.650     0.11556     0.12369
      12.660     0.11557     0.12362
      12.670     0.11558     0.12362
      12.680     0.11556     0.12362
      12.690     0.11553     0.12362
      12.700     0.11553     0.12362
      12.710     0.11553     0.12362
      12.720     0.11556     0.12367
      12.730     0.11558     0.12371
      12.740     0.11556     0.12376
      12.750     0.11553     0.12380
      12.760     0.11553     0.12385
      12.770     0.11553     0.12392
      12.780     0.11555     0.12399
      12.790     0.11556     0.12406
      12.800     0.11558     0.12412
      12.810     0.11560     0.12419
      12.820     0.11557     0.12419
      12.830     0.11553     0.12419
      12.840     0.11553     0.12419
      12.850     0.11553     0.12419
      12.860     0.11552     0.12419
      12.870     0.11551     0.12419
      12.880     0.11549     0.12419
      12.890     0.11547     0.12419
      12.900     0.11541     0.12419
      12.910     0.11535     0.12419
      12.920     0.11533     0.12426
      12.930     0.11531     0.12433
      12.940     0.11531     0.12440
      12.950     0.11531     0.12447
      12.960     0.11528     0.12454
      12.970     0.11526     0.12449
      12.980     0.11526     0.12445
      12.990     0.11526     0.12440
      13.000     0.11529     0.12435
      13.010     0.11533     0.12431
      13.020     0.11532     0.12431
      13.030     0.11531     0.12431
      13.040     0.11529     0.12431
      13.050     0.11528     0.12431
      13.060     0.11532     0.12431
      13.070     0.11535     0.12435
      13.080     0.11535     0.12440
      13.090     0.11535     0.12445
      13.100     0.11533     0.12449
      13.110     0.11531     0.12454
      13.120     0.11534     0.12461
      13.130     0.11537     0.12468
      13.140     0.11539     0.12475
      13.150     0.11540     0.12482
      13.160     0.11536     0.12489
      13.170     0.11533     0.12484
      13.180     0.11533     0.12479
      13.190     0.11533     0.12475
      13.200     0.11533     0.12470
      13.210     0.11533     0.12465
      13.220     0.11531     0.12458
      13.230     0.11528     0.12452
      13.240     0.11525     0.12445
      13.250     0.11521     0.12438
      13.260     0.11521     0.12431
      13.270     0.11521     0.12435
      13.280     0.11520     0.12440
      13.290     0.11519     0.12445
      13.300     0.11517     0.12449
      13.310     0.11515     0.12454
      13.320     0.11513     0.12458
      13.330     0.11512     0.12463
      13.340     0.11515     0.12468
      13.350     0.11517     0.12472
      13.360     0.11518     0.12477
      13.370     0.11519     0.12475
      13.380     0.11520     0.12472
      13.390     0.11521     0.12470
      13.400     0.11524     0.12468
      13.410     0.11526     0.12465
      13.420     0.11525     0.12468
      13.430     0.11524     0.12470
      13.440     0.11521     0.12472
      13.450     0.11519     0.12475
      13.460     0.11520     0.12477
      13.470     0.11521     0.12477
      13.480     0.11519     0.12477
      13.490     0.11517     0.12477
      13.500     0.11516     0.12477
      13.510     0.11515     0.12477
      13.520     0.11516     0.12484
      13.530     0.11517     0.12491
      13.540     0.11519     0.12498
      13.550     0.11521     0.12505
      13.560     0.11517     0.12512
      13.570     0.11512     0.12519
      13.580     0.11513     0.12526
      13.590     0.11515     0.12533
      13.600     0.11515     0.12540
      13.610     0.11515     0.12547
      13.620     0.11517     0.12554
      13.630     0.11519     0.12561
      13.640     0.11517     0.12568
      13.650     0.11515     0.12575
      13.660     0.11517     0.12582
      13.670     0.11519     0.12589
      13.680     0.11521     0.12596
      13.690     0.11524     0.12603
      13.700     0.11525     0.12611
      13.710     0.11526     0.12618
      13.720     0.11527     0.12615
      13.730     0.11528     0.12613
      13.740     0.11532     0.12611
      13.750     0.11535     0.12608
      13.760     0.11539     0.12606
      13.770     0.11542     0.12611
      13.780     0.11544     0.12615
      13.790     0.11547     0.12620
      13.800     0.11549     0.12625
      13.810     0.11551     0.12630
      13.820     0.11550     0.12627
      13.830     0.11549     0.12625
      13.840     0.11550     0.12622
      13.850     0.11551     0.12620
      13.860     0.11551     0.12618
      13.870     0.11551     0.12620
      13.880     0.11550     0.12622
      13.890     0.11549     0.12625
      13.900     0.11547     0.12627
      13.910     0.11544     0.12630
      13.920     0.11544     0.12622
      13.930     0.11544     0.12615
      13.940     0.11543     0.12608
      13.950     0.11542     0.12601
      13.960     0.11541     0.12594
      13.970     0.11540     0.12556
      13.980     0.11537     0.12519
      13.990     0.11535     0.12482
      14.000     0.11534     0.12445
      14.010     0.11533     0.12408
      14.020     0.11532     0.12410
      14.030     0.11531     0.12412
      14.040     0.11528     0.12415
      14.050     0.11526     0.12417
      14.060     0.11523     0.12419
      14.070     0.11519     0.12412
      14.080     0.11516     0.12406
      14.090     0.11512     0.12399
      14.100     0.11510     0.12392
      14.110     0.11508     0.12385
      14.120     0.11505     0.12415
      14.130     0.11503     0.12445
      14.140     0.11499     0.12475
      14.150     0.11494     0.12505
      14.160     0.11491     0.12535
      14.170     0.11487     0.12547
      14.180     0.11484     0.12559
      14.190     0.11480     0.12570
      14.200     0.11478     0.12582
      14.210     0.11476     0.12594
      14.220     0.11474     0.12613
      14.230     0.11471     0.12632
      14.240     0.11472     0.12651
      14.250     0.11474     0.12670
      14.260     0.11471     0.12689
      14.270     0.11469     0.12713
      14.280     0.11469     0.12737
      14.290     0.11469     0.12762
      14.300     0.11468     0.12786
      14.310     0.11467     0.12810
      14.320     0.11466     0.12759
      14.330     0.11465     0.12708
