~VERSION INFORMATION SECTION
VERS.           2.0  :CWLS Log ASCII Standard - 2.0
WRAP.           NO   :One line per depth
#               Created in SeisLab
~WELL INFORMATION SECTION
#MNEM.UNIT  VALUE/NAME               :DESCRIPTION    
STRT.m  47.59                        :Start Depth    
STOP.m  123.23                       :Stop Depth     
STEP.m  0.02                         :Step           
NULL.    -999.25                     :Null Value     
WELL.    GDP1                        :Well Name      
CTRY.    Switzerland                 :Country        
CNTY.                                :County         
STAT.    Central Swiss Alps          :State          
API .                                :API number     
UWI .                                :Unique well ID 
LOC .    Grimsel Pass, Switzerland   :Well Location  
FLD .    n/a                         :Field          
COMP.    n/a                         :Company        
SRVC.    University of Lausanne      :Service Company
DATE.    2017                        :Date           
~PARAMETER INFORMATION SECTION
#MNEM .UNITS  VALUE   :DESCRIPTION OF PARAMETER
Casing.n/a    1       :slotted PVC casing      
~CURVE INFORMATION SECTION
#MNEM.UNITS  API CODES   :DESCRIPTION OF MNEMONIC
depth.m                  :measured depth         
NG   .cps                :Natural gamma          
Sp   .mV                 :Self potential         
Temp .DegC               :Temperature            
SPR  .Ohm                :Single point resistance
R8   .Ohm.m              :Normal resistivity     
R16  .Ohm.m              :Single point resistance
R32  .Ohm.m              :Normal resistivity     
R64  .Ohm.m              :Normal resistivity     
~A depth       NG          Sp          Temp        SPR         R8          R16         R32         R64         
# ...
      97.910   276.00000    937.7500     7.21484     -1411.3      6351.4     4504.38     2130.90     1689.69
      97.930   279.73400    981.2500     7.22070     10636.3      5927.2     4539.43     2159.48     1659.44
      97.950   235.82000   1021.3800     7.22363     18095.2      5562.2     4489.05     2199.36     1664.14
      97.970   289.20300   1024.8800     7.22168     15435.7      5233.3     4392.27     2224.15     1689.07
      97.990   246.81300   1021.3800     7.21680     14821.6      4919.0     4279.66     2249.97     1673.87
      98.010   290.42200   1026.2500     7.22852     14690.1      4641.9     4155.35     2264.81     1638.49
      98.030   264.23400   1031.8800     7.20801     14773.0      4447.8     4027.73     2270.83     1627.84
      98.050   283.57800   1035.3800     7.22754     14765.3      4338.9     3918.27     2282.31     1624.77
      98.070   277.64100   1038.3800     7.20313     14366.0      4273.5     3824.44     2304.60     1612.80
      98.090   273.42200   1024.7500     7.22852     13821.3      4223.4     3731.16     2338.11     1606.28
      98.110   276.76600   1007.5000     7.24219     13504.0      4173.2     3649.65     2365.10     1610.26
      98.130   251.25800   1007.0000     7.22852     13425.4      4125.0     3603.90     2362.41     1626.14
      98.150   253.40600   1010.3800     7.22363     13216.1      4092.1     3609.50     2327.01     1645.61
      98.170   253.21100   1024.0000     7.22363     12477.9      4078.4     3626.42     2283.88     1650.50
      98.190   267.01600   1040.3800     7.22559     11761.0      4073.8     3647.36     2228.22     1636.53
      98.210   274.17200   1045.7500     7.22559     11328.8      4077.5     3650.99     2168.95     1621.64
      98.230   289.39100   1049.3800     7.21875     10961.6      4088.1     3634.39     2108.06     1622.32
      98.250   268.35900   1049.0000     7.23242     10784.5      4112.0     3600.04     2050.83     1638.05
      98.270   250.07000   1049.3800     7.24902     10818.7      4134.6     3545.55     2006.05     1626.01
      98.290   289.18800   1050.1300     7.24609     11046.1      4153.1     3486.57     1967.55     1622.11
      98.310   294.87500   1049.2500     7.24902     11693.8      4154.7     3412.57     1924.69     1630.70
      98.330   263.67200   1033.8800     7.22168     12770.9      4139.0     3312.52     1883.96     1631.63
      98.350   276.92200   1014.7500     7.24609     13631.2      4111.9     3188.31     1852.31     1641.44
      98.370   253.99200   1008.1300     7.25293     13994.3      4073.7     3053.61     1841.97     1641.95
      98.390   254.10900   1003.5000     7.23730     14174.6      4035.6     2905.51     1842.26     1640.18
      98.410   276.59400    974.1250     7.25293     14210.6      3981.5     2750.04     1819.77     1667.05
      98.430   240.40600    940.2500     7.26953     14190.6      3889.7     2594.92     1788.41     1682.97
      98.450   280.60900    933.5000     7.22852     14182.6      3754.3     2453.20     1772.07     1704.18
      98.470   288.89100    930.5000     7.25098     13908.5      3585.7     2336.56     1760.60     1722.37
      98.490   258.71900    930.5000     7.24414     13024.7      3384.6     2245.53     1744.44     1752.48
      98.510   285.73400    930.2500     7.25098     11911.4      3157.8     2174.19     1731.63     1777.06
      98.530   279.59400    926.8750     7.23926     11120.0      2918.6     2118.70     1721.98     1787.72
      98.550   248.91400    923.0000     7.25098     10329.1      2690.1     2072.50     1714.93     1815.61
      98.570   311.37500    917.7500     7.25586      9421.1      2491.0     2038.22     1707.78     1803.73
      98.590   293.95300    911.7500     7.25586      8321.6      2328.3     2008.47     1695.05     1816.95
      98.610   331.01600    916.8750     7.25586      7347.9      2202.3     1965.37     1672.83     1848.09
      98.630   294.93800    924.1250     7.26465      6659.7      2107.9     1920.05     1649.60     1869.85
      98.650   295.73400    937.7500     7.25781      6120.4      2033.4     1887.84     1633.87     1857.67
      98.670   306.31300    952.8750     7.25488      5813.9      1973.2     1863.30     1625.66     1868.20
      98.690   313.84400    946.3750     7.23242      5633.5      1920.2     1840.23     1603.75     1854.79
      98.710   333.25000    935.8750     7.24414      5568.3      1866.1     1821.68     1588.37     1830.56
      98.730   272.32800    927.6250     7.27148      5625.8      1822.9     1804.18     1582.13     1819.88
      98.750   320.25000    920.0000     7.25293      5777.5      1805.1     1784.04     1572.68     1817.05
      98.770   315.92200    926.8750     7.24902      6007.6      1813.4     1761.27     1568.15     1840.45
      98.790   316.70300    936.6250     7.24902      6332.0      1846.1     1736.82     1561.42     1857.04
      98.810   306.67200    933.2500     7.25293      6661.1      1909.6     1709.92     1555.24     1942.40
      98.830   304.50000    926.8750     7.26953      6886.0      2006.0     1685.38     1568.93     2164.41
      98.850   282.98400    919.1250     7.23926      7065.8      2124.6     1671.28     1578.33     2812.94
      98.870   317.98400    911.1250     7.22559      7348.3      2245.7     1668.54     1592.11     4522.33
      98.890   323.78100    891.7500     7.25586      7678.9      2352.6     1668.68     1605.11    11160.90
      98.910   348.03100    869.8750     7.28027      7906.3      2437.0     1686.19     1629.66   -30803.70
      98.930   305.32800    870.8750     7.25098      8120.3      2496.9     1727.20     1651.81    -9332.46
      98.950   320.45300    875.7500     7.26074      8361.6      2534.3     1781.91     1662.45    -7201.02
      98.970   284.17200    877.0000     7.27344      8531.5      2556.6     1842.53     1686.73    -8513.23
      98.990   312.73400    877.6250     7.24902      8541.5      2567.7     1898.43     1688.04   -16724.90
      99.010   275.45300    882.1250     7.23535      8492.5      2574.9     1946.49     1702.65    21113.60
      99.030   290.07800    887.2500     7.24902      8364.5      2579.8     1999.10     1724.64     5058.00
      99.050   253.99200    879.7500     7.28516      8103.9      2576.8     2038.27     1741.54     2821.52
      99.070   253.87500    870.2500     7.24219      7957.6      2566.7     2069.93     1734.89     2187.19
      99.090   251.46900    883.3750     7.25977      7815.6      2553.6     2093.02     1741.38     1999.51
      99.110   264.15600    901.1250     7.24414      7543.8      2537.9     2124.40     1734.88     1936.95
      99.130   283.25000    900.8750     7.27344      7230.6      2527.7     2153.78     1731.83     1904.58
      99.150   262.10900    897.1250     7.29199      6939.9      2507.7     2174.10     1744.71     1906.49
      99.170   269.57800    893.6250     7.26074      6739.8      2476.3     2210.27     1771.61     1928.02
      99.190   277.45300    890.0000     7.25293      6523.5      2432.1     2233.49     1825.59     1929.09
      99.210   293.78100    890.3750     7.29199      6334.9      2391.9     2264.29     1892.10     1931.21
      99.230   274.28100    891.7500     7.28125      6269.9      2352.3     2293.03     2045.07     1945.82
      99.250   297.73400    896.6250     7.27344      6210.7      2312.2     2315.74     2372.31     1960.82
      99.270   254.44500    902.7500     7.28125      6146.2      2293.0     2314.23     3195.09     1963.14
      99.290   314.21900    915.0000     7.24805      6094.5      2277.9     2312.69     5321.59     1979.18
      99.310   278.15600    929.2500     7.25781      6052.6      2279.2     2293.63    13763.00     2014.58
      99.330   285.01600    944.2500     7.25098      6013.0      2290.1     2272.38   -38766.10     2028.60
      99.350   244.06300    959.7500     7.26953      5994.9      2305.1     2260.07   -11827.40     2038.78
      99.370   293.46900    963.1250     7.27148      6044.3      2311.6     2252.25    -9339.56     2038.47
