~VERSION INFORMATION SECTION
VERS.           2.0  :CWLS Log ASCII Standard - 2.0
WRAP.           NO   :One line per depth
#               Created in SeisLab
~WELL INFORMATION SECTION
#MNEM.UNIT  VALUE/NAME               :DESCRIPTION    
STRT.m  10                           :Start Depth    
STOP.m  125                          :Stop Depth     
STEP.m  0.01                         :Step           
NULL.    -999.25                     :Null Value     
WELL.    GDP1                        :Well Name      
CTRY.    Switzerland                 :Country        
CNTY.                                :County         
STAT.    Central Swiss Alps          :State          
API .                                :API number     
UWI .                                :Unique well ID 
LOC .    Grimsel Pass, Switzerland   :Well Location  
FLD .    n/a                         :Field          
COMP.    n/a                         :Company        
SRVC.    University of Lausanne      :Service Company
DATE.    2015                        :Date           
~PARAMETER INFORMATION SECTION
#MNEM .UNITS    VALUE   :DESCRIPTION OF PARAMETER
Casing.n/a      0       :open hole               
Mud   .Polymer  1       :Mud type                
~CURVE INFORMATION SECTION
#MNEM.UNITS  API CODES   :DESCRIPTION OF MNEMONIC
depth.m                  :measured depth         
NG   .cps                :Natural gamma          
Sp   .mV                 :Self potential         
Temp .DegC               :Temperature            
SPR  .Ohm                :Single point resistance
R8   .Ohm.m              :Normal resistivity     
R16  .Ohm.m              :Single point resistance
R32  .Ohm.m              :Normal resistivity     
R64  .Ohm.m              :Normal resistivity     
~A depth       NG          Sp          Temp        SPR         R8          R16         R32         R64         
# ...
      93.620   290.58536    606.0807    10.33205    7536.191    1845.254    1067.106     771.219    1057.063
      93.630   291.61926    606.8222    10.32620    7632.419    1892.726    1078.103     762.338    1062.762
      93.640   292.64195    607.4747    10.32325    7724.821    1939.501    1089.208     754.417    1069.008
      93.650   293.64591    608.0267    10.32030    7813.300    1985.450    1100.399     747.492    1075.803
      93.660   294.62328    608.4635    10.32130    7897.783    2030.446    1111.650     741.590    1083.147
      93.670   295.56605    608.7689    10.32230    7978.221    2074.365    1122.935     736.733    1091.034
      93.680   296.46642    608.9254    10.32425    8054.588    2117.086    1134.225     732.938    1099.453
      93.690   297.31698    608.9171    10.32620    8126.877    2158.494    1145.491     730.211    1108.388
      93.700   298.11092    608.7306    10.31640    8195.108    2198.475    1156.701     728.554    1117.817
      93.710   298.84203    608.3561    10.30660    8259.315    2236.923    1167.823     727.961    1127.713
      93.720   299.50483    607.7880    10.31345    8319.557    2273.735    1178.824     728.420    1138.043
      93.730   300.09451    607.0252    10.32030    8375.905    2308.814    1189.668     729.913    1148.770
      93.740   300.60707    606.0702    10.32420    8428.450    2342.068    1200.320     732.413    1159.849
      93.750   301.03941    604.9297    10.32810    8477.293    2373.411    1210.745     735.889    1171.231
      93.760   301.38954    603.6148    10.31930    8522.547    2402.764    1220.905     740.303    1182.862
      93.770   301.65672    602.1412    10.31050    8564.334    2430.052    1230.765     745.613    1194.682
      93.780   301.84155    600.5298    10.30955    8602.782    2455.208    1240.287     751.771    1206.627
      93.790   301.94597    598.8071    10.30860    8638.022    2478.172    1249.434     758.725    1218.627
      93.800   301.97320    597.0050    10.30665    8670.184    2498.886    1258.172     766.417    1230.611
      93.810   301.92767    595.1609    10.30470    8699.399    2517.305    1266.465     774.788    1242.500
      93.820   301.81495    593.3164    10.29885    8725.790    2533.384    1274.279     783.776    1254.216
      93.830   301.64163    591.5163    10.29300    8749.474    2547.089    1281.580     793.314    1265.674
      93.840   301.41514    589.8071    10.31445    8770.556    2558.391    1288.339     803.336    1276.789
      93.850   301.14352    588.2350    10.33590    8789.131    2567.267    1294.524     813.774    1287.476
      93.860   300.83517    586.8445    10.31735    8805.277    2573.701    1300.108     824.559    1297.645
      93.870   300.49857    585.6771    10.29880    8819.056    2577.684    1305.065     835.622    1307.208
      93.880   300.14213    584.7701    10.31150    8830.511    2579.211    1309.373     846.897    1316.077
      93.890   299.77402    584.1555    10.32420    8839.667    2578.286    1313.010     858.317    1324.166
      93.900   299.40208    583.8589    10.32520    8846.525    2574.919    1315.960     869.816    1331.389
      93.910   299.03371    583.8979    10.32620    8851.067    2569.124    1318.205     881.334    1337.664
      93.920   298.67573    584.2804    10.30470    8853.252    2560.923    1319.736     892.812    1342.912
      93.930   298.33433    585.0030    10.28320    8853.019    2550.345    1320.542     904.193    1347.058
      93.940   298.01512    586.0507    10.27635    8850.282    2537.424    1320.619     915.427    1350.032
      93.950   297.72325    587.3962    10.26950    8844.939    2522.199    1319.965     926.465    1351.771
      93.960   297.46350    589.0014    10.29685    8836.865    2504.717    1318.579     937.266    1352.216
      93.970   297.24044    590.8191    10.32420    8825.919    2485.030    1316.468     947.791    1351.317
      93.980   297.05852    592.7961    10.32715    8811.947    2463.196    1313.640     958.007    1349.031
      93.990   296.92218    594.8755    10.33010    8794.777    2439.279    1310.105     967.887    1345.325
      94.000   296.83583    597.0003    10.29590    8774.230    2413.348    1305.879     977.408    1340.173
      94.010   296.80385    599.1157    10.26170    8750.119    2385.478    1300.980     986.554    1333.559
      94.020   296.83051    601.1714    10.28125    8722.250    2355.750    1295.430     995.313    1325.477
      94.030   296.91988    603.1233    10.30080    8690.432    2324.250    1289.254    1003.679    1315.932
      94.040   297.07574    604.9339    10.31545    8654.474    2291.070    1282.479    1011.652    1304.938
      94.050   297.30147    606.5728    10.33010    8614.189    2256.305    1275.136    1019.235    1292.520
      94.060   297.59990    608.0171    10.30175    8569.403    2220.057    1267.258    1026.438    1278.713
      94.070   297.97320    609.2516    10.27340    8519.952    2182.431    1258.882    1033.273    1263.563
      94.080   298.42264    610.2685    10.29000    8465.691    2143.537    1250.045    1039.759    1247.126
      94.090   298.94850    611.0677    10.30660    8406.494    2103.490    1240.789    1045.918    1229.468
      94.100   299.54992    611.6563    10.27730    8342.256    2062.408    1231.156    1051.773    1210.665
      94.110   300.22487    612.0470    10.24800    8272.901    2020.411    1221.188    1057.353    1190.801
      94.120   300.97004    612.2563    10.26855    8198.381    1977.624    1210.934    1062.690    1169.971
      94.130   301.78086    612.3022    10.28910    8118.677    1934.174    1200.437    1067.815    1148.275
      94.140   302.65133    612.2015    10.28615    8033.806    1890.190    1189.748    1072.762    1125.822
      94.150   303.57389    611.9667    10.28320    7943.818    1845.802    1178.912    1077.568    1102.729
      94.160   304.53936    611.6048    10.27540    7848.800    1801.143    1167.980    1082.267    1079.115
      94.170   305.53685    611.1151    10.26760    7748.878    1756.345    1157.000    1086.896    1055.108
      94.180   306.55385    610.4904    10.25685    7644.211    1711.540    1146.021    1091.491    1030.837
      94.190   307.57639    609.7177    10.24610    7535.000    1666.862    1135.090    1096.085    1006.436
      94.200   308.58923    608.7817    10.26955    7421.480    1622.440    1124.255    1100.712     982.040
      94.210   309.57625    607.6678    10.29300    7303.925    1578.405    1113.563    1105.404     957.785
      94.220   310.52075    606.3660    10.30080    7182.641    1534.884    1103.058    1110.188     933.808
      94.230   311.40594    604.8738    10.30860    7057.970    1492.001    1092.786    1115.091     910.245
      94.240   312.21539    603.1984    10.31835    6930.284    1449.878    1082.787    1120.137     887.228
      94.250   312.93351    601.3582    10.32810    6799.982    1408.632    1073.103    1125.344     864.887
      94.260   313.54601    599.3829    10.30270    6667.491    1368.375    1063.771    1130.729     843.350
      94.270   314.04025    597.3123    10.27730    6533.259    1329.215    1054.829    1136.304     822.738
      94.280   314.40552    595.1955    10.27245    6397.754    1291.254    1046.308    1142.076     803.166
      94.290   314.63323    593.0878    10.26760    6261.461    1254.588    1038.241    1148.048     784.742
      94.300   314.71704    591.0481    10.25390    6124.873    1219.307    1030.655    1154.221     767.567
      94.310   314.65296    589.1357    10.24020    5988.495    1185.493    1023.576    1160.589     751.733
      94.320   314.43953    587.4070    10.26755    5852.832    1153.220    1017.025    1167.142     737.323
      94.330   314.07784    585.9118    10.29490    5718.392    1122.558    1011.022    1173.866     724.409
      94.340   313.57165    584.6904    10.28515    5585.677    1093.564    1005.582    1180.743     713.054
      94.350   312.92726    583.7711    10.27540    5455.179    1066.291    1000.718    1187.750     703.308
