~VERSION INFORMATION SECTION
VERS.           2.0  :CWLS Log ASCII Standard - 2.0
WRAP.           NO   :One line per depth
#               Created in SeisLab
~WELL INFORMATION SECTION
#MNEM.UNIT  VALUE/NAME               :DESCRIPTION    
STRT.m  33.03                        :Start Depth    
STOP.m  122.23                       :Stop Depth     
STEP.m  0.03                         :Step           
NULL.    -999.25                     :Null Value     
WELL.    GDP1                        :Well Name      
CTRY.    Switzerland                 :Country        
CNTY.                                :County         
STAT.    Central Swiss Alps          :State          
API .                                :API number     
UWI .                                :Unique well ID 
LOC .    Grimsel Pass, Switzerland   :Well Location  
FLD .    n/a                         :Field          
COMP.    n/a                         :Company        
SRVC.    University of Lausanne      :Service Company
DATE.    2016                        :Date           
~PARAMETER INFORMATION SECTION
#MNEM .UNITS  VALUE   :DESCRIPTION OF PARAMETER
Casing.n/a    1       :slotted PVC casing      
~CURVE INFORMATION SECTION
#MNEM.UNITS  API CODES   :DESCRIPTION OF MNEMONIC
depth.m                  :measured depth         
NG   .cps                :Natural gamma          
Sp   .mV                 :Self potential         
Temp .DegC               :Temperature            
SPR  .Ohm                :Single point resistance
R8   .Ohm.m              :Normal resistivity     
R16  .Ohm.m              :Single point resistance
R32  .Ohm.m              :Normal resistivity     
R64  .Ohm.m              :Normal resistivity     
~A depth       NG          Sp          Temp        SPR         R8          R16         R32         R64         
# ...
      64.110   236.20300   1302.6300     6.59766        5259      1395.8      1523.7      1833.2      2606.3
      64.150   233.35200   1305.3800     6.63770        4995      1397.8      1613.8      1888.5      2542.1
      64.180   242.20300   1289.8800     6.62500        4877      1343.2      1556.6      1892.4      2413.8
      64.210   259.95300   1270.3800     6.61328        4810      1310.5      1585.3      2184.7      2276.3
      64.240   243.37500   1271.1300     6.62695        4839      1325.5      1584.6      1921.3      2173.1
      64.260   220.34400   1275.2500     6.61328        4872      1273.8      1730.6      1922.4      1962.9
      64.290   227.55500   1287.8800     6.62207        4832      1279.5      1803.4      1907.4      1974.3
      64.320   268.48400   1301.8800     6.59961        4794      1272.5      1562.7      1898.1      2308.2
      64.350   232.31300   1308.6300     6.60352        4800      1349.3      1621.3      2188.5      2372.2
      64.390   202.67200   1314.6300     6.63770        4783      1381.9      1645.3      -999.0      2110.6
      64.420   222.06300   1277.5000     6.62695        4778      1247.7      1816.1      2747.8      2164.3
      64.440   214.85900   1231.8800     6.61523        4769      1297.6      1660.6      4500.1      2228.7
      64.470   262.81300   1195.8800     6.61523        4833      1338.0      1687.6      6971.8      2196.0
      64.510   280.07800   1162.3800     6.62012        4894      1463.4      1682.6    -12632.0      2020.5
      64.540   253.80500   1143.3800     6.61816        4995      1418.1      1659.7     -1962.0      2180.6
      64.570   249.18800   1127.2500     6.59961        5327      1507.5      1843.3     -8588.1      2437.9
      64.600   216.80500   -999.0000     6.62012        5622      1605.1      -999.0      7808.7      2249.4
      64.630   240.56300   1095.5000     6.63770        5871      1693.4      2469.0      4244.7      2050.6
      64.650   248.66400   1082.6300     6.63086        5939      1943.8      4237.8      2525.2      2286.5
      64.680   296.29700   1070.1300     6.59961        6118      -999.0      6941.9      2013.9      2262.8
      64.710   265.68800   1041.6300     6.62012        6362      2979.9    -15777.0      2049.4      2399.8
      64.750   255.17200   1010.8800     6.63379        6565      5586.9     -4119.1      1919.6      2339.1
      64.780   240.51600    926.0000     6.62012        7341     10958.1    -11944.2      1645.7      2589.7
      64.810   267.15600    830.6250     6.62695        -999    -33337.9      9078.3      1702.8      2803.8
      64.830   252.68800    725.5000     6.62012       16961    -13528.5      4639.0      1772.9      2259.3
      64.860   256.62500    618.7500     6.62207       46219    -42260.6      2736.0      1585.7      2327.1
      64.900   235.03900    585.0000     6.64063      110113     36013.9      2156.2      1584.4      2302.9
      64.930   266.46900    563.0000     6.60449     -365786     19628.6      2092.3      1908.8      2831.7
      64.960   224.36700    607.1250     6.62891     -118860      9802.0      2000.8      1912.7      2418.9
      64.990   238.04700    664.0000     6.65820     -238776      6431.7      1914.7      1664.0      2413.9
      65.010   283.64100    732.2500     6.63086      114354      4728.1      2023.1      1730.5      2400.5
      65.040   257.64100    802.1250     6.61816       39966      3512.6      2150.4      1954.5      2431.9
      65.070   245.70300    863.2500     6.62500       14564      2856.1      2106.2      1947.6      2913.4
      65.100   235.60200    922.6250     6.63184        8144      2427.3      2067.0      1711.5      -999.0
      65.140  -999.00000    952.7500  -999.00000        6710      2177.2      2170.8      1646.2      3483.8
      65.170   250.27300    977.1250     6.61035        6113      1924.2      2051.4      1746.2      5668.1
      65.190   236.17200    978.8750     6.61328        6035      1843.2      1846.9      1824.6      8338.3
      65.220   219.41400    975.7500     6.62891        6096      1878.4      1822.9      1804.4    -11606.9
      65.260   247.22700    969.8750     6.60352        6140      1827.6      1859.0      1708.3      -685.2
      65.290   234.28900    963.6250     6.62891        6176      1736.1      1782.2      1669.5     -8950.7
      65.320   256.10900    959.7500     6.63184        6232      1747.0      1600.2      1604.9     10267.8
      65.350   282.35900    956.5000     6.64258        6216      1767.2      1529.5      1522.2      5684.2
      65.380   264.40600    979.6250     6.63867        5936      1708.6      1550.9      1569.6      3246.0
      65.400   238.49200   1008.3800     6.60352        5680      1604.1      1556.3      1594.0      2598.1
      65.430   258.81300   1011.2500     6.61328        5643      1524.5      1513.3      1513.1      2756.6
      65.460   277.54700   1008.6300     6.63184        5600      1476.2      1426.9      1411.0      2510.1
      65.490   239.11700    995.5000     6.64258        5571      1423.9      1353.5      1368.5      1967.2
      65.530   268.96900    980.3750     6.64746        5600      1356.8      1287.0      1432.8      2058.0
      65.560   267.17200    987.8750     6.61719        5545      1278.0      1224.4      1465.2      2179.0
      65.580   259.87500   1000.2500     6.65625        5414      1208.5      1246.2      1432.2      1800.0
      65.620   264.67200   1033.6300     6.64941        5284      1137.4      1235.7      1525.5      1765.2
      65.650   271.26600   1071.8800     6.63184        5205      1079.2      1159.2      1475.1      2390.2
      65.680   270.01600   1087.2500     6.61523        5219      1080.8      1097.8      1491.9      2437.0
      65.710   273.50000   1098.2500     6.66504        5182      1067.9      1071.3      1515.6      1943.0
      65.740   267.25000   1112.0000     6.62500        4935      1024.0      1116.2      1531.2      2001.4
      65.760   236.20300   1126.1300     6.62891        4712       985.8      1158.4      1643.8      2457.3
      65.790   280.06300   1110.5000     6.62695        4663       963.2      1175.3      1661.1      2492.8
      65.820   233.05500   1090.0000     6.64063        4607       974.8      1248.2      -999.0      2046.1
      65.850   245.82800   1098.7500     6.64453        4476       986.4      1199.5      1486.2      1934.0
      65.890   248.85200   1114.0000     6.64453        4352       976.7      1200.2      1538.7      2172.8
      65.920   262.42200   1102.1300     6.65430        4289       998.7      1213.9      1517.9      2325.5
      65.940   250.21900   1085.7500     6.67676        4293       953.0      1224.2      1376.1      2333.1
      65.970   254.83600   1079.0000     6.64941        4337       936.4      1278.7      1534.5      2217.7
      66.010   250.78900   1073.8800     6.63867        4380       931.7      1276.6      1523.8      2168.8
      66.040   251.10200   1066.1300     6.63086        4443       929.9      -999.0      1699.7      2118.7
      66.070   261.50000   1057.2500     6.68164        4443       958.8      1189.0      1745.9      1962.4
      66.100   266.81300   1086.8800     6.65918        4390       953.0      1190.6      1517.8      2031.7
      66.130   316.23400   1125.1300     6.65820        4341      -999.0      1172.2      1745.9      2124.3
      66.150   240.75000   1104.7500     6.63867        4352       904.1      1097.2      1709.2      2043.9
      66.180   258.67200   1071.8800     6.65918        4395       897.8      1178.2      1886.3      1884.3
      66.210   290.95300   1075.3800     6.65137        4437       883.8      1151.7      1750.1      1812.9
      66.240   241.96900   1085.7500     6.65430        -999       842.5      1254.4      1926.5      1952.5
      66.280   293.56300   1086.6300     6.66113        4442       898.0      1305.0      1923.0      1983.9
      66.310   322.06300   1085.6300     6.70020        4396       896.3      1166.2      1594.3      1894.1
