~VERSION INFORMATION SECTION
VERS.           2.0  :CWLS Log ASCII Standard - 2.0
WRAP.           NO   :One line per depth
#               Created in SeisLab
~WELL INFORMATION SECTION
#MNEM.UNIT  VALUE/NAME               :DESCRIPTION    
STRT.m  47.59                        :Start Depth    
STOP.m  123.23                       :Stop Depth     
STEP.m  0.02                         :Step           
NULL.    -999.25                     :Null Value     
WELL.    GDP1                        :Well Name      
CTRY.    Switzerland                 :Country        
CNTY.                                :County         
STAT.    Central Swiss Alps          :State          
API .                                :API number     
UWI .                                :Unique well ID 
LOC .    Grimsel Pass, Switzerland   :Well Location  
FLD .    n/a                         :Field          
COMP.    n/a                         :Company        
SRVC.    University of Lausanne      :Service Company
DATE.    2017                        :Date           
~PARAMETER INFORMATION SECTION
#MNEM .UNITS  VALUE   :DESCRIPTION OF PARAMETER
Casing.n/a    1       :slotted PVC casing      
~CURVE INFORMATION SECTION
#MNEM.UNITS  API CODES   :DESCRIPTION OF MNEMONIC
depth.m                  :measured depth         
NG   .cps                :Natural gamma          
Sp   .mV                 :Self potential         
Temp .DegC               :Temperature            
SPR  .Ohm                :Single point resistance
R8   .Ohm.m              :Normal resistivity     
R16  .Ohm.m              :Single point resistance
R32  .Ohm.m              :Normal resistivity     
R64  .Ohm.m              :Normal resistivity     
~A depth       NG          Sp          Temp        SPR         R8          R16         R32         R64         
# ...
     106.790   363.32800    928.8750     7.51563     -1210.7      8408.3     6077.56     3469.86     3904.87
     106.810   315.23400    935.8750     7.53711     -1204.0      8095.9     5807.82     3484.91     5168.05
     106.830   330.89100    943.6250     7.50977     -1193.1      7749.4     5525.21     3533.95     8533.83
     106.850   300.39100    949.7500     7.51855     -1179.5      7371.5     5246.98     3584.00    23211.40
     106.870   325.70300    955.6250     7.52246     -1156.3      6968.5     4993.28     3632.01   -52854.20
     106.890   320.15600    954.6250     7.53613     -1123.6      6543.6     4761.88     3687.36   -16863.60
     106.910   266.60900    952.1250     7.50977     -1090.0      6119.9     4562.25     3688.04   -13225.80
     106.930   325.70300    946.2500     7.54590     -1054.0      5693.0     4391.54     3700.33   -16348.30
     106.950   322.68800    940.1250     7.53711     10151.9      5282.2     4270.56     3684.27   -48582.40
     106.970   334.60900    945.8750     7.56250     21103.2      4907.8     4160.43     3657.89    23704.60
     106.990   294.35900    954.3750     7.53027     18556.0      4570.4     4075.36     3613.03     7546.53
     107.010   303.12500    951.2500     7.53613     14907.9      4278.1     3985.84     3577.53     4552.46
     107.030   314.75000    946.5000     7.53613     12824.9      4029.1     3927.78     3510.05     3724.27
     107.050   367.07800    946.5000     7.53711     11244.0      3837.5     3874.80     3455.09     3431.85
     107.070   305.29700    947.3750     7.53711     10259.7      3669.1     3825.53     3413.33     3305.44
     107.090   299.29700    941.3750     7.54102      9418.2      3526.6     3785.81     3363.84     3256.56
     107.110   325.39100    933.5000     7.53906      8477.6      3389.4     3708.53     3317.43     3234.71
     107.130   304.23400    938.7500     7.54102      7689.1      3282.9     3640.93     3275.27     3238.28
     107.150   284.71900    946.5000     7.53906      7496.0      3189.2     3552.14     3293.54     3245.02
     107.170   307.87500    939.2500     7.52930      7479.2      3106.3     3457.65     3392.32     3243.05
     107.190   278.96900    928.6250     7.53418      7320.5      3037.3     3351.20     3665.04     3234.98
     107.210   319.04700    938.0000     7.55273      7091.0      2953.8     3252.39     4289.25     3232.92
     107.230   318.71900    950.7500     7.55469      6861.8      2882.3     3139.01     5800.65     3235.24
     107.250   313.82800    946.6250     7.50879      6655.8      2799.3     3043.54     9718.66     3238.33
     107.270   296.89100    938.6250     7.53418      6576.9      2713.0     2963.18    26585.40     3244.93
     107.290   291.90600    937.3750     7.56641      6615.4      2617.4     2883.81   -60468.50     3263.46
     107.310   276.01600    937.3750     7.53223      6618.3      2524.0     2814.21   -19434.40     3275.69
     107.330   258.10900    952.7500     7.51172      6558.6      2425.3     2754.37   -15306.90     3287.60
     107.350   289.40600    971.8750     7.53906      6475.9      2348.1     2750.36   -18760.10     3292.93
     107.370   295.43800    971.1250     7.55078      6343.8      2292.3     2822.72   -54500.80     3309.71
     107.390   292.34400    966.5000     7.52734      6163.3      2244.8     3050.80    25877.10     3322.01
     107.410   317.65600    969.8750     7.54590      5990.8      2205.6     3588.22     7982.14     3321.74
     107.430   271.45300    975.5000     7.54785      5827.5      2176.0     4880.39     4652.06     3320.56
     107.450   297.71900    973.3750     7.54102      5721.3      2193.2     8262.82     3707.81     3333.21
     107.470   303.70300    969.8750     7.55957      5658.9      2280.4    22880.20     3367.08     3360.96
     107.490   302.34400    964.7500     7.53418      5612.2      2505.7   -52788.50     3220.29     3369.67
     107.510   269.75000    959.0000     7.54199      5568.4      3016.2   -17301.60     3155.37     3376.25
     107.530   302.57800    943.3750     7.54883      5575.2      4247.6   -13893.00     3117.95     3382.09
     107.550   280.43800    925.2500     7.53418      5889.0      7554.1   -17280.00     3099.79     3392.24
     107.570   301.43800    887.3750     7.53027      7886.0     22439.1   -50500.30     3087.20     3411.53
     107.590   271.10900    846.1250     7.55078      6053.6    -57024.5    23927.30     3073.18     3419.82
     107.610   268.26600    801.8750     7.53613      -609.4    -21537.9     7288.20     3053.22     3413.71
     107.630   273.23400    757.0000     7.56152     -2840.0    -20891.9     4161.50     3038.04     3410.28
     107.650   318.04700    731.8750     7.52930     -6365.9    -33380.8     3277.80     3031.25     3397.41
     107.670   261.29700    710.8750     7.56250    -21543.9   -127679.0     2976.84     3028.97     3394.50
     107.690   293.28100    704.1250     7.52930     56640.3     79553.8     2858.49     3030.80     3399.95
     107.710   331.60900    700.1250     7.55469     19960.6     28065.4     2824.61     3041.06     3406.29
     107.730   317.00000    708.5000     7.53711     16354.7     15324.5     2833.33     3047.48     3422.37
     107.750   315.81300    720.2500     7.56152     19770.0     10837.0     2885.77     3054.71     3444.02
     107.770   297.79700    747.7500     7.55762     53271.0      8747.4     2989.08     3054.90     3475.96
     107.790   293.82800    779.1250     7.57520    -22001.7      7322.3     3174.91     3060.66     3490.31
     107.810   303.70300    817.0000     7.55957     -5299.0      6261.8     3427.65     3061.39     3474.92
     107.830   320.31300    856.0000     7.55762     -2184.9      5513.5     3671.12     3055.50     3479.11
     107.850   294.21900    895.0000     7.57520     -1283.6      4992.9     3858.36     3051.35     3518.51
     107.870   288.35900    934.3750     7.55078      6067.4      4609.3     3978.48     3055.07     3524.30
     107.890   263.46900    952.5000     7.55566     11331.2      4321.9     4026.59     3069.44     3493.50
     107.910   324.28100    966.1250     7.58008     10312.8      4089.9     4019.97     3075.21     3490.42
     107.930   294.50000    964.8750     7.56250      9765.0      3895.9     3984.79     3082.47     3505.52
     107.950   275.39100    960.5000     7.55273      9903.5      3748.7     3931.03     3090.90     3496.93
     107.970   306.39100    965.7500     7.54590      9648.7      3698.5     3853.88     3105.86     3466.07
     107.990   307.15600    973.1250     7.52539      9066.2      3732.1     3766.01     3136.16     3448.45
     108.010   264.84400    973.3750     7.54883      9486.8      3801.9     3666.43     3173.67     3432.06
     108.030   300.76600    972.3750     7.57129     10442.1      3870.4     3556.54     3208.11     3393.94
     108.050   301.37500    977.3750     7.55566     11245.7      3923.2     3461.03     3240.89     3353.13
     108.070   336.81300    983.6250     7.55469     11766.9      3946.1     3420.70     3263.66     3341.91
     108.090   297.48400    980.7500     7.56250     12003.7      3943.7     3437.16     3290.90     3348.95
     108.110   271.35900    976.6250     7.54395     12577.3      3918.9     3470.10     3323.31     3344.07
     108.130   259.09400    986.0000     7.55469     12571.2      3881.7     3509.98     3361.22     3314.11
     108.150   271.34400    997.7500     7.55469     11598.9      3842.1     3550.89     3407.58     3285.40
     108.170   298.40600    992.0000     7.54395     10862.9      3804.5     3594.20     3460.31     3277.54
     108.190   291.62500    983.0000     7.56836     10467.4      3770.7     3639.55     3515.21     3286.49
     108.210   279.62500    981.8750     7.56152     10009.4      3732.8     3680.22     3560.22     3308.58
     108.230   287.67200    982.2500     7.55762      9288.8      3693.4     3712.54     3582.86     3323.22
     108.250   263.79700    984.6250     7.55273      8523.9      3655.0     3741.23     3602.55     3339.72
