~VERSION INFORMATION SECTION
VERS.           2.0  :CWLS Log ASCII Standard - 2.0
WRAP.           NO   :One line per depth
#               Created in SeisLab
~WELL INFORMATION SECTION
#MNEM.UNIT  VALUE/NAME               :DESCRIPTION    
STRT.m  33.03                        :Start Depth    
STOP.m  122.23                       :Stop Depth     
STEP.m  0.03                         :Step           
NULL.    -999.25                     :Null Value     
WELL.    GDP1                        :Well Name      
CTRY.    Switzerland                 :Country        
CNTY.                                :County         
STAT.    Central Swiss Alps          :State          
API .                                :API number     
UWI .                                :Unique well ID 
LOC .    Grimsel Pass, Switzerland   :Well Location  
FLD .    n/a                         :Field          
COMP.    n/a                         :Company        
SRVC.    University of Lausanne      :Service Company
DATE.    2016                        :Date           
~PARAMETER INFORMATION SECTION
#MNEM .UNITS  VALUE   :DESCRIPTION OF PARAMETER
Casing.n/a    1       :slotted PVC casing      
~CURVE INFORMATION SECTION
#MNEM.UNITS  API CODES   :DESCRIPTION OF MNEMONIC
depth.m                  :measured depth         
NG   .cps                :Natural gamma          
Sp   .mV                 :Self potential         
Temp .DegC               :Temperature            
SPR  .Ohm                :Single point resistance
R8   .Ohm.m              :Normal resistivity     
R16  .Ohm.m              :Single point resistance
R32  .Ohm.m              :Normal resistivity     
R64  .Ohm.m              :Normal resistivity     
~A depth       NG          Sp          Temp        SPR         R8          R16         R32         R64         
# ...
      68.560   284.25000   1287.5000     6.77734        5444      1179.0      1265.0     28612.4      1981.5
      68.580   299.35900   1322.2500     6.78027        5227      1189.8      1428.2      4704.4      1685.8
      68.620   291.07800   1322.2500     6.79102        4916      1231.2      1659.9      1884.2      1861.9
      68.650   296.85900   1314.3800     6.77246        4766      1147.5      3007.2      1575.8      1689.2
      68.680   295.26600   1266.5000     6.76367        4825      1329.9     18172.7      1391.3      1959.8
      68.710   291.35900   1210.6300     6.80762        4920      1698.3     -6312.0      1254.6      1595.9
      68.740   241.21100   1124.5000     6.79883        5125      3035.4     -6948.1      1291.1      1843.7
      68.760   269.20300   1033.8800     6.77539        5643     19602.0     30571.0      1408.6      2300.7
      68.790   303.32800    878.5000     6.76855        9091    -10446.7      5226.2      1314.7      2050.7
      68.820   288.42200    712.1250     6.81152       20227    -17852.1      1821.1      1175.1      2166.3
      68.850   273.54700    670.0000     6.81250       44302    129267.0      1387.5      1136.7      1791.7
      68.890   231.42200    650.7500     6.76367      313305     34183.0      1200.7      1242.5      2103.1
      68.920   264.95300    651.0000     6.80957     -154913     10726.0      1106.4      1333.9      1761.5
      68.940   262.37500    654.1250     6.80273     -180919      6555.0      1134.7      1318.6      1846.0
      68.970   260.09400    721.3750     6.82324      722190      4169.8      1211.0      1414.0      1827.0
      69.010   256.54700    799.6250     6.76660      114408      2705.5      1209.6      1541.3      2087.2
      69.040   251.64800    911.6250     6.78027       21041      1993.4      1189.3      1563.4      2295.9
      69.070   268.67200   1029.3800     6.82813        9188      1524.2      1196.1      1347.6      1748.4
      69.100   260.85900   1122.3800     6.82813        6200      1277.8      1235.5      1210.3      1887.5
      69.130   250.57800   1210.7500     6.77539        5030      1096.1      1230.5      1312.3      1680.9
      69.150   282.71900   1246.6300     6.79883        4788      1032.2      1217.8      1414.7      3950.3
      69.180   273.42200   1274.0000     6.80469        4738      1021.4      1277.6      1386.1     27320.3
      69.210   262.21900   1276.5000     6.82520        4892      1039.1      1337.1      1469.8     -7701.6
      69.240   266.37500   1275.3800     6.78516        5093      1067.0      1328.3      1538.2     -8517.0
      69.280   231.46100   1277.8800     6.80762        5283      1154.5      1174.6      1490.2     38416.0
      69.310   253.97700   1281.0000     6.82617        5420      1238.6      1090.1      1302.0      5802.2
      69.330   245.10200   1280.0000     6.81934        5371      1276.7      1144.8      1231.2      2396.1
      69.370   245.08600   1276.2500     6.80273        5333      1238.5      1184.5      1447.3      2106.4
      69.400   266.04700   1292.0000     6.80957        5387      1223.7      1203.6      1646.3      1837.4
      69.430   226.78100   1312.0000     6.83496        5394      1258.4      1303.2      1807.7      1570.0
      69.460   231.53900   1305.7500     6.83496        5312      1287.0      1359.0      1738.5      1619.3
      69.490   229.32000   1294.0000     6.79102        5199      1311.5      1376.4      1857.2      1827.0
      69.510   243.93000   1287.8800     6.83301        5157      1401.6      1300.5      1724.1      1647.5
      69.540   231.85900   1282.2500     6.86035        5105      1460.1      1274.7      1420.0      1364.0
      69.570   253.93000   1258.8800     6.84180        5048      1481.1      1401.6      1174.5      1263.3
      69.600   231.53900   1231.8800     6.81934        4989      1436.0      1527.2      1057.9      1485.7
      69.640   267.76600   1230.3800     6.83887        4933      1385.2      1658.6      1237.7      1688.0
      69.670   214.05500   1234.1300     6.86719        4852      1404.0      1640.8      1402.8      1634.0
      69.690   238.87500   1231.7500     6.85938        4757      1418.1      1698.7      1692.7      1757.1
      69.720   226.60200   1227.0000     6.83301        4685      1440.8      1609.9      1768.9      1997.0
      69.760   201.28900   1225.1300     6.82813        4649      1382.1      1428.3      1539.9      2053.4
      69.790   179.43000   1224.5000     6.85938        4649      1389.6      1284.4      1368.0      1672.1
      69.820   203.54700   1221.1300     6.86719        4668      1346.6      1184.1      1421.8      1417.5
      69.850   174.91400   1216.5000     6.82520        4701      1265.5      1240.0      1506.0      1634.8
      69.880   202.46100   1248.7500     6.86719        4705      1201.4      1332.8      1463.1      1850.9
      69.900   191.31300   1288.2500     6.88574        4730      1161.7      1496.0      1250.6      1809.4
      69.930   204.03900   1296.8800     6.86719        4679      1199.1      1500.5      1467.1      1884.6
      69.960   218.07800   1300.3800     6.84375        4645      1256.5      1320.7      1375.2      1992.2
      69.990   196.21900   1303.1300     6.88281        4791      1356.6      1225.8      1631.7      1883.2
      70.030   209.59400   1305.7500     6.85938        5002      1366.6      1269.3      1510.0      1455.3
      70.060   210.70300   1324.6300     6.87402        5210      1291.9      1281.1      1194.5      1342.5
      70.080   202.63300   1347.5000     6.86426        5474      1285.6      1184.8      1605.7      1763.3
      70.120   220.02300   1335.6300     6.88086        5900      1346.3      1007.2      1609.2      2165.2
      70.150   219.15600   1317.5000     6.87305        6271      1370.0      1097.2      1721.4      2436.2
      70.180   193.00800   1309.1300     6.86230        6355      1281.5      1028.3      1540.5      2323.6
      70.210   234.35900   1302.8800     6.85254        6386      1134.6      1187.2      1786.9      2601.2
      70.240   221.86700   1296.3800     6.87305        6294      1131.7      1140.5      1542.8      2403.9
      70.260   209.10200   1289.6300     6.89941        6074      1017.4       983.3      1335.8      1832.9
      70.290   244.20300   1304.2500     6.87891        5553      1065.8      1238.3      1397.8      1358.3
      70.320   199.33600   1322.6300     6.88281        4970      1008.5      1264.4      1299.1      1157.1
      70.350   233.29700   1324.8800     6.88770        4609       918.0      1350.3      1536.7      1481.0
      70.390   268.46900   1324.5000     6.88770        4256      1062.0      1268.8      1466.3      1745.6
      70.420   219.51600   -999.0000     6.87109        4129      1059.8      1419.0      2568.7      2234.7
      70.440   261.00000   1290.7500     6.86719        4037      1090.0      1280.4      8029.8      2405.8
      70.470   225.78900   1267.2500     6.88281        4017      1006.2      1184.4     14945.1      2040.2
      70.510   236.80500   1242.3800     6.89258        4187      1051.1      1243.0     -6856.0      1698.8
      70.540   272.20300   1261.2500     6.87402        4315       933.4      1189.3     -9917.3      1738.0
      70.570   258.67200   1290.2500     6.85938        4377       854.5      1386.4     18183.0      1931.4
      70.600   253.98400   1284.5000     6.89160        4235       878.2      1559.2      2573.2      1922.0
      70.630   248.89800   1271.6300     6.88281        4172       849.4      2719.3      1536.3      1605.3
      70.650   237.93800   1243.0000     6.88965        4030       988.2      7492.9      1390.7      1984.5
      70.680   237.52300   1210.5000     6.88965        3932      1146.6     15060.7      1363.0      1847.4
      70.710   236.43000   1113.5000     6.88574        4038      1994.3     -7940.0      1380.4      2288.7
      70.740   228.08600   1006.0000     6.90332        4368      5976.3     -8638.4      1183.1      2019.2
