~VERSION INFORMATION SECTION
VERS.           2.0  :CWLS Log ASCII Standard - 2.0
WRAP.           NO   :One line per depth
#               Created in SeisLab
~WELL INFORMATION SECTION
#MNEM.UNIT  VALUE/NAME               :DESCRIPTION    
STRT.m  11                           :Start Depth    
STOP.m  125                          :Stop Depth     
STEP.m  0.01                         :Step           
NULL.    -999.25                     :Null Value     
WELL.    GDP1                        :Well Name      
CTRY.    Switzerland                 :Country        
CNTY.                                :County         
STAT.                                :State          
API .                                :API number     
UWI .                                :Unique well ID 
LOC .    Grimsel pass, Switzerland   :Well Location  
FLD .    n/a                         :Field          
COMP.    n/a                         :Company        
SRVC.    University of Lausanne      :Service Company
DATE.    2016                        :Date           
~PARAMETER INFORMATION SECTION
#MNEM .UNITS  VALUE   :DESCRIPTION OF PARAMETER
Casing.n/a    0       :cased hole              
~CURVE INFORMATION SECTION
#MNEM     .UNITS  API CODES   :DESCRIPTION OF MNEMONIC      
depth     .m                  :measured depth (interpolated)
P_slowness.us/m               :FWS2016_25kHz_semblance      
S_slowness.us/m               :FWS2016_25kHz_semblance      
~A depth       P_slowness  S_slowness  
# ...
     108.650   229.46115   396.28123
     108.660   229.10807   395.58749
     108.670   228.75498   394.93679
     108.680   228.40190   394.39116
     108.690   228.04882   393.84554
     108.700   227.72139   393.39449
     108.710   227.39397   392.98648
     108.720   227.11787   392.57846
     108.730   226.84177   392.21346
     108.740   226.59134   391.84846
     108.750   226.34092   391.52649
     108.760   226.12898   391.20452
     108.770   225.96007   390.88256
     108.780   225.79115   390.61313
     108.790   225.62223   390.38674
     108.800   225.47898   390.23392
     108.810   225.33574   390.12411
     108.820   225.19249   390.05634
     108.830   225.04925   389.98857
     108.840   224.98300   389.97334
     108.850   224.91675   389.95811
     108.860   224.87616   390.00593
     108.870   224.83557   390.09679
     108.880   224.84631   390.24018
     108.890   224.85705   390.42661
     108.900   224.86779   390.63405
     108.910   224.92156   390.84149
     108.920   224.97533   391.10148
     108.930   225.02910   391.40448
     108.940   225.10854   391.73900
     108.950   225.18798   392.07352
     108.960   225.31875   392.42907
     108.970   225.44952   392.78461
     108.980   225.58030   393.20321
     108.990   225.71107   393.62182
     109.000   225.86749   394.09297
     109.010   226.02392   394.56411
     109.020   226.18034   395.08780
     109.030   226.33677   395.56848
     109.040   226.49320   396.04915
     109.050   226.60659   396.48679
     109.060   226.71998   396.92443
     109.070   226.83338   397.31903
     109.080   226.94677   397.69262
     109.090   227.06016   398.06621
     109.100   227.17356   398.42930
     109.110   227.24393   398.74936
     109.120   227.31431   399.10095
     109.130   227.38469   399.40951
     109.140   227.45507   399.73908
     109.150   227.52544   400.02562
     109.160   227.57016   400.28379
     109.170   227.57185   400.54195
     109.180   227.57185   400.75708
     109.190   227.57185   400.92920
     109.200   227.57185   401.10131
     109.210   227.57185   401.27343
     109.220   227.52882   401.40251
     109.230   227.48579   401.48856
     109.240   227.44275   401.57461
     109.250   227.35669   401.66066
     109.260   227.27062   401.70369
     109.270   227.18456   401.70369
     109.280   227.09849   401.66066
     109.290   227.01243   401.57461
     109.300   226.92636   401.48856
     109.310   226.83031   401.35948
     109.320   226.73426   401.18736
     109.330   226.63821   401.01525
     109.340   226.54216   400.80011
     109.350   226.42044   400.54195
     109.360   226.29872   400.24075
     109.370   226.17700   399.89654
     109.380   226.01226   399.55233
     109.390   225.80903   399.20811
     109.400   225.60580   398.82087
     109.410   225.37692   398.43362
     109.420   225.14803   398.00336
     109.430   224.86780   397.57310
     109.440   224.58757   397.14284
     109.450   224.28169   396.71257
     109.460   223.97580   396.28231
     109.470   223.66992   395.80902
     109.480   223.36403   395.29269
     109.490   223.05815   394.77636
     109.500   222.75226   394.21700
     109.510   222.39505   393.65764
     109.520   221.99480   393.09828
     109.530   221.56889   392.53892
     109.540   221.14297   391.93654
     109.550   220.69139   391.33416
     109.560   220.23982   390.73179
     109.570   219.78825   390.17244
     109.580   219.33667   389.61310
     109.590   218.85943   389.05375
     109.600   218.38218   388.49441
     109.610   217.87928   387.89716
     109.620   217.37638   387.29992
     109.630   216.87348   386.68166
     109.640   216.37057   386.10641
     109.650   215.86767   385.49964
     109.660   215.40780   384.93590
     109.670   214.94793   384.37216
     109.680   214.48807   383.85146
     109.690   214.02820   383.28872
     109.700   213.56833   382.72598
     109.710   213.10846   382.11070
     109.720   212.69161   381.53844
     109.730   212.27475   380.85000
     109.740   211.85790   380.20459
     109.750   211.44105   379.51615
     109.760   211.02420   378.87074
     109.770   210.60734   378.22533
     109.780   210.23352   377.57992
     109.790   209.88536   376.93451
     109.800   209.53720   376.33211
     109.810   209.18903   375.72972
     109.820   208.84087   375.12733
     109.830   208.49270   374.52493
     109.840   208.14454   373.96557
     109.850   207.79638   373.40621
     109.860   207.49125   372.84685
     109.870   207.28877   372.33052
     109.880   207.08630   371.85723
     109.890   206.90949   371.38393
     109.900   206.73269   370.95366
     109.910   206.55589   370.56641
     109.920   206.38907   370.22220
     109.930   206.24790   369.92100
     109.940   206.10674   369.61980
     109.950   205.99125   369.31861
     109.960   205.90143   369.06044
     109.970   205.86293   368.84531
     109.980   205.82444   368.67320
     109.990   205.85011   368.50108
     110.000   205.91428   368.32897
     110.010   206.00411   368.19989
     110.020   206.11961   368.07080
     110.030   206.23510   367.98474
     110.040   206.40193   367.89867
     110.050   206.59443   367.85564
     110.060   206.81257   367.81261
     110.070   207.10772   367.85562
     110.080   207.40287   367.94167
     110.090   207.62102   368.07075
     110.100   207.83916   368.19984
     110.110   208.10864   368.37195
     110.120   208.42944   368.54407
     110.130   208.75025   368.80223
     110.140   209.09672   369.06039
     110.150   209.44320   369.36159
     110.160   209.81533   369.66279
     110.170   210.18085   370.00700
     110.180   210.54638   370.30818
     110.190   210.91190   370.65239
     110.200   211.30310   370.99661
     110.210   211.69430   371.38385
     110.220   212.11115   371.80900
     110.230   212.52800   372.23415
     110.240   212.94485   372.68031
     110.250   213.36170   373.12648
     110.260   213.77856   373.60416
     110.270   214.19541   374.12487
     110.280   214.61226   374.64557
     110.290   215.07213   375.16628
     110.300   215.53200   375.72902
     110.310   215.99187   376.24874
     110.320   216.45174   376.82100
     110.330   216.98657   377.35023
     110.340   217.52141   377.99564
     110.350   218.07661   378.59802
     110.360   218.63180   379.24343
     110.370   219.18359   379.88884
     110.380   219.73538   380.53425
     110.390   220.28716   381.13664
     110.400   220.81330   381.73903
     110.410   221.33943   382.34143
     110.420   221.86556   382.94382
     110.430   222.36602   383.54621
     110.440   222.86648   384.14861
     110.450   223.31561   384.75100
     110.460   223.76474   385.35339
     110.470   224.18821   385.95579
     110.480   224.50903   386.51515
     110.490   224.80418   387.07451
     110.500   225.07366   387.63387
     110.510   225.24048   388.15020
     110.520   225.40730   388.62349
     110.530   225.54844   389.09679
     110.540   225.66393   389.52707
     110.550   225.68961   389.95734
     110.560   225.68961   390.38762
     110.570   225.68961   390.81790
     110.580   225.63828   391.20515
     110.590   225.58695   391.59239
     110.600   225.47146   391.97964
     110.610   225.33030   392.36689
     110.620   225.16346   392.71110
     110.630   224.99662   393.05531
     110.640   224.82979   393.35651
     110.650   224.68862   393.65770
     110.660   224.52180   393.91587
     110.670   224.38066   394.14777
     110.680   224.16251   394.29362
     110.690   223.94436   394.43948
     110.700   223.80321   394.54230
     110.710   223.68772   394.64511
     110.720   223.52090   394.70490
     110.730   223.35408   394.76469
     110.740   223.18726   394.73843
     110.750   223.05893   394.69059
     110.760   222.93061   394.59972
     110.770   222.82795   394.48728
     110.780   222.73190   394.33182
     110.790   222.68718   394.17636
     110.800   222.64246   393.97787
     110.810   222.59774   393.77938
