~VERSION INFORMATION SECTION
VERS.           2.0  :CWLS Log ASCII Standard - 2.0
WRAP.           NO   :One line per depth
#               Created in SeisLab
~WELL INFORMATION SECTION
#MNEM.UNIT  VALUE/NAME               :DESCRIPTION    
STRT.m  10                           :Start Depth    
STOP.m  125                          :Stop Depth     
STEP.m  0.01                         :Step           
NULL.    -999.25                     :Null Value     
WELL.    GDP1                        :Well Name      
CTRY.    Switzerland                 :Country        
CNTY.                                :County         
STAT.    Central Swiss Alps          :State          
API .                                :API number     
UWI .                                :Unique well ID 
LOC .    Grimsel Pass, Switzerland   :Well Location  
FLD .    n/a                         :Field          
COMP.    n/a                         :Company        
SRVC.    University of Lausanne      :Service Company
DATE.    2017                        :Date           
~PARAMETER INFORMATION SECTION
#MNEM .UNITS  VALUE   :DESCRIPTION OF PARAMETER
Casing.n/a    1       :slotted PVC casing      
~CURVE INFORMATION SECTION
#MNEM.UNITS  API CODES   :DESCRIPTION OF MNEMONIC
depth.m                  :measured depth         
NG   .cps                :Natural gamma          
Sp   .mV                 :Self potential         
Temp .DegC               :Temperature            
SPR  .Ohm                :Single point resistance
R8   .Ohm.m              :Normal resistivity     
R16  .Ohm.m              :Single point resistance
R32  .Ohm.m              :Normal resistivity     
R64  .Ohm.m              :Normal resistivity     
~A depth       NG          Sp          Temp        SPR         R8          R16         R32         R64         
# ...
      97.320   246.19279    949.3170     7.21387    9001.920    2669.356    2502.124    1947.710    1406.804
      97.330   247.24412    946.9047     7.21191    9471.640    2698.142    2516.549    1882.268    1403.561
      97.340   248.33405    944.6195     7.20996    9941.360    2725.792    2530.635    1849.025    1400.317
      97.350   249.44883    942.4757     7.21240   10612.430    2752.188    2544.501    1815.783    1399.292
      97.360   250.57217    940.4888     7.21484   11283.500    2777.225    2558.264    1858.323    1398.266
      97.370   251.68700    938.6761     7.22607   12142.050    2800.808    2572.039    1900.863    1402.581
      97.380   252.77678    937.0557     7.23730   13000.600    2822.855    2585.941    1941.468    1406.897
      97.390   253.82639    935.6469     7.22266   13648.400    2843.301    2600.074    1982.073    1419.765
      97.400   254.82246    934.4688     7.20801   14296.200    2862.095    2614.538    2032.779    1432.633
      97.410   255.75355    933.5390     7.20752   14983.250    2879.202    2629.425    2083.484    1437.212
      97.420   256.61032    932.8729     7.20703   15670.300    2894.605    2644.815    2145.975    1441.790
      97.430   257.38583    932.4821     7.20752   15893.750    2908.304    2660.778    2208.466    1447.893
      97.440   258.07606    932.3734     7.20801   15859.133    2920.318    2677.370    2168.904    1453.997
      97.450   258.68054    932.5489     7.21485   15824.515    2930.683    2694.637    2129.341    1456.156
      97.460   259.20283    933.0052     7.22168   15789.898    2939.451    2712.609    2126.891    1458.316
      97.470   259.65054    933.7343     7.20752   15755.281    2946.690    2731.302    2124.440    1455.193
      97.480   260.03461    934.7234     7.19336   15720.663    2952.485    2750.721    2210.933    1452.069
      97.490   260.36796    935.9565     7.20752   15686.046    2956.935    2770.853    2297.427    1448.482
      97.500   260.66370    937.4142     7.22168   15651.429    2960.269    2791.676    2317.636    1444.894
      97.510   260.93332    939.0753     7.22851   15616.812    2964.011    2813.152    2337.844    1440.846
      97.520   261.18533    940.9173     7.23535   15582.194    2966.768    2835.236    2228.878    1436.798
      97.530   261.42443    942.9171     7.22168   15547.577    2968.678    2857.867    2119.912    1441.531
      97.540   261.65115    945.0519     7.20801   15512.960    2969.882    2880.982    1993.820    1446.264
      97.550   261.86165    947.2997     7.21338   15478.342    2970.523    2904.505    1867.729    1457.507
      97.560   262.04805    949.6398     7.21875   15443.725    2970.743    2928.359    1846.890    1468.750
      97.570   262.19961    952.0534     7.21435   15409.108    2970.685    2952.461    1826.052    1470.263
      97.580   262.30469    954.5233     7.20996   15374.490    2970.484    2976.729    1873.875    1471.776
      97.590   262.35304    957.0350     7.20899   15339.873    2970.270    3001.079    1921.698    1463.823
      97.600   262.33786    959.5758     7.20801   15305.256    2970.165    3025.431    1909.521    1455.870
      97.610   262.25715    962.1354     7.21582   15270.638    2970.279    3049.710    1897.344    1453.215
      97.620   262.11440    964.7056     7.22363   15236.021    2970.712    3073.847    1883.104    1450.560
      97.630   261.91874    967.2801     7.21924   15201.404    2971.552    3097.781    1611.173    1445.002
      97.640   261.68475    969.8540     7.21484   15166.787    2972.873    3121.461    1610.166    1444.133
      97.650   261.43181    972.4239     7.20800   15132.169    2974.734    3144.847    1609.644    1443.264
      97.660   261.18280    974.9874     7.20117   15097.552    2977.182    3167.910    1609.121    1442.395
      97.670   260.96224    977.5426     7.21240   15062.935    2980.248    3190.637    1608.088    1441.526
      97.680   260.79390    980.0880     7.22363   15028.317    2983.949    3213.025    1607.055    1440.657
      97.690   260.69861    982.6217     7.21533   14993.700    2988.292    3235.086    1608.262    1439.788
      97.700   260.69256    985.1417     7.20703   14959.083    2993.269    3256.846    1609.470    1438.919
      97.710   260.78640    987.6450     7.20752   14924.465    2998.861    3278.343    1619.056    1438.049
      97.720   260.98508    990.1277     7.20801   14889.848    3005.042    3299.627    1628.643    1437.180
      97.730   261.28824    992.5845     7.21338   14855.231    3011.776    3320.761    1639.731    1436.311
      97.740   261.69087    995.0087     7.21875   14820.613    3019.020    3341.816    1650.819    1435.442
      97.750   262.18408    997.3925     7.21680   14785.996    3026.729    3362.871    1659.198    1434.573
      97.760   262.75599    999.7261     7.21484   14751.379    3034.853    3384.014    1667.577    1433.704
      97.770   263.39258   1001.9989     7.21484   14716.762    3043.341    3405.334    1677.283    1432.835
      97.780   264.07854   1004.1988     7.21484   14682.144    3052.142    3426.925    1686.990    1431.966
      97.790   264.79813   1006.3130     7.21777   14647.527    3061.208    3448.878    1698.051    1431.096
      97.800   265.53578   1008.3283     7.22070   14612.910    3070.494    3471.286    1709.111    1430.227
      97.810   266.27635   1010.2314     7.22216   14578.292    3079.959    3494.233    1724.546    1429.358
      97.820   267.00498   1012.0098     7.22363   14543.675    3089.566    3517.799    1739.980    1428.489
      97.830   267.70671   1013.6522     7.22265   14509.058    3099.288    3474.828    1749.574    1427.620
      97.840   268.36644   1015.1491     7.22168   14474.440    3109.102    3437.373    1759.168    1426.751
      97.850   268.96923   1016.4942     7.21924   14439.823    3118.992    3393.791    1769.161    1425.882
      97.860   269.50090   1017.6843     7.21680   14405.206    3128.949    3350.208    1779.154    1425.013
      97.870   269.94856   1018.7204     7.22266   14370.588    3138.973    3302.098    1784.897    1424.143
      97.880   270.30133   1019.6086     7.22852   14335.971    3149.066    3253.988    1790.641    1423.274
      97.890   270.55112   1020.3602     7.21827   14301.354    3159.240    3204.597    1792.971    1422.405
      97.900   270.69342   1020.9923     7.20801   14266.737    3169.506    3155.205    1795.300    1421.536
      97.910   270.72801   1021.5278     7.21777   14232.119    3179.883    3112.842    1799.743    1420.667
      97.920   270.65922   1021.9953     7.22754   14197.502    3190.389    3070.479    1804.186    1419.798
      97.930   270.49621   1022.4283     7.21533   14162.885    3201.041    3034.165    1812.813    1418.929
      97.940   270.25292   1022.8646     7.20313   14128.267    3211.857    2997.852    1821.440    1418.060
      97.950   269.94774   1023.3442     7.21582   14093.650    3326.024    2961.750    1834.409    1417.190
      97.960   269.60278   1023.9074     7.22852   13821.300    3306.630    2925.649    1847.378    1416.321
      97.970   269.24277   1024.5923     7.23535   13662.650    3287.217    2894.104    1857.823    1415.452
      97.980   268.89368   1025.4316     7.24219   13504.000    3267.805    2862.558    1868.269    1414.583
      97.990   268.58112   1026.4495     7.23535   13464.700    3249.166    2844.852    1867.228    1413.714
      98.000   268.32848   1027.6594     7.22852   13425.400    3230.527    2827.145    1866.187    1412.845
      98.010   268.15507   1029.0620     7.22607   13320.750    3217.763    2829.313    1852.486    1411.976
      98.020   268.07443   1030.6436     7.22363   13216.100    3204.999    2831.480    1838.786    1411.107
      98.030   268.09316   1032.3765     7.22363   12847.000    3199.716    2838.028    1822.094    1410.237
      98.040   268.21041   1034.2192     7.22363   12477.900    3194.434    2844.577    1805.402    1409.368
      98.050   268.41799   1036.1182     7.22461   12119.450    3192.657    2852.681    1783.860    1408.499
