~VERSION INFORMATION SECTION
VERS.           2.0  :CWLS Log ASCII Standard - 2.0
WRAP.           NO   :One line per depth
#               Created in SeisLab
~WELL INFORMATION SECTION
#MNEM.UNIT  VALUE/NAME               :DESCRIPTION    
STRT.m  11                           :Start Depth    
STOP.m  125                          :Stop Depth     
STEP.m  0.01                         :Step           
NULL.    -999.25                     :Null Value     
WELL.    GDP1                        :Well Name      
CTRY.    Switzerland                 :Country        
CNTY.                                :County         
STAT.                                :State          
API .                                :API number     
UWI .                                :Unique well ID 
LOC .    Grimsel pass, Switzerland   :Well Location  
FLD .    n/a                         :Field          
COMP.    n/a                         :Company        
SRVC.    University of Lausanne      :Service Company
DATE.    2016                        :Date           
~PARAMETER INFORMATION SECTION
#MNEM .UNITS  VALUE   :DESCRIPTION OF PARAMETER
Casing.n/a    0       :cased hole              
~CURVE INFORMATION SECTION
#MNEM     .UNITS  API CODES   :DESCRIPTION OF MNEMONIC      
depth     .m                  :measured depth (interpolated)
P_slowness.us/m               :FWS2016_25kHz_semblance      
S_slowness.us/m               :FWS2016_25kHz_semblance      
~A depth       P_slowness  S_slowness  
# ...
      78.270   290.98049   435.37118
      78.280   290.15921   435.26852
      78.290   289.33793   435.12738
      78.300   288.51666   434.99905
      78.310   287.68254   434.96054
      78.320   286.84843   434.97336
      78.330   285.98866   434.98618
      78.340   285.12889   435.03751
      78.350   284.26911   435.10167
      78.360   283.40934   435.19149
      78.370   282.54957   435.30698
      78.380   281.68980   435.42248
      78.390   280.83003   435.57646
      78.400   279.97026   435.73044
      78.410   279.08482   435.91010
      78.420   278.19938   436.08975
      78.430   277.31393   436.30790
      78.440   276.42849   436.53889
      78.450   275.54305   436.88536
      78.460   274.65761   437.23184
      78.470   273.77216   437.64248
      78.480   272.88672   438.05311
      78.490   272.05261   438.61774
      78.500   271.25700   439.29785
      78.510   272.59157   440.10630
      78.520   273.99030   441.04307
      78.530   275.26070   442.18515
      78.540   276.58246   443.36572
      78.550   277.87854   445.11093
      78.560   279.21311   446.90748
      78.570   280.51830   448.76818
      78.580   281.88764   450.64172
      78.590   283.21384   452.66925
      78.600   284.54003   454.69677
      78.610   285.84466   456.78846
      78.620   287.18777   458.88015
      78.630   288.50933   461.03600
      78.640   289.89505   463.17902
      78.650   291.21605   465.41185
      78.660   292.58838   467.58052
      78.670   293.93913   469.78769
      78.680   295.35405   471.87936
      78.690   296.76897   473.99670
      78.700   298.22238   476.04990
      78.710   299.67579   478.11593
      78.720   301.12920   480.15630
      78.730   302.58261   482.24798
      78.740   304.12585   484.32684
      78.750   305.62597   486.43134
      78.760   307.21590   488.48452
      78.770   308.80584   490.60187
      78.780   310.40861   492.68072
      78.790   312.01138   494.77241
      78.800   313.66548   496.83843
      78.810   315.34115   498.93011
      78.820   317.01682   501.02180
      78.830   318.73562   503.11349
      78.840   320.46726   505.20518
      78.850   322.22048   507.36780
      78.860   323.99934   509.53043
      78.870   325.79979   511.74697
      78.880   327.62590   513.98918
      78.890   329.49515   516.29611
      78.900   331.36439   518.64154
      78.910   333.25521   521.03010
      78.920   335.15887   523.32884
      78.930   337.14880   525.64915
      78.940   339.16439   527.96946
      78.950   341.21234   530.28977
      78.960   343.26030   532.59725
      78.970   345.35139   535.01257
      78.980   347.44249   537.40223
      78.990   349.55984   539.81346
      79.000   351.67718   542.18620
      79.010   353.79452   544.55893
      79.020   355.93754   546.90600
      79.030   358.10623   549.23149
      79.040   360.27492   551.51849
      79.050   362.44361   553.80549
      79.060   364.61230   555.97700
      79.070   366.71682   558.14851
      79.080   368.82134   560.25585
      79.090   370.92587   562.34162
      79.100   372.97907   564.27341
      79.110   375.03226   566.16207
      79.120   374.95528   567.92239
      79.130   374.87830   569.63957
      79.140   374.92962   571.15144
      79.150   374.95005   572.53389
      79.160   374.99615   573.35169
      79.170   375.00989   574.07243
      79.180   375.05302   574.72900
      79.190   375.07457   575.32087
      79.200   375.13928   575.75875
      79.210   375.18243   576.13193
      79.220   375.24715   576.44095
      79.230   375.29030   576.70682
      79.240   375.35500   576.90852
      79.250   375.39813   577.11023
      79.260   375.50598   577.22211
      79.270   375.61384   577.29085
      79.280   375.74326   577.32110
      79.290   375.87269   577.32979
      79.300   376.00211   577.31280
      79.310   376.13154   577.25267
      79.320   376.26097   577.17970
      79.330   376.39039   577.08516
      79.340   376.51982   576.93930
      79.350   376.67082   576.77185
      79.360   376.86495   576.57875
      79.370   377.08439   576.38566
      79.380   377.30384   576.12839
      79.390   377.52328   575.82800
      79.400   377.74272   575.51477
      79.410   377.97498   575.17997
      79.420   378.18567   574.81949
      79.430   378.42203   574.45902
      79.440   378.61526   574.09854
      79.450   378.89831   573.69493
      79.460   379.15979   573.22039
      79.470   379.43410   572.72428
      79.480   379.68684   572.17425
      79.490   379.93957   571.59185
      79.500   380.14918   570.94474
      79.510   380.35879   570.29762
      79.520   380.54682   569.60738
      79.530   380.73485   568.91713
      79.540   380.83661   568.20531
      79.550   380.93836   567.49349
      79.560   381.00775   566.78167
      79.570   381.07715   566.06985
      79.580   381.10339   565.25018
      79.590   381.15531   564.38736
      79.600   381.18098   563.50297
      79.610   381.20666   562.61857
      79.620   381.23233   561.73418
      79.630   381.25800   560.84979
      79.640   381.25800   559.98697
      79.650   381.25800   559.12415
      79.660   381.25800   558.26133
      79.670   381.23233   557.42008
      79.680   381.27082   556.57884
      79.690   381.30931   555.73759
      79.700   381.34780   554.91792
      79.710   381.38630   554.11982
      79.720   381.42479   553.36485
      79.730   381.42479   552.62067
      79.740   381.42479   551.91964
      79.750   381.38628   551.19056
      79.760   381.37867   550.59090
      79.770   381.34541   550.01690
      79.780   381.34451   549.53997
      79.790   381.31793   549.08870
      79.800   381.31293   548.70215
      79.810   381.26944   548.31559
      79.820   381.24751   547.99374
      79.830   381.17425   547.67189
      79.840   381.12256   547.39318
      79.850   381.05803   547.12731
      79.860   381.01508   546.86144
      79.870   380.92080   546.62123
      79.880   380.82652   546.42416
      79.890   380.66808   546.26561
      79.900   380.50964   546.12861
      79.910   380.31270   545.99161
      79.920   380.11577   545.89775
      79.930   379.86751   545.85523
      79.940   379.61925   545.83428
      79.950   379.35815   545.81333
      79.960   379.07548   545.81395
      79.970   378.67731   545.81457
      79.980   378.25384   545.81520
      79.990   377.75336   545.81582
      80.000   377.25289   545.85957
      80.010   376.66259   545.90333
      80.020   376.05948   545.96866
      80.030   375.35370   546.03398
      80.040   374.62226   546.09931
      80.050   373.83948   546.13897
      80.060   372.96687   546.22175
      80.070   372.08144   546.30454
      80.080   371.18318   546.40890
      80.090   370.23357   546.46193
      80.100   369.28397   546.54733
      80.110   368.29587   546.59423
      80.120   367.30777   546.64113
      80.130   366.26834   546.62387
      80.140   365.22892   546.60661
      80.150   364.12533   546.46102
      80.160   363.02174   546.31543
      80.170   361.90531   546.10567
      80.180   360.78889   545.89592
      80.190   359.62113   545.62200
      80.200   358.42770   545.39123
      80.210   357.23428   545.07064
      80.220   356.04085   544.75005
      80.230   354.84743   544.33962
      80.240   353.65400   543.92920
      80.250   352.39641   543.48028
      80.260   351.13882   543.03136
      80.270   349.81707   542.58244
      80.280   348.52098   542.11195
      80.290   347.18641   541.61580
      80.300   345.85184   541.11966
      80.310   344.49161   540.58500
      80.320   343.13138   540.02877
      80.330   341.75831   539.43405
      80.340   340.42374   538.82854
      80.350   339.03784   538.10754
      80.360   337.69044   537.41459
      80.370   336.33021   536.55482
      80.380   334.99564   535.66939
      80.390   333.66107   534.69413
      80.400   332.35216   533.69320
      80.410   331.04326   532.58961
      80.420   329.77285   531.48602
      80.430   328.50244   530.34393
