~VERSION INFORMATION SECTION
VERS.           2.0  :CWLS Log ASCII Standard - 2.0
WRAP.           NO   :One line per depth
#               Created in SeisLab
~WELL INFORMATION SECTION
#MNEM.UNIT  VALUE/NAME               :DESCRIPTION    
STRT.m  33.03                        :Start Depth    
STOP.m  122.23                       :Stop Depth     
STEP.m  0.03                         :Step           
NULL.    -999.25                     :Null Value     
WELL.    GDP1                        :Well Name      
CTRY.    Switzerland                 :Country        
CNTY.                                :County         
STAT.    Central Swiss Alps          :State          
API .                                :API number     
UWI .                                :Unique well ID 
LOC .    Grimsel Pass, Switzerland   :Well Location  
FLD .    n/a                         :Field          
COMP.    n/a                         :Company        
SRVC.    University of Lausanne      :Service Company
DATE.    2016                        :Date           
~PARAMETER INFORMATION SECTION
#MNEM .UNITS  VALUE   :DESCRIPTION OF PARAMETER
Casing.n/a    1       :slotted PVC casing      
~CURVE INFORMATION SECTION
#MNEM.UNITS  API CODES   :DESCRIPTION OF MNEMONIC
depth.m                  :measured depth         
NG   .cps                :Natural gamma          
Sp   .mV                 :Self potential         
Temp .DegC               :Temperature            
SPR  .Ohm                :Single point resistance
R8   .Ohm.m              :Normal resistivity     
R16  .Ohm.m              :Single point resistance
R32  .Ohm.m              :Normal resistivity     
R64  .Ohm.m              :Normal resistivity     
~A depth       NG          Sp          Temp        SPR         R8          R16         R32         R64         
# ...
      97.410   262.23400    943.7500     7.55078        8097      4009.4      3046.2      1879.7      1342.0
      97.440   270.46900    905.7500     7.54199        8120      3859.3      2663.1      1735.0      1296.4
      97.480   305.71900    896.2500     7.54395        8071      3656.0      2461.6      1649.5      1436.3
      97.510   299.48400    892.8750     7.56152        7899      3350.3      2422.6      1534.1      1824.6
      97.540   303.17200    903.6250     7.57813        7526      2904.0      2385.8      1510.8      2122.8
      97.570   305.93800    917.0000     7.56934        7224      2596.5      2341.0      1494.7      2125.2
      97.600   313.20300    900.1250     7.55957        6867      2433.0      2273.9      1486.7      1814.8
      97.630   310.75000    876.1250     7.57324        6423      2293.8      2143.2      1465.3      1354.4
      97.650   285.25000    893.6250     7.54102        5871      2191.3      1997.9      1638.8      1529.8
      97.680   301.68800    919.7500     7.55957        5490      2094.2      1889.1      1884.8      1749.7
      97.710   296.53100    915.1250     7.55762        5362      1997.2      1795.7      1919.0      1699.7
      97.740   323.78100    903.6250     7.55273        5358      1910.1      1766.2      1699.8      1404.2
      97.770   306.67200    887.5000     7.54590        5567      1887.3      1718.7      1685.7      1356.6
      97.800   281.04700    871.0000     7.54590        5846      1932.5      1682.0      1795.7      1444.7
      97.840   311.23400    856.7500     7.56152        6086      2086.9      1681.8      1874.8      1301.2
      97.870   321.40600    842.6250     7.57129        6234      2252.6      1797.2      1624.9      1377.4
      97.900   273.68800    836.8750     7.56641        6335      2387.8      1933.6      1627.2      1819.1
      97.930   343.32800    832.5000     7.55566        6468      2512.2      1986.0      1855.1      1925.8
      97.960   312.50000    820.3750     7.54199        6616      2661.3      1951.3      1714.4      1528.1
      97.990   307.46900    806.3750     7.56445        6678      2767.8      2037.8      1723.7      1514.9
      98.010   288.37500    808.8750     7.56641        6683      2779.5      2149.7      1740.1      1763.8
      98.040   299.06300    814.7500     7.55957        6709      2718.3      2278.9      2043.7      1890.6
      98.070   293.90600    824.6250     7.56445        6715      2723.8      2182.3      1801.3      1932.8
      98.100   285.00000    836.1250     7.55273        6645      2716.8      2264.4      1827.7      1848.7
      98.130   285.54700    845.5000     7.57617        6467      2731.6      2434.0      1900.8      1542.3
      98.160   265.14100    853.7500     7.58008        6249      2599.1      2323.2      1831.6      1346.5
      98.190   258.93800    857.3750     7.56836        6127      2579.9      2394.3      2053.7      1264.3
      98.230   270.48400    859.8750     7.55762        6025      2603.8      2425.3      2068.8      1104.2
      98.260   247.47700    864.5000     7.58691        5963      2448.8      2665.3      2731.8      1084.9
      98.290   289.85900    868.6250     7.56836        5823      2452.0      2485.5      4553.5      1126.9
      98.320   253.59400    876.6250     7.56250        5835      2442.3      2519.1      7285.8      1151.8
      98.350   252.35200    885.3750     7.57324        5874      2575.3      2569.1    510597.0      1122.5
      98.380   261.14100    900.5000     7.57129        5800      2466.6      2422.0    -14402.0      1455.5
      98.400   275.23400    916.7500     7.54102        5902      2520.4      2616.1     38100.3      1984.5
      98.430   266.39100    919.3750     7.56250        6073      2610.4      2752.8      4563.8      2099.3
      98.460   274.71900    919.2500     7.57617        6318      2581.0      3733.4      2771.8      1698.9
      98.490   297.00000    912.1250     7.56934        6335      2873.7      6388.7      2370.1      1680.0
      98.520   252.99200    903.0000     7.58496        6488      3270.5      9946.4      2279.3      1978.3
      98.550   264.45300    895.7500     7.57813        6676      4666.4    755796.0      2326.0      2117.1
      98.590   306.25000    889.5000     7.60059        6802      8669.1    -21323.2      2335.5      1632.7
      98.620   294.76600    845.1250     7.58496        8017     14511.0     53429.2      2452.9      1542.3
      98.650   336.89100    794.1250     7.57813       10770   1247880.0      6137.1      2419.5      1916.1
      98.680   273.45300    731.2500     7.58496       20781    -44182.7      3674.3      2292.4      1750.8
      98.710   254.74200    665.1250     7.60352       53571    142596.0      2751.7      2302.6      1716.4
      98.740   252.44500    648.5000     7.59668       99282     20439.4      2457.2      2254.5      1769.9
      98.760   268.23400    640.6250     7.57520     8748610     13404.4      2433.9      2343.8      2223.6
      98.790   255.48400    661.1250     7.56836     -244217      8025.0      2414.3      2407.6      1842.7
      98.820   259.53100    687.0000     7.60938      546910      5636.3      2535.3      2334.6      1845.2
      98.850   236.85900    765.2500     7.60352       48602      4357.1      2585.4      2278.4      1987.0
      98.880   265.21900    854.5000     7.57617       22071      3421.1      2550.1      2378.2      1857.9
      98.910   256.29700    909.2500     7.59375       10684      2979.9      2596.3      2409.0      2047.3
      98.940   269.35900    957.8750     7.60059        6844      2572.8      2565.3      2329.2      1885.3
      98.980   238.15600    965.2500     7.60742        5962      2287.3      2571.8      2433.9      2295.1
      99.010   232.89800    963.5000     7.59863        5574      2131.3      2543.9      2440.2      3604.3
      99.040   280.50000    959.6250     7.62793        5534      2074.9      2459.4      2464.2      6123.4
      99.070   235.32000    954.7500     7.60059        5493      2081.4      2366.9      2488.3    357979.0
      99.100   255.13300    957.7500     7.61426        5414      2097.2      2360.7      2429.9     -9939.4
      99.130   265.64100    961.8750     7.58691        5366      2100.9      2369.9      2434.5     30204.9
      99.150   261.76600    939.3750     7.61914        5352      2117.0      2338.3      2417.1      3342.0
      99.180   238.58600    911.3750     7.61914        5329      2166.0      2442.4      2492.9      1819.9
      99.210   253.00000    901.8750     7.62402        5272      2211.1      2485.9      2450.4      1814.3
      99.240   258.06300    896.7500     7.62402        5241      2236.5      2533.1      2414.8      1925.4
      99.270   290.89100    903.7500     7.62109        5276      2351.5      2623.7      2383.9      1997.9
      99.300   256.78100    913.6250     7.61621        5319      2432.0      2648.3      2396.1      2056.3
      99.340   292.81300    901.7500     7.61621        5405      2528.8      2661.7      2543.6      2252.4
      99.370   276.42200    885.5000     7.58984        5555      2681.9      2666.1      2710.3      2185.2
      99.400   271.17200    887.0000     7.61035        5913      2821.0      2734.5      2698.6      1980.7
      99.430   281.50000    891.8750     7.62598        6312      2964.4      2736.9      2638.9      1969.7
      99.460   291.28100    871.0000     7.60547        6664      3074.5      2724.9      2564.0      1859.9
      99.490   286.09400    843.8750     7.58887        7062      3264.7      2725.6      2620.7      2011.1
      99.510   269.37500    847.7500     7.61426        7336      3448.0      2808.9      2791.2      2153.2
      99.540   269.92200    857.8750     7.62793        7465      3566.7      3011.4      2906.8      2003.4
      99.570   283.54700    874.5000     7.61035        7352      3597.8      3234.6      2911.1      1907.3
      99.600   259.31300    892.2500     7.61719        7340      3686.3      3365.3      2816.3      2131.7
