~VERSION INFORMATION SECTION
VERS.           2.0  :CWLS Log ASCII Standard - 2.0
WRAP.           NO   :One line per depth
#               Created in SeisLab
~WELL INFORMATION SECTION
#MNEM.UNIT  VALUE/NAME               :DESCRIPTION    
STRT.m  24.75                        :Start Depth    
STOP.m  125.11                       :Stop Depth     
STEP.m  0.02                         :Step           
NULL.    -999.25                     :Null Value     
WELL.    GDP1                        :Well Name      
CTRY.    Switzerland                 :Country        
CNTY.                                :County         
STAT.    Central Swiss Alps          :State          
API .                                :API number     
UWI .                                :Unique well ID 
LOC .    Grimsel Pass, Switzerland   :Well Location  
FLD .    n/a                         :Field          
COMP.    n/a                         :Company        
SRVC.    University of Lausanne      :Service Company
DATE.    2015                        :Date           
~PARAMETER INFORMATION SECTION
#MNEM .UNITS    VALUE   :DESCRIPTION OF PARAMETER
Casing.n/a      0       :open hole               
Mud   .Polymer  1       :Mud type                
~CURVE INFORMATION SECTION
#MNEM.UNITS  API CODES   :DESCRIPTION OF MNEMONIC
depth.m                  :measured depth         
NG   .cps                :Natural gamma          
Sp   .mV                 :Self potential         
Temp .DegC               :Temperature            
SPR  .Ohm                :Single point resistance
R8   .Ohm.m              :Normal resistivity     
R16  .Ohm.m              :Single point resistance
R32  .Ohm.m              :Normal resistivity     
R64  .Ohm.m              :Normal resistivity     
~A depth       NG          Sp          Temp        SPR         R8          R16         R32         R64         
# ...
     122.430   3503.9100    697.3750     9.19141    4773.690    7300.590   10049.800   12417.600    5504.330
     122.450   3637.1500    696.6250     9.22461    4705.590    7284.650    9835.960   12359.400    4746.710
     122.470   3727.4000    675.6250     9.21484    4662.070    7272.580    9876.200   12676.100    5069.670
     122.490   3009.0800    675.5000     9.18555    4692.930    7358.140    9905.790   12674.800    5871.800
     122.510   3447.7400    730.5000     9.20898    4717.290    7451.230    9733.230   12327.100    5961.030
     122.530   3338.7100    765.3750     9.17383    4717.960    7403.220    9905.000   12197.400    5483.170
     122.550   2745.8900    750.1250     9.20508    4730.050    7313.550   10274.300   12325.400    5030.800
     122.570   3836.2400    739.2500     9.21875    4751.580    7376.080   10341.700   12346.700    5244.830
     122.590   2964.7300    740.2500     9.16797    4816.210    7438.920   10366.100   12335.800    5801.560
     122.610   3104.7600    742.7500     9.24805    4873.790    7366.400   10427.100   12444.800    5752.920
     122.630   3478.9300    743.7500     9.23633    4862.240    7489.350   10262.800   12446.500    5624.570
     122.650   3437.4800    734.1250     9.25977    4829.280    7735.430   10206.800   12410.600    5663.470
     122.670   3473.3100    683.7500     9.19141    4873.310    7806.840   10414.300   12301.600    5469.080
     122.690   3724.3000    651.0000     9.22266    4907.310    7851.000   10471.400   11958.600    5564.510
     122.710   3160.7300    686.2500     9.24414    4869.170    7923.040   10309.900   11594.200    5827.500
     122.730   3514.9500    721.5000     9.21680    4937.040    7865.480   10230.600   11449.100    5656.810
     122.750   3297.4600    759.8750     9.20508    5064.870    7843.970   10318.000   11361.600    5153.250
     122.770   3867.8100    784.1250     9.24023    5104.380    7965.220   10381.700   11146.200    4768.740
     122.790   3887.7600    728.0000     9.23633    5128.840    8004.680   10394.700   10959.100    4804.030
     122.810   3561.6200    685.2500     9.23633    5168.260    7924.830   10455.800   10690.800    4990.830
     122.830   3695.8300    717.7500     9.20898    5143.010    7896.180   10439.300   10580.000    5263.850
     122.850   3692.5400    744.2500     9.20898    5122.230    7944.460   10421.200   10754.300    5292.090
     122.870   3666.2000    727.6250     9.21094    5173.070    7978.260   10365.200   10834.400    4985.670
     122.890   4095.9500    718.2500     9.24805    5193.610    7978.550   10127.900   10958.200    5161.030
     122.910   3875.3600    778.2500     9.21289    5154.160    7992.450    9894.580   11211.900    5692.820
     122.930   3354.2000    832.0000     9.23242    5139.220    7962.470    9866.240   11040.700    5605.560
     122.950   3693.9000    835.2500     9.23047    5152.740    7936.640    9889.000   10730.700    4961.670
     122.970   3375.5100    847.2500     9.21289    5160.630    7897.790    9769.380   10820.200    4856.520
     122.990   3390.6100    980.0000     9.24219    5148.170    7746.920    9631.340   10849.900    5042.430
     123.010   3108.8200   1140.2500     9.28906    5130.840    7590.800    9462.760   10713.800    4996.740
     123.030   3389.8400   1774.6300     9.25195    5094.640    7554.160    9428.080   10522.300    5625.840
     123.050   3288.7400   2377.0000     9.29102    5068.080    7550.900    9552.130   10216.300    6654.330
     123.070   3593.3800   -999.0000     9.26172    5036.990    7462.100    9576.440   10152.400    6990.000
     123.090   3354.7800   -999.0000     9.25781    4944.030    7357.530    9621.230   10252.500    7071.210
     123.110   3323.9900   -999.0000     9.25391    4849.020    7234.510    9765.100   10006.000    7113.070
     123.130   3181.4500   -999.0000     9.25391    4820.240    7185.750    9626.650    9601.640    6694.090
     123.150   2927.1600   -999.0000     9.25000    4808.520    7230.450    9394.720    9382.810    6618.940
     123.170   3674.5300   -999.0000     9.26172    4756.830    7212.100    9424.760    9328.910    7122.410
     123.190   3076.6800   -999.0000     9.24414    4704.010    7197.230    9399.590    9295.710    7122.420
     123.210   3483.7700   -999.0000     9.29102    4647.960    7254.270    9266.340    9227.560    6544.850
     123.230   3555.2300   -999.0000     9.25586    4624.290    7148.530    9101.060    9106.120    6386.280
     123.250   3358.8500   -999.0000     9.30273    4642.260    6977.510    8952.460    9105.920    6694.830
     123.270   3327.8600   -999.0000     9.21875    4634.720    6959.780    8972.030    9358.900    6780.260
     123.290   3784.1500   -999.0000     9.22266    4628.770    6914.090    8961.410    9412.110    6898.910
     123.310   3220.5700   -999.0000     9.24609    4657.770    6804.090    8692.710    9061.680    7268.120
     123.330   3544.5800   -999.0000     9.24805    4600.420    6680.920    8397.640    8723.610    7498.680
     123.350   3809.7100   -999.0000     9.24805    4506.730    6574.730    8268.420    8816.490    7593.800
     123.370   3923.2000   -999.0000     9.24609    4491.580    6559.040    8176.400    9011.290    7501.800
     123.390   4033.9800   -999.0000     9.24805    4456.110    6533.980    8024.000    8995.590    7131.380
     123.410   2814.6400   -999.0000     9.25781    4383.450    6360.720    7850.670    9039.340    6745.480
     123.430   3180.6800   -999.0000     9.28516    4313.840    6172.090    7681.180    8995.510    6615.520
     123.450   3750.0600   -999.0000     9.25391    4265.950    6081.810    7610.370    8725.160    6506.840
     123.470   3263.3700   -999.0000     9.26172    4255.970    5994.960    7701.900    8677.610    6254.950
     123.490   3621.8500   -999.0000     9.25391    4240.640    5871.470    7670.480    8807.170    6169.790
     123.510   3448.3300   -999.0000     9.26563    4159.180    5750.030    7374.020    8680.480    5953.540
     123.530   3096.4300   -999.0000     9.28320    4073.560    5632.710    7086.890    8475.610    5865.470
     123.550   3322.2500   -999.0000     9.30859    4031.160    5553.840    7081.390    8464.780    6163.750
     123.570   3238.3900   -999.0000     9.23438    3971.840    5568.570    7165.630    8591.280    6404.750
     123.590   -999.0000   -999.0000     9.30469    3897.760    5534.530    7132.120    8813.580    6821.500
     123.610   -999.0000   -999.0000     9.25391    3841.440    5360.230    7137.710    9131.850    7358.370
     123.630   -999.0000   -999.0000     9.27539    3779.220    5193.160    7109.480    9134.660    7244.270
     123.650   -999.0000   -999.0000     9.26953    3717.010    5183.130    6961.380    8822.750    6961.780
     123.670   -999.0000   -999.0000     9.29102    3702.730    5224.430    6947.370    8804.020    7314.800
     123.690   -999.0000   -999.0000     9.28125    3673.940    5208.970    7020.470    8983.910    7579.360
     123.710   -999.0000   -999.0000     9.24609    3571.150    5216.370    6946.580    8922.520    7505.440
     123.730   -999.0000   -999.0000     9.31055    3459.880    5200.840    6857.890    8806.130    7396.570
     123.750   -999.0000   -999.0000     9.23438    3432.970    5118.900    6854.820    8907.270    7159.040
     123.770   -999.0000   -999.0000     9.30078    3451.060    5113.400    6910.350    9114.530    7273.480
     123.790   -999.0000   -999.0000     9.30273    3446.550    5156.200    7053.220    9112.180    7623.550
     123.810   -999.0000   -999.0000     9.25586    3446.820    5113.770    7248.640    8866.880    7395.080
     123.830   -999.0000   -999.0000     9.27148    3440.680    5063.370    7230.870    8703.850    6871.140
     123.850   -999.0000   -999.0000     9.27148    3406.300    5064.310    7031.860    8845.180    6535.010
     123.870   -999.0000   -999.0000     9.27539    3404.050    5092.920    7022.710    9191.550    6479.450
     123.890   -999.0000   -999.0000     9.26563    3421.950    5166.810    7125.150    9244.340    6627.380
