~VERSION INFORMATION SECTION
VERS.           2.0  :CWLS Log ASCII Standard - 2.0
WRAP.           NO   :One line per depth
#               Created in SeisLab
~WELL INFORMATION SECTION
#MNEM.UNIT  VALUE/NAME               :DESCRIPTION    
STRT.m  47.59                        :Start Depth    
STOP.m  123.23                       :Stop Depth     
STEP.m  0.02                         :Step           
NULL.    -999.25                     :Null Value     
WELL.    GDP1                        :Well Name      
CTRY.    Switzerland                 :Country        
CNTY.                                :County         
STAT.    Central Swiss Alps          :State          
API .                                :API number     
UWI .                                :Unique well ID 
LOC .    Grimsel Pass, Switzerland   :Well Location  
FLD .    n/a                         :Field          
COMP.    n/a                         :Company        
SRVC.    University of Lausanne      :Service Company
DATE.    2017                        :Date           
~PARAMETER INFORMATION SECTION
#MNEM .UNITS  VALUE   :DESCRIPTION OF PARAMETER
Casing.n/a    1       :slotted PVC casing      
~CURVE INFORMATION SECTION
#MNEM.UNITS  API CODES   :DESCRIPTION OF MNEMONIC
depth.m                  :measured depth         
NG   .cps                :Natural gamma          
Sp   .mV                 :Self potential         
Temp .DegC               :Temperature            
SPR  .Ohm                :Single point resistance
R8   .Ohm.m              :Normal resistivity     
R16  .Ohm.m              :Single point resistance
R32  .Ohm.m              :Normal resistivity     
R64  .Ohm.m              :Normal resistivity     
~A depth       NG          Sp          Temp        SPR         R8          R16         R32         R64         
# ...
      83.110   232.88300   1200.7500     6.74512      4193.9       642.6      778.76     1026.25     4137.42
      83.130   250.76600   1197.7500     6.75684      4222.8       642.2      780.16     1023.18     2089.46
      83.150   225.06300   1194.0000     6.77539      4236.8       644.2      782.88     1010.71     1590.14
      83.170   233.39100   1189.0000     6.75879      4216.6       647.4      782.57     1010.65     1424.73
      83.190   228.65600   1184.3800     6.75293      4177.1       646.3      786.98     1002.26     1358.07
      83.210   226.04700   1183.8800     6.75293      4149.7       648.1      794.97      991.88     1337.55
      83.230   215.77300   1184.1300     6.77930      4139.4       647.6      793.81      981.94     1331.40
      83.250   251.90600   1182.8800     6.75488      4141.6       647.9      799.49      974.71     1322.35
      83.270   261.60900   1181.5000     6.77539      4161.9       646.4      799.34      971.85     1311.39
      83.290   260.10900   1178.8800     6.76172      4185.4       647.6      800.17      967.77     1308.49
      83.310   227.53100   1176.3800     6.77051      4184.7       651.9      797.29      997.10     1308.44
      83.330   204.43000   1170.8800     6.75488      4140.9       651.5      795.69     1071.94     1302.24
      83.350   230.18800   1164.6300     6.77051      4083.5       655.2      788.43     1262.26     1299.16
      83.370   216.89100   1165.0000     6.78906      4044.0       657.1      787.18     1681.89     1302.58
      83.390   207.33600   1167.1300     6.76172      4029.9       661.2      780.77     2872.66     1308.61
      83.410   234.54700   1169.1300     6.76367      4038.4       662.6      773.34    12186.10     1305.99
      83.430   231.21100   1171.0000     6.77539      4069.0       662.1      765.52    -8102.41     1291.60
      83.450   243.94500   1175.7500     6.78223      4122.6       656.5      759.47    -4038.54     1287.74
      83.470   263.37500   1180.0000     6.76563      4173.6       654.2      758.66    -3807.38     1295.90
      83.490   239.14100   1183.8800     6.77344      4201.8       649.9      762.52    -5646.05     1298.04
      83.510   218.18000   1187.5000     6.77734      4200.8       646.0      795.31    59469.50     1291.07
      83.530   239.94500   1192.0000     6.76563      4185.4       642.6      869.03     3333.97     1289.38
      83.550   258.10900   1196.5000     6.76563      4162.2       640.2     1044.30     1579.25     1297.03
      83.570   212.63300   1196.8800     6.75879      4141.1       642.3     1446.57     1149.42     1298.50
      83.590   228.00000   1196.8800     6.75488      4126.7       652.2     2577.37     1008.14     1293.73
      83.610   255.28900   1187.8800     6.78516      4119.4       690.6    11305.00      952.49     1294.52
      83.630   259.71900   1177.1300     6.77539      4115.9       776.0    -7784.65      930.93     1299.28
      83.650   275.42200   1137.1300     6.77344      4135.6       978.5    -4009.87      920.99     1298.58
      83.670   268.54700   1092.1300     6.76367      4256.5      1482.7    -3807.38      911.73     1253.82
      83.690   259.40600   1027.3800     6.75293      4701.9      3021.2    -5638.85      903.02     1166.73
      83.710   292.46900    959.3750     6.73926      7014.3     15900.7    59166.30      900.02     1111.66
      83.730   252.06300    879.8750     6.75977      6031.2    -14119.6     3209.33      898.59     1091.95
      83.750   254.96900    798.5000     6.76172      -622.7    -10068.0     1414.60      893.71     1078.95
      83.770   297.48400    753.2500     6.77246     -3201.1    -13935.2      973.73      890.61     1080.82
      83.790   252.89800    714.2500     6.76660     -7752.6    -30264.2      832.54      890.85     1085.82
      83.810   280.56300    699.0000     6.76855    -42156.0    469053.0      776.07      892.03     1084.87
      83.830   256.90600    686.8750     6.76172     33035.5     33827.8      750.33      889.11     1079.29
      83.850   279.07800    688.6250     6.77246     18096.4     15249.9      737.50      880.50     1074.66
      83.870   252.32000    692.8750     6.74609     16888.2      8995.7      731.23      877.43     1079.56
      83.890   255.59400    716.3750     6.73633     23317.8      6352.3      732.17      881.10     1080.71
      83.910   264.10900    743.0000     6.75879   -217991.0      4798.0      746.11      881.91     1072.96
      83.930   242.17200    805.7500     6.77246     -9660.2      3566.1      768.72      878.37     1075.58
      83.950   233.65600    875.2500     6.76563     -2968.0      2623.7      788.77      877.38     1083.11
      83.970   241.85900    942.7500     6.77930     -1354.3      1968.1      799.51      880.93     1083.49
      83.990   237.63300   1009.3800     6.76172      3539.2      1513.3      798.64      881.13     1077.61
      84.010   261.29700   1060.7500     6.76172      6020.3      1206.5      787.68      878.80     1076.02
      84.030   247.18000   1110.0000     6.76172      5166.7       993.4      767.51      879.48     1080.15
      84.050   259.95300   1122.5000     6.74512      4707.1       845.7      743.51      880.97     1072.53
      84.070   268.78100   1129.1300     6.76172      4467.6       742.3      724.52      879.41     1062.30
      84.090   263.46900   1124.7500     6.77344      4317.8       673.3      712.29      857.01     1065.23
      84.110   235.19500   1117.8800     6.76367      4218.4       629.6      700.71      814.97     1068.29
      84.130   241.02300   1113.0000     6.78418      4146.6       602.0      689.28      786.28     1065.58
      84.150   233.53100   1108.7500     6.75684      4096.0       581.1      680.86      775.62     1059.66
      84.170   242.45300   1107.7500     6.76563      4065.7       566.4      675.75      768.65     1058.91
      84.190   243.32000   1107.7500     6.78223      4050.7       556.0      670.16      768.22     1066.56
      84.210   250.64100   1108.5000     6.78027      4038.3       547.3      665.46      770.13     1066.86
      84.230   258.45300   1110.3800     6.78711      4011.6       539.8      665.13      768.34     1061.91
      84.250   233.26600   1110.2500     6.75879      3966.9       534.9      665.78      765.43     1111.09
      84.270   246.93000   1110.2500     6.79785      3921.4       532.8      664.86      762.70     1208.37
      84.290   285.29700   1102.5000     6.77051      3890.6       531.1      653.05      765.92     1255.69
      84.310   235.27300   1093.2500     6.78418      3873.9       529.8      631.99      767.35     1263.75
      84.330   234.22700   1086.8800     6.79102      3863.8       529.8      617.79      764.24     1273.66
      84.350   228.99200   1080.6300     6.78027      3860.8       528.9      611.00      766.13     1281.52
      84.370   240.89800   1074.0000     6.77734      3866.4       526.4      605.06      770.53     1278.82
      84.390   266.59400   1067.5000     6.79199      3876.8       519.6      602.99      770.79     1269.96
      84.410   211.60200   1068.6300     6.78906      3899.0       509.5      602.30      767.05     1273.78
      84.430   221.30500   1071.2500     6.79785      3936.2       502.7      600.04      766.62     1272.36
      84.450   217.90600   1077.8800     6.78906      3968.1       498.8      596.73      768.97     1278.97
      84.470   285.17200   1085.2500     6.79883      3980.1       495.0      593.15      765.12     1272.34
      84.490   237.96900   1089.5000     6.80762      3987.6       492.6      590.59      759.63     1291.34
      84.510   255.30500   1093.1300     6.79590      4000.5       490.9      590.86      760.54     1299.86
      84.530   206.43800   1092.2500     6.78418      4002.0       489.0      589.09      761.38     1310.07
      84.550   222.53100   1091.1300     6.78906      3989.4       487.1      588.56      759.95     1310.88
      84.570   225.48400   1087.2500     6.79785      3973.0       485.4      591.19      756.72     1310.35
