~VERSION INFORMATION SECTION
VERS.           2.0  :CWLS Log ASCII Standard - 2.0
WRAP.           NO   :One line per depth
#               Created in SeisLab
~WELL INFORMATION SECTION
#MNEM.UNIT  VALUE/NAME               :DESCRIPTION    
STRT.m  10                           :Start Depth    
STOP.m  125                          :Stop Depth     
STEP.m  0.01                         :Step           
NULL.    -999.25                     :Null Value     
WELL.    GDP1                        :Well Name      
CTRY.    Switzerland                 :Country        
CNTY.                                :County         
STAT.    Central Swiss Alps          :State          
API .                                :API number     
UWI .                                :Unique well ID 
LOC .    Grimsel Pass, Switzerland   :Well Location  
FLD .    n/a                         :Field          
COMP.    n/a                         :Company        
SRVC.    University of Lausanne      :Service Company
DATE.    2015                        :Date           
~PARAMETER INFORMATION SECTION
#MNEM .UNITS    VALUE   :DESCRIPTION OF PARAMETER
Casing.n/a      0       :open hole               
Mud   .Polymer  1       :Mud type                
~CURVE INFORMATION SECTION
#MNEM.UNITS  API CODES   :DESCRIPTION OF MNEMONIC
depth.m                  :measured depth         
NG   .cps                :Natural gamma          
Sp   .mV                 :Self potential         
Temp .DegC               :Temperature            
SPR  .Ohm                :Single point resistance
R8   .Ohm.m              :Normal resistivity     
R16  .Ohm.m              :Single point resistance
R32  .Ohm.m              :Normal resistivity     
R64  .Ohm.m              :Normal resistivity     
~A depth       NG          Sp          Temp        SPR         R8          R16         R32         R64         
      10.000   269.75645    489.0786  -999.25000    7546.756    3668.561    3387.030    3479.830    3098.996
      10.010   269.75645    489.0786  -999.25000    7546.756    3668.561    3387.030    3479.830    3098.996
      10.020   269.75645    489.0786  -999.25000    7546.756    3668.561    3387.030    3479.830    3098.996
      10.030   269.75645    489.0786  -999.25000    7546.756    3668.561    3387.030    3479.830    3098.996
      10.040   269.75645    489.0786  -999.25000    7546.756    3668.561    3387.030    3479.830    3098.996
      10.050   269.75645    489.0786  -999.25000    7546.756    3668.561    3387.030    3479.830    3098.996
      10.060   269.75645    489.0786  -999.25000    7546.756    3668.561    3387.030    3479.830    3098.996
      10.070   269.75645    489.0786  -999.25000    7546.756    3668.561    3387.030    3479.830    3098.996
      10.080   269.75645    489.0786  -999.25000    7546.756    3668.561    3387.030    3479.830    3098.996
      10.090   269.75645    489.0786  -999.25000    7546.756    3668.561    3387.030    3479.830    3098.996
      10.100   269.75645    489.0786  -999.25000    7546.756    3668.561    3387.030    3479.830    3098.996
      10.110   269.75645    489.0786  -999.25000    7546.756    3668.561    3387.030    3479.830    3098.996
      10.120   269.75645    489.0786  -999.25000    7546.756    3668.561    3387.030    3479.830    3098.996
      10.130   269.75645    489.0786  -999.25000    7546.756    3668.561    3387.030    3479.830    3098.996
      10.140   269.75645    489.0786  -999.25000    7546.756    3668.561    3387.030    3479.830    3098.996
      10.150   269.75645    489.0786  -999.25000    7546.756    3668.561    3387.030    3479.830    3098.996
      10.160   269.75645    489.0786  -999.25000    7546.756    3668.561    3387.030    3479.830    3098.996
      10.170   269.75645    489.0786  -999.25000    7546.756    3668.561    3387.030    3479.830    3098.996
      10.180   269.75645    489.0786  -999.25000    7546.756    3668.561    3387.030    3479.830    3098.996
      10.190   269.75645    489.0786  -999.25000    7546.756    3668.561    3387.030    3479.830    3098.996
      10.200   269.75645    489.0786  -999.25000    7546.756    3668.561    3387.030    3479.830    3098.996
      10.210   269.75645    489.0786  -999.25000    7546.756    3668.561    3387.030    3479.830    3098.996
      10.220   269.75645    489.0786  -999.25000    7546.756    3668.561    3387.030    3479.830    3098.996
      10.230   269.75645    489.0786  -999.25000    7546.756    3668.561    3387.030    3479.830    3098.996
      10.240   269.75645    489.0786  -999.25000    7546.756    3668.561    3387.030    3479.830    3098.996
      10.250   269.75645    489.0786  -999.25000    7546.756    3668.561    3387.030    3479.830    3098.996
      10.260   269.75645    489.0786  -999.25000    7546.756    3668.561    3387.030    3479.830    3098.996
      10.270   269.75645    489.0786  -999.25000    7546.756    3668.561    3387.030    3479.830    3098.996
      10.280   269.75645    489.0786  -999.25000    7546.756    3668.561    3387.030    3479.830    3098.996
      10.290   269.75645    489.0786  -999.25000    7546.756    3668.561    3387.030    3479.830    3098.996
      10.300   269.75645    489.0786  -999.25000    7546.756    3668.561    3387.030    3479.830    3098.996
      10.310   269.75645    489.0786  -999.25000    7546.756    3668.561    3387.030    3479.830    3098.996
      10.320   269.75645    489.0786  -999.25000    7546.756    3668.561    3387.030    3479.830    3098.996
      10.330   269.75645    489.0786  -999.25000    7546.756    3668.561    3387.030    3479.830    3098.996
      10.340   269.75645    489.0786  -999.25000    7546.756    3668.561    3387.030    3479.830    3098.996
      10.350   269.75645    489.0786  -999.25000    7546.756    3668.561    3387.030    3479.830    3098.996
      10.360   269.75645    489.0786  -999.25000    7546.756    3668.561    3387.030    3479.830    3098.996
      10.370   269.75645    489.0786  -999.25000    7546.756    3668.561    3387.030    3479.830    3098.996
      10.380   269.75645    489.0786  -999.25000    7546.756    3668.561    3387.030    3479.830    3098.996
      10.390   269.75645    489.0786  -999.25000    7546.756    3668.561    3387.030    3479.830    3098.996
      10.400   269.75645    489.0786  -999.25000    7546.756    3668.561    3387.030    3479.830    3098.996
      10.410   269.75645    489.0786  -999.25000    7546.756    3668.561    3387.030    3479.830    3098.996
      10.420   269.75645    489.0786  -999.25000    7546.756    3668.561    3387.030    3479.830    3098.996
      10.430   269.75645    489.0786  -999.25000    7546.756    3668.561    3387.030    3479.830    3098.996
      10.440   269.75645    489.0786  -999.25000    7546.756    3668.561    3387.030    3479.830    3098.996
      10.450   269.75645    489.0786  -999.25000    7546.756    3668.561    3387.030    3479.830    3098.996
      10.460   269.75645    489.0786  -999.25000    7546.756    3668.561    3387.030    3479.830    3098.996
      10.470   269.75645    489.0786  -999.25000    7546.756    3668.561    3387.030    3479.830    3098.996
      10.480   269.75645    489.0786  -999.25000    7546.756    3668.561    3387.030    3479.830    3098.996
      10.490   269.75645    489.0786  -999.25000    7546.756    3668.561    3387.030    3479.830    3098.996
      10.500   269.75645    489.0786  -999.25000    7546.756    3668.561    3387.030    3479.830    3098.996
      10.510   269.75645    489.0786  -999.25000    7546.756    3668.561    3387.030    3479.830    3098.996
      10.520   269.75645    489.0786  -999.25000    7546.756    3668.561    3387.030    3479.830    3098.996
      10.530   269.75645    489.0786  -999.25000    7546.756    3668.561    3387.030    3479.830    3098.996
      10.540   269.75645    489.0786  -999.25000    7546.756    3668.561    3387.030    3479.830    3098.996
      10.550   269.75645    489.0786  -999.25000    7546.756    3668.561    3387.030    3479.830    3098.996
      10.560   269.75645    489.0786  -999.25000    7546.756    3668.561    3387.030    3479.830    3098.996
      10.570   269.75645    489.0786  -999.25000    7546.756    3668.561    3387.030    3479.830    3098.996
      10.580   269.75645    489.0786  -999.25000    7546.756    3668.561    3387.030    3479.830    3098.996
      10.590   269.75645    489.0786  -999.25000    7546.756    3668.561    3387.030    3479.830    3098.996
      10.600   269.75645    489.0786  -999.25000    7546.756    3668.561    3387.030    3479.830    3098.996
      10.610   269.75645    489.0786  -999.25000    7546.756    3668.561    3387.030    3479.830    3098.996
      10.620   269.75645    489.0786  -999.25000    7546.756    3668.561    3387.030    3479.830    3098.996
      10.630   269.75645    489.0786  -999.25000    7546.756    3668.561    3387.030    3479.830    3098.996
      10.640   269.75645    489.0786  -999.25000    7546.756    3668.561    3387.030    3479.830    3098.996
      10.650   269.75645    489.0786  -999.25000    7546.756    3668.561    3387.030    3479.830    3098.996
      10.660   269.75645    489.0786  -999.25000    7546.756    3668.561    3387.030    3479.830    3098.996
      10.670   269.75645    489.0786  -999.25000    7546.756    3668.561    3387.030    3479.830    3098.996
      10.680   269.75645    489.0786  -999.25000    7546.756    3668.561    3387.030    3479.830    3098.996
      10.690   269.75645    489.0786  -999.25000    7546.756    3668.561    3387.030    3479.830    3098.996
      10.700   269.75645    489.0786  -999.25000    7546.756    3668.561    3387.030    3479.830    3098.996
      10.710   269.75645    489.0786  -999.25000    7546.756    3668.561    3387.030    3479.830    3098.996
      10.720   269.75645    489.0786  -999.25000    7546.756    3668.561    3387.030    3479.830    3098.996
      10.730   269.75645    489.0786  -999.25000    7546.756    3668.561    3387.030    3479.830    3098.996
