~VERSION INFORMATION SECTION
VERS.           2.0  :CWLS Log ASCII Standard - 2.0
WRAP.           NO   :One line per depth
#               Created in SeisLab
~WELL INFORMATION SECTION
#MNEM.UNIT  VALUE/NAME               :DESCRIPTION    
STRT.m  10                           :Start Depth    
STOP.m  124                          :Stop Depth     
STEP.m  0.01                         :Step           
NULL.    -999.25                     :Null Value     
WELL.    GDP1                        :Well Name      
CTRY.    Switzerland                 :Country        
CNTY.                                :County         
STAT.    Central Swiss Alps          :State          
API .                                :API number     
UWI .                                :Unique well ID 
LOC .    Grimsel pass, Switzerland   :Well Location  
FLD .    n/a                         :Field          
COMP.    n/a                         :Company        
SRVC.    University of Lausanne      :Service Company
DATE.    2015                        :Date           
~PARAMETER INFORMATION SECTION
#MNEM .UNITS    VALUE   :DESCRIPTION OF PARAMETER
Casing.n/a      0       :open hole               
Mud   .Polymer  1       :Mud type                
~CURVE INFORMATION SECTION
#MNEM.UNITS  API CODES   :DESCRIPTION OF MNEMONIC      
depth.m                  :measured depth (interpolated)
Cal  .mm                 :Caliper                      
NN   .cps                :Neutron-Neutron              
GG   .cps                :Gamma-Gamma                  
~A depth       Cal         NN          GG          
# ...
      70.680   106.22627    518.7514    981.7429
      70.690   107.05732    520.1993    981.5068
      70.700   107.18196    522.3865    974.4954
      70.710   107.30660    524.5737    967.4840
      70.720   105.66635    531.4651    972.0695
      70.730   104.02610    538.3566    976.6550
      70.740   103.71785    546.9566   1016.3005
      70.750   103.40960    555.5566   1055.9460
      70.760   103.41310    535.2067   1027.9055
      70.770   103.41660    514.8568    999.8650
      70.780   103.42325    511.7087    971.9318
      70.790   103.42990    508.5605    943.9987
      70.800   103.42935    517.7735    966.1269
      70.810   103.42880    526.9866    988.2551
      70.820   103.44600    521.3596   1008.7855
      70.830   103.46320    515.7325   1029.3160
      70.840   103.66990    510.2928   1036.2480
      70.850   103.87660    504.8531   1043.1800
      70.860   103.77245    500.1287   1016.1543
      70.870   103.66830    495.4043    989.1286
      70.880   103.20475    499.2433    971.6198
      70.890   102.74120    503.0823    954.1109
      70.900   102.73520    507.2628    946.3842
      70.910   102.72920    511.4433    938.6575
      70.920   102.71450    514.7257    949.2152
      70.930   102.69980    518.0081    959.7729
      70.940   102.68775    503.9311    973.8868
      70.950   102.67570    489.8541    988.0008
      70.960   102.67725    484.7423    998.3474
      70.970   102.67880    479.6305   1008.6940
      70.980   102.67985    481.6305   1006.6940
      70.990   102.68090    483.6306   1004.6940
      71.000   102.68430    487.8277    976.7091
      71.010   102.68770    492.0247    948.7242
      71.020   102.69950    485.4409    929.4801
      71.030   102.71130    478.8571    910.2359
      71.040   102.72215    466.3416    932.6375
      71.050   102.73300    453.8260    955.0391
      71.060   102.74465    477.4925    934.2152
      71.070   102.75630    501.1590    913.3913
      71.080   102.76245    506.6318    891.4666
      71.090   102.76860    512.1046    869.5419
      71.100   102.77810    503.9843    876.5458
      71.110   102.78760    495.8639    883.5498
      71.120   102.86830    495.3907    874.5348
      71.130   102.94900    494.9175    865.5198
      71.140   103.02225    501.0165    858.4742
      71.150   103.09550    507.1154    851.4286
      71.160   102.95890    517.7361    861.2611
      71.170   102.82230    528.3569    871.0937
      71.180   102.80914    530.3915    859.1070
      71.190   102.79612    532.4242    847.1213
      71.200   102.91141    532.6245    836.0815
      71.210   103.02670    532.8248    825.0418
      71.220   103.30580    531.8878    832.4670
      71.230   103.58490    530.9508    839.8922
      71.240   104.38330    534.3015    827.1606
      71.250   105.18170    537.6522    814.4291
      71.260   105.42540    536.6873    802.3163
      71.270   105.66910    535.7224    790.2034
      71.280   105.97305    531.5906    794.4779
      71.290   106.27700    527.4588    798.7525
      71.300   105.66815    526.1108    799.0921
      71.310   105.05930    524.7627    799.4318
      71.320   104.53585    538.6568    791.0643
      71.330   104.01240    552.5510    782.6967
      71.340   104.01180    576.3684    754.7384
      71.350   104.01120    600.1857    726.7801
      71.360   104.03700    595.6963    717.0891
      71.370   104.06280    591.2070    707.3981
      71.380   104.51550    585.1466    708.1499
      71.390   104.96820    579.0861    708.9018
      71.400   106.26705    571.7303    723.2383
      71.410   107.56590    564.3745    737.5748
      71.420   107.84800    555.8303    738.5323
      71.430   108.13010    547.2861    739.4898
      71.440   108.14090    548.8246    739.9895
      71.450   108.15170    550.3632    740.4893
      71.460   107.43800    558.6866    749.6519
      71.470   106.72430    567.0099    758.8145
      71.480   106.52265    559.9786    774.0343
      71.490   106.32100    552.9473    789.2542
      71.500   106.20465    548.0792    796.4007
      71.510   106.08830    543.2111    803.5472
      71.520   106.48915    539.6069    785.3439
      71.530   106.89000    536.0026    767.1406
      71.540   107.27415    526.1606    758.2287
      71.550   107.65830    516.3186    749.3167
      71.560   107.44350    517.0422    743.8367
      71.570   107.22870    517.7657    738.3567
      71.580   106.84145    524.6566    734.9320
      71.590   106.45420    531.5475    731.5073
      71.600   106.60760    507.9343    739.2678
      71.610   106.76100    484.3211    747.0283
      71.620   106.73725    491.2296    755.3677
      71.630   106.71350    498.1381    763.7070
      71.640   107.03530    526.0584    765.3392
      71.650   107.35710    553.9788    766.9714
      71.660   106.63225    541.6007    784.3867
      71.670   105.90740    529.2225    801.8021
      71.680   106.03616    519.0228    818.6103
      71.690   106.16473    508.8265    835.4052
      71.700   106.09667    502.1306    839.0419
      71.710   106.02860    495.4346    842.6786
      71.720   106.27320    515.5616    851.8886
      71.730   106.51780    535.6887    861.0986
      71.740   106.77715    531.8463    866.3783
      71.750   107.03650    528.0039    871.6580
      71.760   107.11040    507.3411    862.6757
      71.770   107.18430    486.6782    853.6934
      71.780   106.58215    492.6209    844.4773
      71.790   105.98000    498.5636    835.2612
      71.800   105.84525    502.5163    826.8848
      71.810   105.71050    506.4691    818.5083
      71.820   105.52730    508.3342    812.4605
      71.830   105.34410    510.1993    806.4126
      71.840   105.30495    503.9791    818.8727
      71.850   105.26580    497.7589    831.3328
      71.860   105.24525    492.9281    841.2499
      71.870   105.22470    488.0974    851.1669
      71.880   104.93070    486.1809    840.8701
      71.890   104.63670    484.2643    830.5732
      71.900   104.39210    509.7033    823.3133
      71.910   104.14750    535.1423    816.0534
      71.920   104.22460    532.5729    817.7853
      71.930   104.30170    530.0035    819.5172
      71.940   104.65760    507.5252    842.2778
      71.950   105.01350    485.0469    865.0385
      71.960   104.88025    489.8943    850.4696
      71.970   104.74700    494.7417    835.9008
      71.980   104.87865    504.8327    819.1820
      71.990   105.01030    514.9238    802.4631
      72.000   105.09980    528.8163    807.5825
      72.010   105.18930    542.7087    812.7018
      72.020   105.14565    552.4358    804.5197
      72.030   105.10200    562.1629    796.3376
      72.040   105.84945    554.0121    784.7849
      72.050   106.59690    545.8612    773.2322
      72.060   106.03235    525.1163    762.7108
      72.070   105.46780    504.3715    752.1894
      72.080   105.74680    503.0544    758.6671
      72.090   106.02580    501.7373    765.1448
      72.100   106.56695    511.4462    771.4851
      72.110   107.10810    521.1552    777.8254
      72.120   107.06145    537.2503    771.3356
      72.130   107.01480    553.3454    764.8459
      72.140   106.40170    537.1637    758.8405
      72.150   105.78860    520.9821    752.8350
      72.160   105.56795    517.3886    747.4992
      72.170   105.34730    513.7950    742.1633
      72.180   104.56351    520.6161    738.1936
      72.190   103.78048    527.4469    734.2266
      72.200   103.76169    543.9492    733.0304
      72.210   103.74290    560.4515    731.8341
      72.220   103.85665    558.6068    725.9344
      72.230   103.97040    556.7621    720.0347
      72.240   104.04560    542.4265    699.9002
      72.250   104.12080    528.0909    679.7658
      72.260   104.11405    539.8013    681.0143
      72.270   104.10730    551.5118    682.2629
      72.280   104.13345    556.6390    686.6599
      72.290   104.15960    561.7662    691.0569
      72.300   104.13000    561.5981    687.8792
      72.310   104.10040    561.4300    684.7015
