~VERSION INFORMATION SECTION
VERS.           2.0  :CWLS Log ASCII Standard - 2.0
WRAP.           NO   :One line per depth
#               Created in SeisLab
~WELL INFORMATION SECTION
#MNEM.UNIT  VALUE/NAME               :DESCRIPTION    
STRT.m  10                           :Start Depth    
STOP.m  124                          :Stop Depth     
STEP.m  0.01                         :Step           
NULL.    -999.25                     :Null Value     
WELL.    GDP1                        :Well Name      
CTRY.    Switzerland                 :Country        
CNTY.                                :County         
STAT.    Central Swiss Alps          :State          
API .                                :API number     
UWI .                                :Unique well ID 
LOC .    Grimsel pass, Switzerland   :Well Location  
FLD .    n/a                         :Field          
COMP.    n/a                         :Company        
SRVC.    University of Lausanne      :Service Company
DATE.    2015                        :Date           
~PARAMETER INFORMATION SECTION
#MNEM .UNITS    VALUE   :DESCRIPTION OF PARAMETER
Casing.n/a      0       :open hole               
Mud   .Polymer  1       :Mud type                
~CURVE INFORMATION SECTION
#MNEM.UNITS  API CODES   :DESCRIPTION OF MNEMONIC      
depth.m                  :measured depth (interpolated)
Cal  .mm                 :Caliper                      
NN   .cps                :Neutron-Neutron              
GG   .cps                :Gamma-Gamma                  
~A depth       Cal         NN          GG          
# ...
     108.400    99.43003    477.6008   1084.4920
     108.410    99.42970    474.0422   1093.5960
     108.420    99.42918    477.1721   1083.6915
     108.430    99.42867    480.3021   1073.7870
     108.440    99.42856    477.5200   1076.2395
     108.450    99.42846    474.7379   1078.6920
     108.460    99.42813    471.8917   1080.1415
     108.470    99.42780    469.0455   1081.5910
     108.480    99.42813    466.5402   1071.3845
     108.490    99.42846    464.0349   1061.1780
     108.500    99.42856    467.3159   1092.7175
     108.510    99.42867    470.5970   1124.2570
     108.520    99.42856    486.3499   1145.4215
     108.530    99.42846    502.1029   1166.5860
     108.540    99.42908    524.5014   1130.1940
     108.550    99.42970    546.9000   1093.8020
     108.560    99.42951    524.2302   1090.1505
     108.570    99.42931    501.5604   1086.4990
     108.580    99.42889    492.2646   1097.1240
     108.590    99.42846    482.9688   1107.7490
     108.600    99.42877    483.9937   1131.2465
     108.610    99.42908    485.0187   1154.7440
     108.620    99.42877    485.3375   1158.5800
     108.630    99.42846    485.6563   1162.4160
     108.640    99.42910    489.0622   1158.0730
     108.650    99.42973    492.4681   1153.7300
     108.660    99.42972    497.7432   1142.6325
     108.670    99.42970    503.0184   1131.5350
     108.680    99.42970    500.3787   1139.8185
     108.690    99.42970    497.7390   1148.1020
     108.700    99.42951    491.1323   1149.8285
     108.710    99.42931    484.5256   1151.5550
     108.720    99.42983    476.7208   1122.0740
     108.730    99.43035    468.9160   1092.5930
     108.740    99.42972    489.0651   1090.4945
     108.750    99.42908    509.2142   1088.3960
     108.760    99.42951    507.9405   1098.2955
     108.770    99.42993    506.6668   1108.1950
     108.780    99.43014    490.1722   1129.0120
     108.790    99.43035    473.6776   1149.8290
     108.800    99.43045    478.0070   1144.9740
     108.810    99.43056    482.3365   1140.1190
     108.820    99.43077    478.4779   1132.8925
     108.830    99.43097    474.6193   1125.6660
     108.840    99.43066    466.5168   1131.1265
     108.850    99.43035    458.4144   1136.5870
     108.860    99.43033    481.8991   1127.7035
     108.870    99.43032    505.3839   1118.8200
     108.880    99.43115    512.4307   1110.1035
     108.890    99.43198    519.4775   1101.3870
     108.900    99.43221    513.6087   1103.6565
     108.910    99.43245    507.7399   1105.9260
     108.920    99.43266    499.6653   1095.5335
     108.930    99.43286    491.5907   1085.1410
     108.940    99.43333    485.8438   1076.8010
     108.950    99.43381    480.0968   1068.4610
     108.960    99.43459    476.6321   1074.7135
     108.970    99.43537    473.1673   1080.9660
     108.980    99.43549    476.8100   1098.3170
     108.990    99.43561    480.4526   1115.6680
     109.000    99.43528    481.7418   1125.5375
     109.010    99.43496    483.0311   1135.4070
     109.020    99.43521    483.3685   1117.7365
     109.030    99.43546    483.7060   1100.0660
     109.040    99.43521    497.0950   1101.3315
     109.050    99.43496    510.4841   1102.5970
     109.060    99.43591    510.5635   1109.4025
     109.070    99.43685    510.6429   1116.2080
     109.080    99.43697    500.9441   1123.4215
     109.090    99.43709    491.2452   1130.6350
     109.100    99.43728    489.8161   1126.3230
     109.110    99.43747    488.3869   1122.0110
     109.120    99.43685    487.1141   1117.5275
     109.130    99.43623    485.8413   1113.0440
     109.140    99.43623    483.5425   1116.5760
     109.150    99.43623    481.2436   1120.1080
     109.160    99.43612    461.7538   1119.7890
     109.170    99.43600    442.2640   1119.4700
     109.180    99.43673    447.6535   1116.9430
     109.190    99.43747    453.0429   1114.4160
     109.200    99.43905    476.8882   1109.0075
     109.210    99.44064    500.7335   1103.5990
     109.220    99.44033    511.5055   1105.1800
     109.230    99.44001    522.2775   1106.7610
     109.240    99.43843    522.5966   1113.8510
     109.250    99.43685    522.9158   1120.9410
     109.260    99.43643    515.4677   1137.1350
     109.270    99.43600    508.0196   1153.3290
     109.280    99.43643    505.7615   1138.7705
     109.290    99.43685    503.5034   1124.2120
     109.300    99.43716    505.0424   1110.3040
     109.310    99.43747    506.5815   1096.3960
     109.320    99.43885    509.3956   1106.7360
     109.330    99.44022    512.2097   1117.0760
     109.340    99.43933    490.1599   1110.0880
     109.350    99.43845    468.1102   1103.1000
     109.360    99.43891    472.0457   1089.4540
     109.370    99.43936    475.9811   1075.8080
     109.380    99.44251    498.0890   1057.6590
     109.390    99.44566    520.1970   1039.5100
     109.400    99.45333    512.2396   1062.3150
     109.410    99.46100    504.2823   1085.1200
     109.420    99.46332    501.9891   1109.0935
     109.430    99.46564    499.6960   1133.0670
     109.440    99.47381    500.0888   1129.9285
     109.450    99.48199    500.4816   1126.7900
     109.460    99.49967    475.3605   1118.7730
     109.470    99.51736    450.2393   1110.7560
     109.480    99.54651    456.3727   1104.6950
     109.490    99.57565    462.5061   1098.6340
     109.500    99.59382    490.0660   1101.2040
     109.510    99.61198    517.6259   1103.7740
     109.520    99.60914    503.3299   1105.0870
     109.530    99.60630    489.0338   1106.4000
     109.540    99.60272    490.2537   1106.5900
     109.550    99.59915    491.4737   1106.7800
     109.560    99.60053    503.4670   1104.9915
     109.570    99.60190    515.4603   1103.2030
     109.580    99.72837    508.3587   1115.0215
     109.590    99.85485    501.2570   1126.8400
     109.600   100.09667    500.2318   1132.6100
     109.610   100.33850    499.2066   1138.3800
     109.620   100.29765    502.7626   1118.5175
     109.630   100.25680    506.3185   1098.6550
     109.640    99.85701    507.8276   1101.2385
     109.650    99.45721    509.3367   1103.8220
     109.660    99.45396    501.9098   1107.2915
     109.670    99.45071    494.4829   1110.7610
     109.680    99.45145    480.8493   1100.0140
     109.690    99.45219    467.2157   1089.2670
     109.700    99.45281    464.3919   1084.9515
     109.710    99.45343    461.5681   1080.6360
     109.720    99.45333    466.5309   1079.5675
     109.730    99.45322    471.4937   1078.4990
     109.740    99.45365    482.3183   1081.0995
     109.750    99.45408    493.1429   1083.7000
     109.760    99.46006    501.2560   1089.0460
     109.770    99.46603    509.3690   1094.3920
     109.780    99.48671    508.5314   1098.1660
     109.790    99.50738    507.6938   1101.9400
     109.800    99.51097    499.6688   1099.6230
     109.810    99.51456    491.6437   1097.3060
     109.820    99.51353    480.0706   1104.4615
     109.830    99.51249    468.4975   1111.6170
     109.840    99.51320    472.5557   1113.8655
     109.850    99.51391    476.6138   1116.1140
     109.860    99.51447    490.5600   1098.7025
     109.870    99.51503    504.5061   1081.2910
     109.880    99.51531    485.0173   1074.1410
     109.890    99.51559    465.5285   1066.9910
     109.900    99.54478    473.1286   1065.4615
     109.910    99.57397    480.7287   1063.9320
     109.920    99.78478    506.6941   1069.3900
     109.930    99.99560    532.6594   1074.8480
     109.940   101.08165    518.6236   1078.3340
     109.950   102.16770    504.5878   1081.8200
     109.960   101.71370    498.9594   1083.0865
     109.970   101.25970    493.3309   1084.3530
     109.980   100.39227    494.2442   1081.3220
     109.990    99.52484    495.1574   1078.2910
     110.000    99.53691    496.2228   1071.7395
     110.010    99.54899    497.2882   1065.1880
     110.020    99.56074    500.9385   1060.5070
     110.030    99.57249    504.5889   1055.8260
