~VERSION INFORMATION SECTION
VERS.           2.0  :CWLS Log ASCII Standard - 2.0
WRAP.           NO   :One line per depth
#               Created in SeisLab
~WELL INFORMATION SECTION
#MNEM.UNIT  VALUE/NAME               :DESCRIPTION    
STRT.m  11                           :Start Depth    
STOP.m  125                          :Stop Depth     
STEP.m  0.01                         :Step           
NULL.    -999.25                     :Null Value     
WELL.    GDP1                        :Well Name      
CTRY.    Switzerland                 :Country        
CNTY.                                :County         
STAT.                                :State          
API .                                :API number     
UWI .                                :Unique well ID 
LOC .    Grimsel pass, Switzerland   :Well Location  
FLD .    n/a                         :Field          
COMP.    n/a                         :Company        
SRVC.    University of Lausanne      :Service Company
DATE.    2016                        :Date           
~PARAMETER INFORMATION SECTION
#MNEM .UNITS  VALUE   :DESCRIPTION OF PARAMETER
Casing.n/a    0       :cased hole              
~CURVE INFORMATION SECTION
#MNEM     .UNITS  API CODES   :DESCRIPTION OF MNEMONIC      
depth     .m                  :measured depth (interpolated)
P_slowness.us/m               :FWS2016_25kHz_semblance      
S_slowness.us/m               :FWS2016_25kHz_semblance      
~A depth       P_slowness  S_slowness  
# ...
      67.420   251.07889   439.39505
      67.430   251.89641   440.59982
      67.440   252.71393   441.76156
      67.450   253.57449   442.92330
      67.460   254.43505   444.08503
      67.470   255.33864   445.37859
      67.480   256.24223   446.62913
      67.490   257.18884   447.87967
      67.500   258.13544   449.13021
      67.510   259.08205   450.39359
      67.520   260.02866   451.61393
      67.530   261.01830   452.83428
      67.540   262.00793   454.01159
      67.550   262.99757   455.18890
      67.560   263.98721   456.36621
      67.570   265.01989   457.50503
      67.580   266.00952   458.60082
      67.590   266.99916   459.68377
      67.600   267.98880   460.73603
      67.610   268.97844   461.76262
      67.620   269.92505   462.77638
      67.630   270.87166   463.76448
      67.640   271.77525   464.71408
      67.650   272.63580   465.63802
      67.660   273.39774   466.52346
      67.670   274.11664   467.37041
      67.680   274.79482   468.16602
      67.690   275.47300   468.92311
      67.700   276.03916   469.65456
      67.710   276.56231   470.37318
      67.720   277.06510   471.07897
      67.730   277.52485   471.73343
      67.740   277.96425   472.33656
      67.750   278.36061   472.88834
      67.760   278.74785   473.40164
      67.770   279.09208   473.88928
      67.780   279.39328   474.24859
      67.790   279.69448   474.56941
      67.800   279.91544   474.89023
      67.810   280.09338   475.19821
      67.820   280.27131   475.47192
      67.830   280.44925   475.70711
      67.840   280.53554   475.85610
      67.850   280.57880   475.99226
      67.860   280.58134   476.05370
      67.870   280.58389   476.07664
      67.880   280.54569   476.03059
      67.890   280.50749   475.94605
      67.900   280.46930   475.84426
      67.910   280.43110   475.69115
      67.920   280.39290   475.43046
      67.930   280.31169   475.14410
      67.940   280.21011   474.85774
      67.950   280.10854   474.55856
      67.960   280.02249   474.21634
      67.970   279.93644   473.82279
      67.980   279.80736   473.38620
      67.990   279.72130   472.89828
      68.000   279.63523   472.36734
      68.010   279.54916   471.75943
      68.020   279.42008   471.15151
      68.030   279.29100   470.50508
      68.040   279.16192   469.81562
      68.050   279.03284   469.03634
      68.060   278.86072   468.25707
      68.070   278.68861   467.42646
      68.080   278.47346   466.46403
      68.090   278.25831   465.46310
      68.100   278.00015   464.46216
      68.110   277.69897   463.42274
      68.120   277.39779   462.37048
      68.130   277.09661   461.27972
      68.140   276.75239   460.18897
      68.150   276.36515   459.08538
      68.160   275.97790   457.98179
      68.170   275.59066   456.89052
      68.180   275.16038   455.83775
      68.190   274.68707   454.78498
      68.200   274.21375   453.74505
      68.210   273.69743   452.70511
      68.220   273.18110   451.69085
      68.230   272.62174   450.71962
      68.240   272.06238   449.77405
      68.250   271.45998   448.87151
      68.260   270.90062   447.99464
      68.270   270.29825   447.16079
      68.280   269.73890   446.36543
      68.290   269.13652   445.61310
      68.300   268.53415   444.89928
      68.310   267.88874   444.18546
      68.320   267.28634   443.48446
      68.330   266.68395   442.82649
      68.340   266.12459   442.21985
      68.350   265.56302   441.65623
      68.360   265.04448   441.14395
      68.370   264.52593   440.67470
      68.380   264.05041   440.23111
      68.390   263.57489   439.83056
      68.400   263.09936   439.46849
      68.410   262.62384   439.10643
      68.420   262.19134   438.75720
      68.430   261.66721   438.40797
      68.440   261.14308   438.09725
      68.450   260.59859   437.78652
      68.460   260.09713   437.48862
      68.470   259.59567   437.19072
      68.480   259.09421   436.93133
      68.490   258.59275   436.67193
      68.500   258.09130   436.45103
      68.510   257.58984   436.23013
      68.520   257.08838   436.06056
      68.530   256.57205   435.89098
      68.540   256.09874   435.74708
      68.550   255.62543   435.56015
      68.560   255.15211   435.38603
      68.570   254.67880   435.16889
      68.580   254.20549   435.00308
      68.590   253.68915   434.79426
      68.600   253.12979   434.63677
      68.610   252.57043   434.43625
      68.620   252.01107   434.31270
      68.630   251.40869   434.10311
      68.640   250.80631   433.93203
      68.650   250.16090   433.71792
      68.660   249.51549   433.59362
      68.670   248.82705   433.38328
      68.680   248.13861   433.22426
      68.690   247.45016   433.02221
      68.700   246.76172   432.85867
      68.710   246.03026   432.69513
      68.720   245.34182   432.57008
      68.730   244.61034   432.40200
      68.740   243.87887   432.27241
      68.750   243.10436   432.09979
      68.760   242.37289   431.94000
      68.770   241.64141   431.73720
      68.780   240.90993   431.52207
      68.790   240.13544   431.30693
      68.800   239.40398   431.09180
      68.810   238.67252   430.83364
      68.820   237.98408   430.57548
      68.830   237.29564   430.31731
      68.840   236.65023   430.01611
      68.850   236.00482   429.71492
      68.860   235.40244   429.37069
      68.870   234.84308   429.06949
      68.880   234.32674   428.72528
      68.890   233.85343   428.38107
      68.900   233.42315   427.99382
      68.910   233.03590   427.60657
      68.920   232.69169   427.21933
      68.930   232.43352   426.87510
      68.940   232.17536   426.48784
      68.950   231.96023   426.14361
      68.960   231.74731   425.75636
      68.970   231.53439   425.41215
      68.980   231.32148   425.02490
      68.990   231.15157   424.72370
      69.000   230.98167   424.37948
      69.010   230.85480   424.12131
      69.020   230.72793   423.86315
      69.030   230.64410   423.64800
      69.040   230.65190   423.43285
      69.050   230.65970   423.26074
      69.060   230.68787   423.08862
      69.070   230.71603   422.95954
      69.080   230.74420   422.83046
      69.090   230.77236   422.74439
      69.100   230.80052   422.65833
      69.110   230.82869   422.57226
      69.120   230.85685   422.48620
      69.130   230.88502   422.44316
      69.140   230.92805   422.40013
      69.150   230.97108   422.31407
      69.160   231.01411   422.27103
      69.170   231.05715   422.22800
      69.180   231.10018   422.22800
      69.190   231.10018   422.14195
      69.200   231.14321   422.09892
      69.210   231.18625   422.01285
      69.220   231.22928   421.96982
      69.230   231.27231   421.84074
      69.240   231.35836   421.79770
      69.250   231.44441   421.71164
      69.260   231.57349   421.66861
      69.270   231.70257   421.58256
      69.280   231.87469   421.58256
      69.290   232.04680   421.53952
      69.300   232.21892   421.53952
      69.310   232.39103   421.49649
      69.320   232.60616   421.45346
      69.330   232.82130   421.41043
      69.340   233.07946   421.41043
      69.350   233.38066   421.41043
      69.360   233.72489   421.45346
      69.370   234.11213   421.49649
      69.380   234.49938   421.58254
      69.390   234.88662   421.71162
      69.400   235.31689   421.84070
      69.410   235.79018   422.01282
      69.420   236.26348   422.22797
      69.430   236.77980   422.48613
      69.440   237.29613   422.74430
      69.450   237.85549   423.00246
      69.460   238.41485   423.26062
      69.470   238.97421   423.60485
      69.480   239.49056   423.90605
      69.490   240.04992   424.29330
      69.500   240.56625   424.68054
      69.510   241.08257   425.15384
      69.520   241.55587   425.62713
      69.530   242.02916   426.14346
      69.540   242.41641   426.61677
      69.550   242.80366   427.17613
      69.560   243.14787   427.69246
      69.570   243.49208   428.25182
      69.580   243.83630   428.76815
