~VERSION INFORMATION SECTION
VERS.           2.0  :CWLS Log ASCII Standard - 2.0
WRAP.           NO   :One line per depth
#               Created in SeisLab
~WELL INFORMATION SECTION
#MNEM.UNIT  VALUE/NAME               :DESCRIPTION    
STRT.m  10                           :Start Depth    
STOP.m  125                          :Stop Depth     
STEP.m  0.01                         :Step           
NULL.    -999.25                     :Null Value     
WELL.    GDP1                        :Well Name      
CTRY.    Switzerland                 :Country        
CNTY.                                :County         
STAT.    Central Swiss Alps          :State          
API .                                :API number     
UWI .                                :Unique well ID 
LOC .    Grimsel Pass, Switzerland   :Well Location  
FLD .    n/a                         :Field          
COMP.    n/a                         :Company        
SRVC.    University of Lausanne      :Service Company
DATE.    2017                        :Date           
~PARAMETER INFORMATION SECTION
#MNEM .UNITS  VALUE   :DESCRIPTION OF PARAMETER
Casing.n/a    1       :slotted PVC casing      
~CURVE INFORMATION SECTION
#MNEM.UNITS  API CODES   :DESCRIPTION OF MNEMONIC
depth.m                  :measured depth         
NG   .cps                :Natural gamma          
Sp   .mV                 :Self potential         
Temp .DegC               :Temperature            
SPR  .Ohm                :Single point resistance
R8   .Ohm.m              :Normal resistivity     
R16  .Ohm.m              :Single point resistance
R32  .Ohm.m              :Normal resistivity     
R64  .Ohm.m              :Normal resistivity     
~A depth       NG          Sp          Temp        SPR         R8          R16         R32         R64         
# ...
     101.760   290.16199    899.6953     7.38184    -999.250    2900.760    2579.466    2232.368    1992.991
     101.770   289.62590    901.0845     7.39063    -999.250    2871.934    2602.859    2240.387    1997.294
     101.780   289.12959    902.4505     7.39941    -999.250    2846.804    2628.509    2248.406    2001.597
     101.790   288.68867    903.7872     7.39062    -999.250    2825.462    2656.216    2251.402    2005.900
     101.800   288.31424    905.0881     7.38184    -999.250    2807.968    2685.767    2254.397    2010.204
     101.810   288.01147    906.3461     7.37452    -999.250    2794.350    2716.937    2262.211    2014.507
     101.820   287.77871    907.5538     7.36719    -999.250    2784.606    2749.489    2270.025    2018.810
     101.830   287.60760    908.7040     7.36963    -999.250    2778.707    2783.182    2277.483    2023.113
     101.840   287.48437    909.7893     7.37207    -999.250    2776.601    2817.770    2284.941    2027.416
     101.850   287.39211    910.8030     7.36767    -999.250    2778.210    2853.006    2286.624    2031.719
     101.860   287.31313    911.7392     7.36328    -999.250    2783.440    2888.646    2288.308    2036.022
     101.870   287.23071    912.5930     7.37207    -999.250    2792.179    2924.448    2288.006    2040.325
     101.880   287.13006    913.3609     7.38086    -999.250    2804.300    2960.181    2287.704    2044.628
     101.890   286.99875    914.0410     7.38428    -999.250    2819.668    2995.619    2292.886    2048.931
     101.900   286.82681    914.6334     7.38770    -999.250    2838.137    3030.550    2298.068    2053.235
     101.910   286.60651    915.1405     7.39160    -999.250    2859.556    3064.776    2312.581    2057.538
     101.920   286.33195    915.5666     7.39551    -999.250    2883.773    3098.113    2327.095    2061.841
     101.930   285.99850    915.9183     7.37939    -999.250    2910.632    3130.394    2343.198    2066.144
     101.940   285.60256    916.2041     7.36328    -999.250    2513.916    3161.469    2359.302    2070.447
     101.950   285.14177    916.4340     7.37890    -999.250    2532.625    3191.207    2372.000    2074.750
     101.960   284.61597    916.6192     7.39453    -999.250    2551.333    3219.498    2384.698    2079.053
     101.970   284.02844    916.7712     7.37647    -999.250    2572.395    3246.250    2395.392    2083.356
     101.980   283.38684    916.9017     7.35840    -999.250    2593.456    3271.390    2406.085    2087.659
     101.990   282.70318    917.0217     7.36768    -999.250    2614.665    3294.865    2410.621    2091.962
     102.000   281.99293    917.1411     7.37695    -999.250    2635.873    2678.956    2415.157    2096.266
     102.010   281.27368    917.2686     7.37598    -999.250    2658.084    2679.850    2406.786    2100.569
     102.020   280.56376    917.4117     7.37500    -999.250    2680.295    2680.744    2398.414    2104.872
     102.030   279.88091    917.5769     7.38183    -999.250    2703.907    2682.884    2384.164    2109.175
     102.040   279.24109    917.7696     7.38867    -999.250    2727.519    2685.025    2369.914    2113.478
     102.050   278.65752    917.9952     7.38867    -999.250    2750.752    2683.353    2358.052    2117.781
     102.060   278.14029    918.2593     7.38867    -999.250    2773.985    2681.681    2346.190    2122.084
     102.070   277.69674    918.5684     7.37841    -999.250    2797.310    2679.289    2332.134    2126.387
     102.080   277.33239    918.9301     7.36816    -999.250    2820.636    2676.897    2318.077    2130.690
     102.090   277.05188    919.3527     7.37695    -999.250    2846.187    2677.633    2300.545    2134.993
     102.100   276.85965    919.8455     7.38574    -999.250    2871.738    2678.368    2283.013    2139.297
     102.110   276.76033    920.4176     7.40283    -999.250    2905.118    2688.264    2269.460    2143.600
     102.120   276.75908    921.0770     7.41992    -999.250    2938.498    2698.160    2255.906    2147.903
     102.130   276.86198    921.8303     7.40772    -999.250    2976.662    2713.780    2248.607    2152.206
     102.140   277.07634    922.6807     7.39551    -999.250    3014.826    2729.400    2241.308    2156.509
     102.150   277.41063    923.6281     7.39307    -999.250    3053.594    2748.407    2232.353    2160.812
     102.160   277.87407    924.6678     7.39063    -999.250    3092.361    2767.413    2223.397    2165.115
     102.170   278.47600    925.7908     7.39600    -999.250    3132.925    2788.927    2219.341    2169.418
     102.180   279.22481    926.9832     7.40137    -999.250    3173.488    2810.442    2215.285    2173.721
     102.190   280.12641    928.2270     7.41406    -999.250    3220.983    2828.237    2217.414    2178.024
     102.200   281.18273    929.5007     7.42676    -999.250    3268.478    2846.032    2219.542    2182.328
     102.210   282.39071    930.7806     7.41894    -999.250    3328.005    2854.477    2219.964    2186.631
     102.220   283.74195    932.0421     7.41113    -999.250    3387.533    2862.921    2220.386    2190.934
     102.230   285.22296    933.2616     7.39990    -999.250    3453.624    2863.614    2220.815    2195.237
     102.240   286.81557    934.4180     7.38867    -999.250    3519.715    2864.307    2221.245    2199.540
     102.250   288.49754    935.4943     7.38379    -999.250    3585.860    2863.529    2219.047    2203.843
     102.260   290.24326    936.4794     7.37891    -999.250    3652.005    2862.751    2216.849    2208.146
     102.270   292.02445    937.3690     7.40088    -999.250    3713.088    2858.300    2214.720    2212.449
     102.280   293.81085    938.1663     7.42285    -999.250    3774.172    2853.850    2212.591    2216.752
     102.290   295.57090    938.8825     7.41357    -999.250    3821.686    2848.590    2212.003    2221.055
     102.300   297.27236    939.5362     7.40430    -999.250    3869.200    2843.331    2211.415    2225.358
     102.310   298.88344    940.1527     7.40967    -999.250    3892.839    2845.866    2209.286    2229.662
     102.320   300.37427    940.7633     7.41504    -999.250    3916.478    2848.401    2207.158    2233.965
     102.330   301.71877    941.4031     7.41406    -999.250    3916.521    2860.534    2198.473    2238.268
     102.340   302.89640    942.1101     7.41309    -999.250    3916.563    2872.667    2189.788    2242.571
     102.350   303.89337    942.9228     7.41407    -999.250    3898.768    2886.340    2177.512    2246.874
     102.360   304.70324    943.8786     7.41504    -999.250    3880.973    2900.013    2165.236    2251.177
     102.370   305.32689    945.0116     7.40869    -999.250    3845.793    2917.534    2156.729    2264.572
     102.380   305.77203    946.3507     7.40234    -999.250    3810.613    2935.054    2148.222    2277.966
     102.390   306.05243    947.9182     7.40234    -999.250    3769.059    2958.325    2143.218    2269.216
     102.400   306.18695    949.7282     7.40234    -999.250    3727.505    2981.597    2138.214    2260.466
     102.410   306.19850    951.7860     7.39746    -999.250    3699.601    3004.946    2131.348    2251.765
     102.420   306.11283    954.0881     7.39258    -999.250    3671.697    3028.294    2124.483    2243.065
     102.430   305.95678    956.6220     7.40284    -999.250    3663.384    3051.039    2124.401    2221.477
     102.440   305.75611    959.3676     7.41309    -999.250    3655.071    3073.785    2124.320    2601.957
     102.450   305.53303    962.2975     7.41993    -999.250    3654.211    3096.135    2130.609    2529.392
     102.460   305.30420    965.3792     7.42676    -999.250    3653.352    3118.485    2136.898    2206.773
     102.470   305.07961    968.5763     7.41748    -999.250    3653.948    3142.058    2151.632    2201.872
     102.480   304.86257    971.8511     7.40820    -999.250    3654.544    3165.632    2166.366    2196.971
     102.490   304.65027    975.1661     7.39941    -999.250    3654.312    3188.659    2190.106    2192.070
