~VERSION INFORMATION SECTION
VERS.           2.0  :CWLS Log ASCII Standard - 2.0
WRAP.           NO   :One line per depth
#               Created in SeisLab
~WELL INFORMATION SECTION
#MNEM.UNIT  VALUE/NAME               :DESCRIPTION    
STRT.m  10                           :Start Depth    
STOP.m  125                          :Stop Depth     
STEP.m  0.01                         :Step           
NULL.    -999.25                     :Null Value     
WELL.    GDP1                        :Well Name      
CTRY.    Switzerland                 :Country        
CNTY.                                :County         
STAT.    Central Swiss Alps          :State          
API .                                :API number     
UWI .                                :Unique well ID 
LOC .    Grimsel Pass, Switzerland   :Well Location  
FLD .    n/a                         :Field          
COMP.    n/a                         :Company        
SRVC.    University of Lausanne      :Service Company
DATE.    2015                        :Date           
~PARAMETER INFORMATION SECTION
#MNEM .UNITS    VALUE   :DESCRIPTION OF PARAMETER
Casing.n/a      0       :open hole               
Mud   .Polymer  1       :Mud type                
~CURVE INFORMATION SECTION
#MNEM.UNITS  API CODES   :DESCRIPTION OF MNEMONIC
depth.m                  :measured depth         
NG   .cps                :Natural gamma          
Sp   .mV                 :Self potential         
Temp .DegC               :Temperature            
SPR  .Ohm                :Single point resistance
R8   .Ohm.m              :Normal resistivity     
R16  .Ohm.m              :Single point resistance
R32  .Ohm.m              :Normal resistivity     
R64  .Ohm.m              :Normal resistivity     
~A depth       NG          Sp          Temp        SPR         R8          R16         R32         R64         
# ...
      40.340   330.20597    561.6063    11.07620   40860.654   28909.662   20480.456    9862.847    8302.421
      40.350   329.52297    560.5241    11.06840   40568.067   28590.401   20266.395    9743.309    8327.427
      40.360   328.81722    559.5777    11.06155   40262.538   28258.348   20036.821    9614.421    8348.787
      40.370   328.08228    558.8195    11.05470   39945.009   27914.427   19792.359    9476.384    8366.638
      40.380   327.31132    558.2924    11.05565   39616.379   27559.520   19533.645    9329.449    8381.126
      40.390   326.49742    558.0276    11.05660   39277.496   27194.467   19261.329    9173.915    8392.397
      40.400   325.63383    558.0419    11.06930   38929.160   26820.066   18976.068    9010.129    8400.603
      40.410   324.71425    558.3372    11.08200   38572.114   26437.067   18678.530    8838.483    8405.891
      40.420   323.73303    558.9005    11.07615   38207.047   26046.174   18369.386    8659.415    8408.409
      40.430   322.68536    559.7052    11.07030   37834.589   25648.043   18049.315    8473.401    8408.301
      40.440   321.56733    560.7135    11.05955   37455.309   25243.285   17718.999    8280.958    8405.705
      40.450   320.37596    561.8787    11.04880   37069.720   24832.462   17379.123    8082.634    8400.753
      40.460   319.10917    563.1495    11.07325   36678.269   24416.094   17030.373    7879.013    8393.569
      40.470   317.76564    564.4724    11.09770   36281.350   23994.656   16673.438    7670.702    8384.268
      40.480   316.34464    565.7949    11.07035   35879.292   23568.581   16309.007    7458.336    8372.956
      40.490   314.84594    567.0676    11.04300   35472.372   23138.265   15937.770    7242.566    8359.730
      40.500   313.26984    568.2454    11.04395   35060.809   22704.068   15560.417    7024.061    8344.675
      40.510   311.61730    569.2892    11.04490   34644.772   22266.317   15177.635    6803.501    8327.868
      40.520   309.89015    570.1658    11.03515   34224.381   21825.309   14790.113    6581.572    8309.374
      40.530   308.09134    570.8495    11.02540   33799.710   21381.319   14398.537    6358.963    8289.249
      40.540   306.22511    571.3222    11.05080   33370.793   20934.597   14003.589    6136.361    8267.539
      40.550   304.29717    571.5749    11.07620   32937.626   20485.376   13605.952    5914.448    8244.281
      40.560   302.31480    571.6081    11.09570   32500.175   20033.877   13206.302    5693.895    8219.504
      40.570   300.28677    571.4319    11.11520   32058.379   19580.309   12805.315    5475.360    8193.230
      40.580   298.22332    571.0661    11.11520   31612.155   19124.875   12403.658    5259.482    8165.473
      40.590   296.13594    570.5390    11.11520   31161.404   18667.777   12001.997    5046.880    8136.242
      40.600   294.03715    569.8866    11.09470   30706.018   18209.218   11600.989    4838.146    8105.541
      40.610   291.94026    569.1502    11.07420   30245.883   17749.404   11201.284    4633.847    8073.372
      40.620   289.85910    568.3744    11.09665   29780.886   17288.549   10803.523    4434.515    8039.730
      40.630   287.80780    567.6045    11.11910   29310.920   16826.880   10408.339    4240.653    8004.613
      40.640   285.80055    566.8843    11.14450   28835.891   16364.634   10016.354    4052.725    7968.015
      40.650   283.85146    566.2536    11.16990   28355.718   15902.064    9628.175    3871.157    7929.932
      40.660   281.97431    565.7465    11.15720   27870.344   15439.443    9244.399    3696.336    7890.360
      40.670   280.18241    565.3900    11.14450   27379.738   14977.058    8865.606    3528.610    7849.296
      40.680   278.48833    565.2037    11.12110   26883.896   14515.219    8492.359    3368.281    7806.741
      40.690   276.90368    565.1990    11.09770   26382.849   14054.257    8125.204    3215.611    7762.697
      40.700   275.43873    565.3800    11.10355   25876.665   13594.522    7764.666    3070.816    7717.173
      40.710   274.10218    565.7438    11.10940   25365.450   13136.387    7411.251    2934.072    7670.177
      40.720   272.90092    566.2804    11.11720   24849.352   12680.246    7065.439    2805.508    7621.725
      40.730   271.83997    566.9732    11.12500   24328.563   12226.510    6727.687    2685.211    7571.835
      40.740   270.92252    567.7988    11.11815   23803.319   11775.614    6398.426    2573.229    7520.531
      40.750   270.15006    568.7272    11.11130   23273.900   11328.006    6078.060    2469.564    7467.840
      40.760   269.52261    569.7221    11.13575   22740.632   10884.152    5766.963    2374.182    7413.793
      40.770   269.03897    570.7426    11.16020   22203.889   10444.534    5465.481    2287.010    7358.425
      40.780   268.69710    571.7453    11.14750   21664.084   10009.642    5173.926    2207.935    7301.777
      40.790   268.49439    572.6869    11.13480   21121.678    9579.977    4892.579    2136.815    7243.890
      40.800   268.42799    573.5269    11.12695   20577.169    9156.049    4621.688    2073.471    7184.810
      40.810   268.49491    574.2309    11.11910   20031.098    8738.368    4361.467    2017.696    7124.584
      40.820   268.69211    574.7725    11.12500   19484.040    8327.446    4112.094    1969.255    7063.261
      40.830   269.01650    575.1349    11.13090   18936.606    7923.795    3873.714    1927.887    7000.893
      40.840   269.46486    575.3124    11.12600   18389.435    7527.919    3646.433    1893.308    6937.530
      40.850   270.03372    575.3097    11.12110   17843.195    7140.313    3430.324    1865.215    6873.225
      40.860   270.71928    575.1414    11.13085   17298.578    6761.462    3225.425    1843.288    6808.029
      40.870   271.51742    574.8304    11.14060   16756.294    6391.834    3031.734    1827.190    6741.993
      40.880   272.42370    574.4049    11.13475   16217.070    6031.881    2849.219    1816.574    6675.165
      40.890   273.43331    573.8964    11.12890   15681.643    5682.032    2677.811    1811.084    6607.594
      40.900   274.54106    573.3358    11.10740   15150.757    5342.691    2517.407    1810.357    6539.325
      40.910   275.74140    572.7510    11.08590   14625.161    5014.237    2367.872    1814.024    6470.402
      40.920   277.02845    572.1648    11.11425   14105.600    4697.018    2229.039    1821.717    6400.865
      40.930   278.39611    571.5938    11.14260   13592.812    4391.350    2100.709    1833.067    6330.754
      40.940   279.83825    571.0482    11.12210   13087.529    4097.515    1982.656    1847.710    6260.103
      40.950   281.34885    570.5323    11.10160   12590.464    3815.759    1874.626    1865.284    6188.945
      40.960   282.92209    570.0457    11.08890   12102.313    3546.288    1776.339    1885.437    6117.312
      40.970   284.55241    569.5840    11.07620   11623.751    3289.272    1687.490    1907.824    6045.230
      40.980   286.23442    569.1396    11.10645   11155.425    3044.838    1607.753    1932.112    5972.727
      40.990   287.96294    568.7021    11.13670   10697.952    2813.072    1536.782    1957.980    5899.826
      41.000   289.73279    568.2585    11.12305   10251.917    2594.019    1474.213    1985.119    5826.552
      41.010   291.53874    567.7930    11.10940    9817.868    2387.681    1419.667    2013.237    5752.925
      41.020   293.37528    567.2867    11.12305    9396.313    2194.018    1372.750    2042.057    5678.969
      41.030   295.23642    566.7180    11.13670    8987.719    2012.949    1333.059    2071.316    5604.705
      41.040   297.11560    566.0630    11.12205    8592.510    1844.352    1300.181    2100.773    5530.157
      41.050   299.00558    565.2978    11.10740    8211.062    1688.064    1273.695    2130.201    5455.349
      41.060   300.89859    564.4000    11.09080    7843.704    1543.884    1253.179    2159.392    5380.307
      41.070   302.78649    563.3518    11.07420    7490.716    1411.574    1238.207    2188.157    5305.060
