~VERSION INFORMATION SECTION
VERS.           2.0  :CWLS Log ASCII Standard - 2.0
WRAP.           NO   :One line per depth
#               Created in SeisLab
~WELL INFORMATION SECTION
#MNEM.UNIT  VALUE/NAME               :DESCRIPTION    
STRT.m  10                           :Start Depth    
STOP.m  125                          :Stop Depth     
STEP.m  0.01                         :Step           
NULL.    -999.25                     :Null Value     
WELL.    GDP1                        :Well Name      
CTRY.    Switzerland                 :Country        
CNTY.                                :County         
STAT.    Central Swiss Alps          :State          
API .                                :API number     
UWI .                                :Unique well ID 
LOC .    Grimsel Pass, Switzerland   :Well Location  
FLD .    n/a                         :Field          
COMP.    n/a                         :Company        
SRVC.    University of Lausanne      :Service Company
DATE.    2016                        :Date           
~PARAMETER INFORMATION SECTION
#MNEM .UNITS  VALUE   :DESCRIPTION OF PARAMETER
Casing.n/a    1       :slotted PVC casing      
~CURVE INFORMATION SECTION
#MNEM.UNITS  API CODES   :DESCRIPTION OF MNEMONIC
depth.m                  :measured depth         
NG   .cps                :Natural gamma          
Sp   .mV                 :Self potential         
Temp .DegC               :Temperature            
SPR  .Ohm                :Single point resistance
R8   .Ohm.m              :Normal resistivity     
R16  .Ohm.m              :Single point resistance
R32  .Ohm.m              :Normal resistivity     
R64  .Ohm.m              :Normal resistivity     
~A depth       NG          Sp          Temp        SPR         R8          R16         R32         R64         
# ...
      70.680   206.63354   1220.0820     6.82813    4648.920    1107.422    1187.159    1147.542    1375.377
      70.690   203.89078   1220.8569     6.83855    4649.023    1109.347    1184.281    1146.549    1380.483
      70.700   201.38017   1222.0242     6.84896    4649.127    1111.271    1180.904    1145.778    1385.586
      70.710   199.14007   1223.5991     6.85938    4649.230    1113.196    1177.039    1145.241    1390.689
      70.720   197.20053   1225.5937     6.86198    4655.453    1102.104    1172.702    1144.946    1395.793
      70.730   195.58259   1228.0147     6.86459    4661.677    1091.012    1167.909    1144.903    1400.903
      70.740   194.29834   1230.8623     6.86719    4667.900    1079.920    1162.679    1145.119    1406.020
      70.750   193.35120   1234.1284     6.85319    4678.830    1058.988    1157.032    1145.602    1411.148
      70.760   192.73644   1237.7952     6.83920    4689.760    1038.055    1150.991    1146.358    1416.288
      70.770   192.44154   1241.8346     6.82520    4700.690    1017.123    1144.577    1147.392    1421.443
      70.780   192.44671   1246.2083     6.83920    4701.980    1000.600    1137.815    1148.708    1426.614
      70.790   192.72568   1250.8679     6.85319    4703.270     984.077    1130.730    1150.308    1431.801
      70.800   193.24688   1255.7571     6.86719    4704.560     967.553    1123.350    1152.195    1437.003
      70.810   193.97494   1260.8139     6.87646    4717.465     952.166    1115.701    1154.370    1442.218
      70.820   194.87221   1265.9736     6.88574    4730.370     936.778    1107.812    1156.830    1447.443
      70.830   195.90021   1271.1718     6.87956    4748.573     946.433    1099.712    1159.575    1452.673
      70.840   197.02100   1276.3475     6.87337    4766.775     956.087    1091.430    1162.600    1457.902
      70.850   198.19841   1281.4449     6.86719    4784.978     965.742    1082.996    1165.901    1463.123
      70.860   199.39940   1286.4149     6.85938    4803.181     980.555    1074.441    1169.471    1468.327
      70.870   200.59510   1291.2156     6.85156    4821.384     995.367    1065.795    1173.303    1473.502
      70.880   201.76176   1295.8122     6.84375    4839.586    1010.180    1057.090    1177.388    1478.638
      70.890   202.88112   1300.1764     6.85677    4857.789    1035.999    1048.355    1181.714    1483.719
      70.900   203.94036   1304.2853     6.86979    4875.992    1061.818    1039.623    1186.270    1488.732
      70.910   204.93153   1308.1201     6.88281    4894.194    1087.637    1030.922    1191.041    1493.660
      70.920   205.85067   1311.6649     6.87695    4912.397    1089.580    1022.284    1196.014    1498.485
      70.930   206.69692   1314.9055     6.87110    4930.600    1091.523    1013.739    1201.171    1503.189
      70.940   207.47177   1317.8284     6.86524    4948.802    1093.466    1005.315    1206.494    1507.753
      70.950   208.17853   1320.4201     6.85938    5001.540    1095.409     997.041    1211.965    1512.156
      70.960   208.82203   1322.6671     6.86426    5071.063    1076.120     988.944    1217.563    1516.379
      70.970   209.40828   1324.5560     6.86914    5140.587    1056.831     981.052    1223.266    1520.400
      70.980   209.94423   1326.0746     6.87402    5210.110    1037.542     973.389    1229.052    1524.198
      70.990   210.43745   1327.2132     6.86914    5342.040    1035.107     965.980    1234.898    1527.754
      71.000   210.89578   1327.9662     6.86426    5473.970    1032.673     958.849    1240.778    1531.047
      71.010   211.32707   1328.3337     6.86841    5580.505    1044.433     952.015    1246.668    1534.059
      71.020   211.73901   1328.3224     6.87256    5687.040    1056.192     945.500    1252.541    1536.770
      71.030   212.13926   1327.9464     6.87671    5793.575    1067.952     939.320    1258.370    1539.164
      71.040   212.53561   1327.2272     6.88086    5900.110    1079.711     933.494    1264.130    1541.225
      71.050   212.93625   1326.1925     6.87826    6023.823    1085.816     928.034    1269.792    1542.941
      71.060   213.34986   1324.8757     6.87565    6147.537    1091.920     922.953    1275.329    1544.299
      71.070   213.78545   1323.3139     6.87305    6271.250    1098.025     918.261    1280.713    1545.290
      71.080   214.25195   1321.5462     6.86947    6299.063    1075.188     913.966    1285.917    1545.907
      71.090   214.75758   1319.6126     6.86588    6326.877    1052.352     910.075    1290.914    1546.145
      71.100   215.30910   1317.5518     6.86230    6354.690    1029.515     906.590    1295.678    1546.003
      71.110   215.91135   1315.4007     6.85905    6364.997     991.610     903.512    1300.180    1545.481
      71.120   216.56717   1313.1930     6.85579    6375.303     953.706     900.842    1304.397    1544.583
      71.130   217.27798   1310.9589     6.85254    6385.610     915.801     898.575    1308.303    1543.315
      71.140   218.04450   1308.7244     6.85938    6355.127     915.056     896.705    1311.875    1541.686
      71.150   218.86755   1306.5115     6.86621    6324.643     914.310     895.226    1315.088    1539.709
      71.160   219.74832   1304.3375     6.87305    6294.160     913.564     894.125    1317.922    1537.397
      71.170   220.68828   1302.2161     6.88623    6184.285     869.320     893.392    1320.357    1534.767
      71.180   221.68872   1300.1567     6.89941    6074.410     825.077     893.012    1322.372    1531.840
      71.190   222.75028   1298.1654     6.89258    5900.603     837.559     892.968    1323.950    1528.636
      71.200   223.87263   1296.2450     6.88574    5726.797     850.042     893.242    1325.076    1525.180
      71.210   225.05430   1294.3957     6.87891    5552.990     862.524     893.814    1325.734    1521.498
      71.220   226.29254   1292.6154     6.88021    5358.757     847.748     894.662    1325.911    1517.617
      71.230   227.58295   1290.9002     6.88151    5164.523     832.972     895.764    1325.597    1513.565
      71.240   228.91878   1289.2447     6.88281    4970.290     818.195     897.095    1324.783    1509.375
      71.250   230.29022   1287.6426     6.88444    4849.867     794.855     898.628    1323.459    1505.076
      71.260   231.68420   1286.0870     6.88607    4729.443     771.514     900.338    1321.622    1500.702
      71.270   233.08497   1284.5707     6.88770    4609.020     748.173     902.198    1319.266    1496.285
      71.280   234.47542   1283.0864     6.88770    4520.665     776.045     904.178    1316.391    1491.860
      71.290   235.83880   1281.6272     6.88770    4432.310     803.917     906.250    1312.996    1487.460
      71.300   237.16061   1280.1865     6.88770    4343.955     831.789     908.387    1309.083    1483.120
      71.310   238.43000   1278.7581     6.88770    4255.600     859.660     910.558    1304.655    1478.874
      71.320   239.64060   1277.3368     6.88216    4213.413     859.070     912.735    1299.718    1474.757
      71.330   240.79044   1275.9176     6.87663    4171.227     858.479     914.890    1294.280    1470.801
      71.340   241.88102   1274.4967     6.87109    4129.040     857.888     916.994    1288.350    1467.041
      71.350   242.91595   1273.0709     6.86914    4082.905     869.607     919.022    1281.937    1463.510
      71.360   243.89960   1271.6374     6.86719    4036.770     881.326     920.946    1275.056    1460.239
      71.370   244.83599   1270.1945     6.87240    4030.100     859.699     922.741    1267.720    1457.261
      71.380   245.72780   1268.7408     6.87760    4023.430     838.073     924.384    1259.944    1454.605
      71.390   246.57527   1267.2756     6.88281    4016.760     816.446     925.851    1251.747    1452.300
      71.400   247.37502   1265.7987     6.88525    4059.380     801.153     927.122    1243.146    1450.376
      71.410   248.11925   1264.3100     6.88770    4102.000     785.859     928.177    1234.163    1448.859
