~VERSION INFORMATION SECTION
VERS.           2.0  :CWLS Log ASCII Standard - 2.0
WRAP.           NO   :One line per depth
#               Created in SeisLab
~WELL INFORMATION SECTION
#MNEM.UNIT  VALUE/NAME               :DESCRIPTION    
STRT.m  10                           :Start Depth    
STOP.m  124                          :Stop Depth     
STEP.m  0.01                         :Step           
NULL.    -999.25                     :Null Value     
WELL.    GDP1                        :Well Name      
CTRY.    Switzerland                 :Country        
CNTY.                                :County         
STAT.    Central Swiss Alps          :State          
API .                                :API number     
UWI .                                :Unique well ID 
LOC .    Grimsel pass, Switzerland   :Well Location  
FLD .    n/a                         :Field          
COMP.    n/a                         :Company        
SRVC.    University of Lausanne      :Service Company
DATE.    2015/2016                   :Date           
~PARAMETER INFORMATION SECTION
#MNEM .UNITS  VALUE   :DESCRIPTION OF PARAMETER
Casing.n/a    0       :open hole/cased hole    
~CURVE INFORMATION SECTION
#MNEM       .UNITS  API CODES   :DESCRIPTION OF MNEMONIC      
depth       .m                  :measured depth (interpolated)
BHR velocity.m/ns               :BHR velocity 2015            
BHR velocity.m/ns               :BHR velocity 2016            
~A depth       BHR_velocity BHR_velocity
# ...
     118.500     0.11399     0.11475
     118.510     0.11399     0.11475
     118.520     0.11396     0.11471
     118.530     0.11393     0.11467
     118.540     0.11390     0.11463
     118.550     0.11388     0.11459
     118.560     0.11388     0.11455
     118.570     0.11388     0.11457
     118.580     0.11386     0.11459
     118.590     0.11384     0.11461
     118.600     0.11383     0.11463
     118.610     0.11381     0.11465
     118.620     0.11383     0.11459
     118.630     0.11384     0.11453
     118.640     0.11380     0.11447
     118.650     0.11377     0.11442
     118.660     0.11376     0.11436
     118.670     0.11375     0.11432
     118.680     0.11371     0.11428
     118.690     0.11368     0.11424
     118.700     0.11365     0.11420
     118.710     0.11361     0.11416
     118.720     0.11360     0.11414
     118.730     0.11359     0.11412
     118.740     0.11360     0.11411
     118.750     0.11361     0.11409
     118.760     0.11359     0.11407
     118.770     0.11357     0.11405
     118.780     0.11359     0.11403
     118.790     0.11361     0.11401
     118.800     0.11364     0.11399
     118.810     0.11366     0.11397
     118.820     0.11367     0.11391
     118.830     0.11368     0.11385
     118.840     0.11369     0.11380
     118.850     0.11370     0.11374
     118.860     0.11371     0.11368
     118.870     0.11373     0.11372
     118.880     0.11373     0.11376
     118.890     0.11373     0.11380
     118.900     0.11373     0.11383
     118.910     0.11373     0.11387
     118.920     0.11370     0.11387
     118.930     0.11368     0.11387
     118.940     0.11369     0.11387
     118.950     0.11370     0.11387
     118.960     0.11370     0.11387
     118.970     0.11370     0.11397
     118.980     0.11371     0.11407
     118.990     0.11373     0.11416
     119.000     0.11375     0.11426
     119.010     0.11377     0.11436
     119.020     0.11378     0.11430
     119.030     0.11379     0.11424
     119.040     0.11380     0.11418
     119.050     0.11381     0.11412
     119.060     0.11384     0.11407
     119.070     0.11386     0.11405
     119.080     0.11387     0.11403
     119.090     0.11388     0.11401
     119.100     0.11386     0.11399
     119.110     0.11384     0.11397
     119.120     0.11386     0.11397
     119.130     0.11388     0.11397
     119.140     0.11387     0.11397
     119.150     0.11386     0.11397
     119.160     0.11388     0.11397
     119.170     0.11390     0.11395
     119.180     0.11389     0.11393
     119.190     0.11388     0.11391
     119.200     0.11389     0.11389
     119.210     0.11390     0.11387
     119.220     0.11389     0.11383
     119.230     0.11388     0.11380
     119.240     0.11387     0.11376
     119.250     0.11386     0.11372
     119.260     0.11383     0.11368
     119.270     0.11379     0.11368
     119.280     0.11378     0.11368
     119.290     0.11377     0.11368
     119.300     0.11374     0.11368
     119.310     0.11370     0.11368
     119.320     0.11366     0.11341
     119.330     0.11361     0.11314
     119.340     0.11359     0.11288
     119.350     0.11357     0.11261
     119.360     0.11350     0.11235
     119.370     0.11344     0.11220
     119.380     0.11337     0.11205
     119.390     0.11330     0.11190
     119.400     0.11325     0.11175
     119.410     0.11319     0.11160
     119.420     0.11314     0.11151
     119.430     0.11308     0.11142
     119.440     0.11302     0.11132
     119.450     0.11295     0.11123
     119.460     0.11293     0.11114
     119.470     0.11291     0.11101
     119.480     0.11285     0.11088
     119.490     0.11280     0.11076
     119.500     0.11274     0.11063
     119.510     0.11269     0.11050
     119.520     0.11263     0.11057
     119.530     0.11258     0.11065
     119.540     0.11251     0.11072
     119.550     0.11245     0.11079
     119.560     0.11236     0.11086
     119.570     0.11228     0.11090
     119.580     0.11221     0.11094
     119.590     0.11215     0.11097
     119.600     0.11209     0.11101
     119.610     0.11204     0.11105
     119.620     0.11196     0.11107
     119.630     0.11189     0.11109
     119.640     0.11182     0.11110
     119.650     0.11176     0.11112
     119.660     0.11170     0.11114
     119.670     0.11165     0.11112
     119.680     0.11161     0.11110
     119.690     0.11156     0.11109
     119.700     0.11150     0.11107
     119.710     0.11144     0.11105
     119.720     0.11141     0.11107
     119.730     0.11139     0.11109
     119.740     0.11136     0.11110
     119.750     0.11133     0.11112
     119.760     0.11129     0.11114
     119.770     0.11124     0.11114
     119.780     0.11121     0.11114
     119.790     0.11118     0.11114
     119.800     0.11118     0.11114
     119.810     0.11118     0.11114
     119.820     0.11115     0.11123
     119.830     0.11112     0.11132
     119.840     0.11111     0.11142
     119.850     0.11109     0.11151
     119.860     0.11109     0.11160
     119.870     0.11109     0.11160
     119.880     0.11108     0.11160
     119.890     0.11107     0.11160
     119.900     0.11105     0.11160
     119.910     0.11103     0.11160
     119.920     0.11105     0.11166
     119.930     0.11107     0.11171
     119.940     0.11107     0.11177
     119.950     0.11107     0.11183
     119.960     0.11111     0.11188
     119.970     0.11114     0.11186
     119.980     0.11115     0.11184
     119.990     0.11116     0.11183
     120.000     0.11118     0.11181
     120.010     0.11120     0.11179
     120.020     0.11121     0.11181
     120.030     0.11122     0.11183
     120.040     0.11123     0.11184
     120.050     0.11124     0.11186
     120.060     0.11124     0.11188
     120.070     0.11124     0.11188
     120.080     0.11127     0.11188
     120.090     0.11129     0.11188
     120.100     0.11130     0.11188
     120.110     0.11131     0.11188
     120.120     0.11130     0.11190
     120.130     0.11129     0.11192
     120.140     0.11128     0.11194
     120.150     0.11127     0.11196
     120.160     0.11127     0.11197
     120.170     0.11127     0.11194
     120.180     0.11123     0.11190
     120.190     0.11120     0.11186
     120.200     0.11119     0.11183
     120.210     0.11118     0.11179
     120.220     0.11117     0.11192
     120.230     0.11116     0.11205
     120.240     0.11115     0.11218
     120.250     0.11114     0.11231
     120.260     0.11112     0.11244
     120.270     0.11109     0.11241
     120.280     0.11109     0.11237
     120.290     0.11109     0.11233
     120.300     0.11107     0.11229
     120.310     0.11105     0.11226
     120.320     0.11103     0.11224
     120.330     0.11101     0.11222
     120.340     0.11099     0.11220
     120.350     0.11097     0.11218
     120.360     0.11096     0.11216
     120.370     0.11095     0.11218
     120.380     0.11095     0.11220
     120.390     0.11095     0.11222
     120.400     0.11095     0.11224
     120.410     0.11095     0.11226
     120.420     0.11094     0.11224
     120.430     0.11093     0.11222
     120.440     0.11095     0.11220
     120.450     0.11097     0.11218
     120.460     0.11099     0.11216
     120.470  -999.25000  -999.25000
     120.480  -999.25000  -999.25000
     120.490  -999.25000  -999.25000
     120.500  -999.25000  -999.25000
     120.510  -999.25000  -999.25000
     120.520  -999.25000  -999.25000
     120.530  -999.25000  -999.25000
     120.540  -999.25000  -999.25000
     120.550  -999.25000  -999.25000
     120.560  -999.25000  -999.25000
     120.570  -999.25000  -999.25000
     120.580  -999.25000  -999.25000
     120.590  -999.25000  -999.25000
     120.600  -999.25000  -999.25000
     120.610  -999.25000  -999.25000
     120.620  -999.25000  -999.25000
     120.630  -999.25000  -999.25000
     120.640  -999.25000  -999.25000
     120.650  -999.25000  -999.25000
     120.660  -999.25000  -999.25000
