~VERSION INFORMATION SECTION
VERS.           2.0  :CWLS Log ASCII Standard - 2.0
WRAP.           NO   :One line per depth
#               Created in SeisLab
~WELL INFORMATION SECTION
#MNEM.UNIT  VALUE/NAME               :DESCRIPTION    
STRT.m  10                           :Start Depth    
STOP.m  125                          :Stop Depth     
STEP.m  0.01                         :Step           
NULL.    -999.25                     :Null Value     
WELL.    GDP1                        :Well Name      
CTRY.    Switzerland                 :Country        
CNTY.                                :County         
STAT.    Central Swiss Alps          :State          
API .                                :API number     
UWI .                                :Unique well ID 
LOC .    Grimsel Pass, Switzerland   :Well Location  
FLD .    n/a                         :Field          
COMP.    n/a                         :Company        
SRVC.    University of Lausanne      :Service Company
DATE.    2017                        :Date           
~PARAMETER INFORMATION SECTION
#MNEM .UNITS  VALUE   :DESCRIPTION OF PARAMETER
Casing.n/a    1       :slotted PVC casing      
~CURVE INFORMATION SECTION
#MNEM.UNITS  API CODES   :DESCRIPTION OF MNEMONIC
depth.m                  :measured depth         
NG   .cps                :Natural gamma          
Sp   .mV                 :Self potential         
Temp .DegC               :Temperature            
SPR  .Ohm                :Single point resistance
R8   .Ohm.m              :Normal resistivity     
R16  .Ohm.m              :Single point resistance
R32  .Ohm.m              :Normal resistivity     
R64  .Ohm.m              :Normal resistivity     
~A depth       NG          Sp          Temp        SPR         R8          R16         R32         R64         
# ...
      72.900   248.90644   1326.7987     6.57910    3813.080     538.351     787.217    1077.281    1448.519
      72.910   248.59387   1326.9090     6.58105    3811.115     535.113     787.987    1086.651    1446.795
      72.920   248.15179   1327.0356     6.58301    3809.150     531.875     788.759    1096.020    1445.072
      72.930   247.58404   1327.1586     6.59131    3798.475     529.601     789.520    1095.896    1443.349
      72.940   246.90068   1327.2547     6.59961    3787.800     527.327     790.260    1095.773    1441.625
      72.950   246.11818   1327.2982     6.59229    3779.570     525.699     790.966    1100.874    1439.902
      72.960   245.25922   1327.2618     6.58496    3771.340     524.071     791.626    1105.974    1438.179
      72.970   244.35222   1327.1176     6.58642    3768.175     522.123     792.230    1105.359    1436.455
      72.980   243.43048   1326.8380     6.58789    3765.010     520.175     792.769    1104.744    1434.732
      72.990   242.53100   1326.3967     6.59229    3759.840     518.603     793.234    1106.203    1433.008
      73.000   241.69297   1325.7701     6.59668    3754.670     517.031     793.617    1107.662    1431.285
      73.010   240.95607   1324.9383     6.58643    3742.635     517.348     793.913    1106.160    1429.562
      73.020   240.35846   1323.8861     6.57617    3730.600     517.665     794.114    1104.659    1427.838
      73.030   239.93471   1322.6040     6.58886    3716.215     518.538     794.219    1104.473    1426.115
      73.040   239.71365   1321.0887     6.60156    3701.830     519.411     794.223    1101.920    1424.392
      73.050   239.71649   1319.3427     6.59130    3689.770     519.963     794.124    1099.368    1422.668
      73.060   239.95539   1317.3747     6.58105    3677.710     520.516     793.923    1096.815    1420.945
      73.070   240.43279   1315.1978     6.58300    3670.440     522.843     793.618    1094.263    1419.222
      73.080   241.14147   1312.8297     6.58496    3663.170     525.170     787.378    1083.472    1417.498
      73.090   242.06538   1310.2913     6.57959    3661.180     528.009     794.336    1072.681    1415.775
      73.100   243.18085   1307.6066     6.57422    3659.190     530.848     801.295    1033.205    1414.051
      73.110   244.45822   1304.8019     6.58106    3663.110     535.109     805.788     993.730    1412.328
      73.120   245.86375   1301.9056     6.58789    3667.030     539.370     810.282     990.929    1410.605
      73.130   247.36146   1298.9480     6.58008    3673.415     542.007     809.000     988.128    1408.881
      73.140   248.91491   1295.9607     6.57227    3679.800     544.645     807.719    1028.310    1407.158
      73.150   250.48882   1292.9765     6.59180    3681.200     549.452     810.070    1068.493    1405.435
      73.160   252.05026   1290.0287     6.61133    3682.600     554.259     812.421    1068.413    1403.711
      73.170   253.56960   1287.1513     6.59522    3680.270     559.076     812.406    1068.333    1401.988
      73.180   255.02125   1284.3777     6.57910    3677.940     563.893     812.390    1053.737    1400.265
      73.190   256.38419   1281.7406     6.58593    3673.845     568.697     814.058    1039.141    1398.541
      73.200   257.64224   1279.2711     6.59277    3669.750     573.500     815.726    1052.726    1396.818
      73.210   258.78399   1276.9978     6.59522    3664.805     576.197     815.684    1066.311    1395.095
      73.220   259.80282   1274.9458     6.59766    3659.860     578.895     815.641    1048.225    1393.371
      73.230   260.69704   1273.1364     6.58594    3654.285     577.832     815.436    1030.139    1391.648
      73.240   261.47016   1271.5857     6.57422    3648.710     576.769     815.231     984.289    1389.924
      73.250   262.13115   1270.3046     6.57422    3649.370     577.080     812.709     938.438    1388.201
      73.260   262.69425   1269.2984     6.57422    3650.030     577.390     810.187     930.186    1386.478
      73.270   263.17819   1268.5669     6.58887    3654.475     575.458     809.170     921.934    1352.107
      73.280   263.60460   1268.1044     6.60352    3658.920     573.525     808.153     944.646    1349.711
      73.290   263.99592   1267.9002     6.59814    3666.800     571.883     776.132     967.357    1347.316
      73.300   264.37300   1267.9385     6.59277    3674.680     570.240     774.787     997.989    1371.826
      73.310   264.75318   1268.1992     6.59229    3683.825     567.504     773.433    1028.621    1396.336
      73.320   265.14877   1268.6578     6.59180    3692.970     564.769     772.075    1067.049    1376.138
      73.330   265.56611   1269.2865     6.58984    3700.015     562.385     770.720    1105.477    1374.414
      73.340   266.00532   1270.0537     6.58789    3707.060     560.001     769.374    1095.531    1376.361
      73.350   266.46061   1270.9257     6.59228    3716.405     556.965     768.043    1085.584    1376.616
      73.360   266.92137   1271.8668     6.59668    3725.750     553.929     766.736    1040.643    1376.872
      73.370   267.37350   1272.8412     6.60059    3734.715     552.549     765.459     995.701    1372.676
      73.380   267.80059   1273.8136     6.60449    3743.680     542.163     764.220     979.158    1368.481
      73.390   268.18470   1274.7510     6.59863    3750.625     541.805     763.028     962.615    1367.560
      73.400   268.50689   1275.6237     6.59277    3757.570     541.491     761.889     961.096    1366.639
      73.410   268.74785   1276.4058     6.59033    3757.255     541.219     760.813     959.577    1368.342
      73.420   268.88884   1277.0763     6.58789    3756.940     540.989     759.806     982.562    1370.045
      73.430   268.91268   1277.6186     6.59278    3750.510     540.801     758.877    1005.547    1371.194
      73.440   268.80481   1278.0205     6.59766    3744.080     540.653     758.032    1003.219    1372.344
      73.450   268.55402   1278.2743     6.60059    3735.475     540.542     757.279    1000.891    1372.216
      73.460   268.15294   1278.3764     6.60352    3726.870     540.468     756.623     955.450    1372.088
      73.470   267.59822   1278.3266     6.61035    3726.405     540.426     756.071     910.010    1371.241
      73.480   266.89076   1278.1282     6.61719    3725.940     540.415     755.625     918.351    1370.393
      73.490   266.03606   1277.7873     6.60107    3729.600     540.431     755.290     926.692    1373.892
      73.500   265.04445   1277.3125     6.58496    3733.260     540.471     755.069     990.086    1377.390
      73.510   263.93070   1276.7147     6.58985    3732.800     540.532     754.962    1053.480    1378.861
      73.520   262.71287   1276.0060     6.59473    3732.340     540.611     754.969    1104.043    1380.332
      73.530   261.41051   1275.2000     6.59717    3726.910     540.704     755.091    1154.605    1376.523
      73.540   260.04282   1274.3107     6.59961    3721.480     540.807     755.323    1166.755    1372.715
      73.550   258.62730   1273.3521     6.59131    3723.680     540.918     755.663    1178.906    1369.093
      73.560   257.17892   1272.3379     6.58301    3725.880     541.034     756.105    1160.443    1365.470
      73.570   255.70981   1271.2813     6.58789    3746.230     541.150     756.643    1141.980    1365.459
      73.580   254.22897   1270.1943     6.59277    3766.580     541.265     757.269    1123.665    1365.447
      73.590   252.74210   1269.0880     6.58935    3842.095     541.376     757.976    1105.349    1365.946
      73.600   251.25151   1267.9720     6.58594    3847.750     541.479     758.753    1066.071    1366.445
      73.610   249.75653   1266.8549     6.58789    3853.405     541.572     759.589    1026.792    1362.842
      73.620   248.25448   1265.7437     6.58984    3859.059     541.653     760.474     971.779    1359.239
      73.630   246.74186   1264.6440     6.58057    3864.714     541.720     761.396     916.767    1358.546
