~VERSION INFORMATION SECTION
VERS.           2.0  :CWLS Log ASCII Standard - 2.0
WRAP.           NO   :One line per depth
#               Created in SeisLab
~WELL INFORMATION SECTION
#MNEM.UNIT  VALUE/NAME               :DESCRIPTION    
STRT.m  10                           :Start Depth    
STOP.m  124                          :Stop Depth     
STEP.m  0.01                         :Step           
NULL.    -999.25                     :Null Value     
WELL.    GDP1                        :Well Name      
CTRY.    Switzerland                 :Country        
CNTY.                                :County         
STAT.    Central Swiss Alps          :State          
API .                                :API number     
UWI .                                :Unique well ID 
LOC .    Grimsel pass, Switzerland   :Well Location  
FLD .    n/a                         :Field          
COMP.    n/a                         :Company        
SRVC.    University of Lausanne      :Service Company
DATE.    2015/2016                   :Date           
~PARAMETER INFORMATION SECTION
#MNEM .UNITS  VALUE   :DESCRIPTION OF PARAMETER
Casing.n/a    0       :open hole/cased hole    
~CURVE INFORMATION SECTION
#MNEM       .UNITS  API CODES   :DESCRIPTION OF MNEMONIC      
depth       .m                  :measured depth (interpolated)
BHR velocity.m/ns               :BHR velocity 2015            
BHR velocity.m/ns               :BHR velocity 2016            
~A depth       BHR_velocity BHR_velocity
# ...
      96.800     0.11280     0.11295
      96.810     0.11282     0.11292
      96.820     0.11284     0.11295
      96.830     0.11286     0.11299
      96.840     0.11289     0.11303
      96.850     0.11291     0.11307
      96.860     0.11289     0.11311
      96.870     0.11286     0.11309
      96.880     0.11289     0.11307
      96.890     0.11291     0.11305
      96.900     0.11294     0.11303
      96.910     0.11297     0.11301
      96.920     0.11303     0.11299
      96.930     0.11308     0.11297
      96.940     0.11308     0.11295
      96.950     0.11308     0.11293
      96.960     0.11312     0.11292
      96.970     0.11315     0.11292
      96.980     0.11319     0.11292
      96.990     0.11324     0.11292
      97.000     0.11328     0.11292
      97.010     0.11333     0.11292
      97.020     0.11330     0.11295
      97.030     0.11328     0.11299
      97.040     0.11332     0.11303
      97.050     0.11335     0.11307
      97.060     0.11338     0.11311
      97.070     0.11342     0.11314
      97.080     0.11346     0.11318
      97.090     0.11350     0.11322
      97.100     0.11351     0.11326
      97.110     0.11353     0.11330
      97.120     0.11361     0.11330
      97.130     0.11370     0.11330
      97.140     0.11379     0.11330
      97.150     0.11388     0.11330
      97.160     0.11392     0.11330
      97.170     0.11395     0.11330
      97.180     0.11397     0.11330
      97.190     0.11399     0.11330
      97.200     0.11403     0.11330
      97.210     0.11406     0.11330
      97.220     0.11408     0.11335
      97.230     0.11411     0.11341
      97.240     0.11408     0.11347
      97.250     0.11406     0.11353
      97.260     0.11409     0.11358
      97.270     0.11413     0.11362
      97.280     0.11416     0.11366
      97.290     0.11420     0.11370
      97.300     0.11425     0.11374
      97.310     0.11431     0.11378
      97.320     0.11430     0.11383
      97.330     0.11428     0.11389
      97.340     0.11432     0.11395
      97.350     0.11435     0.11401
      97.360     0.11437     0.11407
      97.370     0.11440     0.11409
      97.380     0.11437     0.11411
      97.390     0.11435     0.11412
      97.400     0.11432     0.11414
      97.410     0.11428     0.11416
      97.420     0.11433     0.11416
      97.430     0.11437     0.11416
      97.440     0.11436     0.11416
      97.450     0.11435     0.11416
      97.460     0.11435     0.11416
      97.470     0.11435     0.11418
      97.480     0.11437     0.11420
      97.490     0.11440     0.11422
      97.500     0.11439     0.11424
      97.510     0.11437     0.11426
      97.520     0.11433     0.11426
      97.530     0.11428     0.11426
      97.540     0.11428     0.11426
      97.550     0.11428     0.11426
      97.560     0.11424     0.11426
      97.570     0.11420     0.11430
      97.580     0.11416     0.11434
      97.590     0.11413     0.11438
      97.600     0.11411     0.11442
      97.610     0.11408     0.11446
      97.620     0.11407     0.11440
      97.630     0.11406     0.11434
      97.640     0.11399     0.11428
      97.650     0.11393     0.11422
      97.660     0.11390     0.11416
      97.670     0.11388     0.11409
      97.680     0.11384     0.11401
      97.690     0.11379     0.11393
      97.700     0.11376     0.11385
      97.710     0.11373     0.11378
      97.720     0.11366     0.11374
      97.730     0.11359     0.11370
      97.740     0.11357     0.11366
      97.750     0.11355     0.11362
      97.760     0.11350     0.11358
      97.770     0.11346     0.11353
      97.780     0.11345     0.11347
      97.790     0.11344     0.11341
      97.800     0.11339     0.11335
      97.810     0.11335     0.11330
      97.820     0.11335     0.11320
      97.830     0.11335     0.11311
      97.840     0.11334     0.11301
      97.850     0.11333     0.11292
      97.860     0.11335     0.11282
      97.870     0.11337     0.11278
      97.880     0.11335     0.11275
      97.890     0.11333     0.11271
      97.900     0.11335     0.11267
      97.910     0.11337     0.11263
      97.920     0.11337     0.11263
      97.930     0.11337     0.11263
      97.940     0.11337     0.11263
      97.950     0.11337     0.11263
      97.960     0.11332     0.11263
      97.970     0.11326     0.11261
      97.980     0.11325     0.11259
      97.990     0.11324     0.11257
      98.000     0.11323     0.11256
      98.010     0.11322     0.11254
      98.020     0.11317     0.11252
      98.030     0.11313     0.11250
      98.040     0.11311     0.11248
      98.050     0.11308     0.11246
      98.060     0.11309     0.11244
      98.070     0.11311     0.11252
      98.080     0.11309     0.11259
      98.090     0.11308     0.11267
      98.100     0.11306     0.11275
      98.110     0.11304     0.11282
      98.120     0.11305     0.11280
      98.130     0.11306     0.11278
      98.140     0.11307     0.11276
      98.150     0.11308     0.11275
      98.160     0.11312     0.11273
      98.170     0.11315     0.11263
      98.180     0.11316     0.11254
      98.190     0.11317     0.11244
      98.200     0.11319     0.11235
      98.210     0.11322     0.11226
      98.220     0.11324     0.11222
      98.230     0.11326     0.11218
      98.240     0.11327     0.11214
      98.250     0.11328     0.11211
      98.260     0.11328     0.11207
      98.270     0.11328     0.11209
      98.280     0.11334     0.11211
      98.290     0.11339     0.11212
      98.300     0.11343     0.11214
      98.310     0.11346     0.11216
      98.320     0.11350     0.11211
      98.330     0.11355     0.11205
      98.340     0.11360     0.11199
      98.350     0.11366     0.11194
      98.360     0.11371     0.11188
      98.370     0.11377     0.11186
      98.380     0.11378     0.11184
      98.390     0.11379     0.11183
      98.400     0.11383     0.11181
      98.410     0.11386     0.11179
      98.420     0.11390     0.11181
      98.430     0.11395     0.11183
      98.440     0.11398     0.11184
      98.450     0.11402     0.11186
      98.460     0.11404     0.11188
      98.470     0.11406     0.11194
      98.480     0.11411     0.11199
      98.490     0.11415     0.11205
      98.500     0.11418     0.11211
      98.510     0.11422     0.11216
      98.520     0.11425     0.11214
      98.530     0.11428     0.11212
      98.540     0.11431     0.11211
      98.550     0.11433     0.11209
      98.560     0.11436     0.11207
      98.570     0.11440     0.11199
      98.580     0.11442     0.11192
      98.590     0.11444     0.11184
      98.600     0.11448     0.11177
      98.610     0.11451     0.11169
      98.620     0.11451     0.11160
      98.630     0.11451     0.11151
      98.640     0.11452     0.11142
      98.650     0.11453     0.11132
      98.660     0.11454     0.11123
      98.670     0.11456     0.11114
      98.680     0.11454     0.11105
      98.690     0.11453     0.11096
      98.700     0.11450     0.11086
      98.710     0.11447     0.11077
      98.720     0.11444     0.11074
      98.730     0.11442     0.11070
      98.740     0.11442     0.11066
      98.750     0.11442     0.11063
      98.760     0.11437     0.11059
      98.770     0.11433     0.11063
      98.780     0.11432     0.11066
      98.790     0.11431     0.11070
      98.800     0.11428     0.11074
      98.810     0.11426     0.11077
      98.820     0.11425     0.11081
      98.830     0.11424     0.11085
      98.840     0.11416     0.11088
      98.850     0.11408     0.11092
      98.860     0.11402     0.11096
      98.870     0.11395     0.11103
      98.880     0.11387     0.11110
      98.890     0.11379     0.11118
      98.900     0.11370     0.11125
      98.910     0.11361     0.11132
      98.920     0.11349     0.11144
      98.930     0.11337     0.11155
      98.940     0.11329     0.11166
      98.950     0.11322     0.11177
      98.960     0.11313     0.11188
