~VERSION INFORMATION SECTION
VERS.           2.0  :CWLS Log ASCII Standard - 2.0
WRAP.           NO   :One line per depth
#               Created in SeisLab
~WELL INFORMATION SECTION
#MNEM.UNIT  VALUE/NAME               :DESCRIPTION    
STRT.m  10                           :Start Depth    
STOP.m  125                          :Stop Depth     
STEP.m  0.01                         :Step           
NULL.    -999.25                     :Null Value     
WELL.    GDP1                        :Well Name      
CTRY.    Switzerland                 :Country        
CNTY.                                :County         
STAT.    Central Swiss Alps          :State          
API .                                :API number     
UWI .                                :Unique well ID 
LOC .    Grimsel Pass, Switzerland   :Well Location  
FLD .    n/a                         :Field          
COMP.    n/a                         :Company        
SRVC.    University of Lausanne      :Service Company
DATE.    2017                        :Date           
~PARAMETER INFORMATION SECTION
#MNEM .UNITS  VALUE   :DESCRIPTION OF PARAMETER
Casing.n/a    1       :slotted PVC casing      
~CURVE INFORMATION SECTION
#MNEM.UNITS  API CODES   :DESCRIPTION OF MNEMONIC
depth.m                  :measured depth         
NG   .cps                :Natural gamma          
Sp   .mV                 :Self potential         
Temp .DegC               :Temperature            
SPR  .Ohm                :Single point resistance
R8   .Ohm.m              :Normal resistivity     
R16  .Ohm.m              :Single point resistance
R32  .Ohm.m              :Normal resistivity     
R64  .Ohm.m              :Normal resistivity     
~A depth       NG          Sp          Temp        SPR         R8          R16         R32         R64         
# ...
     111.380   285.59226   1104.8771     7.67188    -999.250   15514.746   12437.061   12171.080    3770.108
     111.390   284.69378   1104.2945     7.67432    -999.250   15581.390   12497.880   12328.166    3781.386
     111.400   283.95490   1103.7720     7.67676    -999.250   15646.857   12551.535   12325.298    3792.663
     111.410   283.36646   1103.3582     7.67432    -999.250   15710.970   12597.796   12322.430    3791.525
     111.420   282.91921   1103.0929     7.67188    -999.250   15773.501   12636.498   12145.133    3790.388
     111.430   282.60524   1103.0073     7.67872    -999.250   15834.173   12667.548   11967.836    3782.384
     111.440   282.41858   1103.1234     7.68555    -999.250   15892.668   12690.917   12007.114    3774.381
     111.450   282.35511   1103.4547     7.68408    -999.250   15948.628   12706.646   12046.393    3775.205
     111.460   282.41198   1104.0072     7.68262    -999.250   16001.669   12714.841   12247.174    3776.029
     111.470   282.58704   1104.7800     7.69189    -999.250   16051.379   12715.673   12447.955    3786.719
     111.480   282.87818   1105.7664     7.70117    -999.250   16097.333   12709.373   12575.125    3797.408
     111.490   283.28264   1106.9551     7.69238    -999.250   16139.095   12696.227   12702.295    3803.639
     111.500   283.79632   1108.3309     7.68359    -999.250   16176.228   12676.573   12733.252    3809.870
     111.510   284.41292   1109.8764     7.67871    -999.250   16208.301   12650.794   12764.210    3808.171
     111.520   285.12333   1111.5723     7.67383    -999.250   16234.900   12619.315   12688.157    3806.472
     111.530   285.91515   1113.3986     7.68066    -999.250   16255.627   12582.592   12612.104    3800.067
     111.540   286.77264   1115.3352     7.68750    -999.250   16270.117   12541.111   12588.762    3793.662
     111.550   287.67719   1117.3628     7.68897    -999.250   16278.036   12495.376    6600.591    3788.077
     111.560   288.60814   1119.4630     7.69043    -999.250   16279.093   12445.906    6609.663    3782.492
     111.570   289.54391   1121.6189     7.69580    -999.250   16273.040   12393.230    6618.734    3786.034
     111.580   290.46299   1123.8154     7.70117    -999.250   16259.682   12337.875    6627.806    3789.575
     111.590   291.34455   1126.0392     7.69434    -999.250   16238.876   12280.366    6636.877    3780.732
     111.600   292.16875   1128.2789     7.68750    -999.250   16210.538   12221.218    6645.948    3778.022
     111.610   292.91683   1130.5247     7.67627    -999.250   16174.640   12160.932    6655.020    3775.312
     111.620   293.57118   1132.7688     7.66504    -999.250   16131.218   12099.989    6603.601    3772.603
     111.630   294.11566   1135.0046     7.67530    -999.250   16080.368   12038.845    6617.622    3769.893
     111.640   294.53640   1137.2268     7.68555    -999.250   16022.248   11977.933    6631.644    3767.184
     111.650   294.82334   1139.4312     7.69678    -999.250   15957.076   11917.654    6748.725    3764.474
     111.660   294.97196   1141.6141     7.70801    -999.250   15885.128   11858.380    6865.805    3761.765
     111.670   294.98472   1143.7724     7.70264    -999.250   15806.740   11800.447    6994.048    3759.055
     111.680   294.87126   1145.9028     7.69727    -999.250   15722.300   11744.158    7122.290    3756.346
     111.690   294.64729   1148.0023     7.69483    -999.250   15632.245   11689.781    7094.723    3753.636
     111.700   294.33246   1150.0673     7.69238    -999.250   15537.063   11637.549    7067.156    3750.927
     111.710   293.94778   1152.0940     7.69580    -999.250   15437.282   11587.659    6947.118    3748.217
     111.720   293.51304   1154.0779     7.69922    -999.250   15333.468   11540.277    6924.712    3745.507
     111.730   293.04452   1156.0140     7.70166    -999.250   15226.222   11495.531    6902.306    3742.798
     111.740   292.55346   1157.8967     7.70410    -999.250   15116.169   11453.519    6879.899    3740.088
     111.750   292.04565   1159.7204     7.70166    -999.250   15003.960   11414.308    6857.493    3737.379
     111.760   291.52228   1161.4789     7.69922    -999.250   14890.261   11377.936    6835.087    3734.669
     111.770   290.98192   1163.1665     7.69140    -999.250   14775.748   11344.410    6812.681    3731.960
     111.780   290.42291   1164.7776     7.68359    -999.250   14661.103   11313.713    6790.274    3729.250
     111.790   289.84560   1166.3080     7.69384    -999.250   14547.007   11285.802    6767.868    3726.541
     111.800   289.25416   1167.7545     7.70410    -999.250   14434.133   11260.608    6745.462    3723.831
     111.810   288.65737   1169.1161     7.69385    -999.250   14323.143   11238.044    6723.056    3721.121
     111.820   288.06866   1170.3941     7.68359    -999.250   14214.678   11217.998    6700.649    3718.412
     111.830   287.50529   1171.5930     7.68701    -999.250   14109.358   11200.339    6678.243    3715.702
     111.840   286.98710   1172.7207     7.69043    -999.250   14007.773   11184.918    6655.837    3712.993
     111.850   286.53506   1173.7896     7.68457    -999.250   13910.477   11171.569    6633.431    3710.283
     111.860   286.17004   1174.8161     7.67871    -999.250   13817.985   11160.108    6611.024    3707.574
     111.870   285.91168   1175.8219     7.68213    -999.250   13730.770   11150.337    6588.618    3704.864
     111.880   285.77750   1176.8333     7.68555    -999.250   13649.255   11142.043    6566.212    3702.155
     111.890   285.78217   1177.8819     7.69482    -999.250   13573.809   11135.000    6543.806    3699.445
     111.900   285.93683   1179.0038     7.70410    -999.250   13504.749   11128.969    6521.399    3696.736
     111.910   286.24861   1180.2392     7.70410    -999.250    9377.469   11123.703    6498.993    3694.026
     111.920   286.72014   1181.6321     7.70410    -999.250    9307.148   11118.941    6476.587    3691.316
     111.930   287.34927   1183.2286     7.69580    -999.250    9250.488   11114.416    6454.181    3688.607
     111.940   288.12898   1185.0759     7.68750    -999.250    9193.829   11109.855    6431.775    3685.897
     111.950   289.04762   1187.2209     7.69775    -999.250    9167.163   11104.976    6409.368    3683.188
     111.960   290.08939   1189.7079     7.70801    -999.250    9140.498   11099.498    6386.962    3680.478
     111.970   291.23534   1192.5768     7.70264    -999.250    9138.292   11093.132    6364.556    3677.769
     111.980   292.46446   1195.8605     7.69727    -999.250    9136.086   11085.592    6342.150    3675.059
     111.990   293.75498   1199.5822     7.69922    -999.250    9147.116   11076.593    6319.743    3672.350
     112.000   295.08539   1203.7534     7.70117    -999.250    9158.146   11065.851    6297.337    3669.640
     112.010   296.43531   1208.3710     7.70117    -999.250    9178.851   11053.089    6274.931    3666.931
     112.020   297.78590   1213.4162     7.70117    -999.250    9199.557   11038.037    6252.525    3664.221
     112.030   299.12017   1218.8524     7.70800    -999.250    9225.332   11020.433    6230.118    3661.511
     112.040   300.42313   1224.6255     7.71484    -999.250    9251.108   11000.027    6207.712    3658.802
     112.050   301.68179   1230.6634     7.69921    -999.250    9272.858   10976.583    6185.306    3656.092
     112.060   302.88468   1236.8775     7.68359    -999.250    9294.609   10949.880    6162.900    3653.383
     112.070   304.02076   1243.1647     7.70166    -999.250    9317.133   10919.714    6140.493    3650.673
     112.080   305.07795   1249.4105     7.71973    -999.250    9339.657   10885.901    6118.087    3647.964
     112.090   306.04206   1255.4925     7.70166    -999.250    9362.492   10848.281    6095.681    3645.254
     112.100   306.89656   1261.2849     7.68359    -999.250    9385.326   10806.715    6073.275    3642.545
     112.110   307.62330   1266.6631     7.68896    -999.250    9409.359   10761.089    6050.868    3639.835
