~VERSION INFORMATION SECTION
VERS.           2.0  :CWLS Log ASCII Standard - 2.0
WRAP.           NO   :One line per depth
#               Created in SeisLab
~WELL INFORMATION SECTION
#MNEM.UNIT  VALUE/NAME               :DESCRIPTION    
STRT.m  10                           :Start Depth    
STOP.m  125                          :Stop Depth     
STEP.m  0.01                         :Step           
NULL.    -999.25                     :Null Value     
WELL.    GDP1                        :Well Name      
CTRY.    Switzerland                 :Country        
CNTY.                                :County         
STAT.    Central Swiss Alps          :State          
API .                                :API number     
UWI .                                :Unique well ID 
LOC .    Grimsel Pass, Switzerland   :Well Location  
FLD .    n/a                         :Field          
COMP.    n/a                         :Company        
SRVC.    University of Lausanne      :Service Company
DATE.    2017                        :Date           
~PARAMETER INFORMATION SECTION
#MNEM .UNITS  VALUE   :DESCRIPTION OF PARAMETER
Casing.n/a    1       :slotted PVC casing      
~CURVE INFORMATION SECTION
#MNEM.UNITS  API CODES   :DESCRIPTION OF MNEMONIC
depth.m                  :measured depth         
NG   .cps                :Natural gamma          
Sp   .mV                 :Self potential         
Temp .DegC               :Temperature            
SPR  .Ohm                :Single point resistance
R8   .Ohm.m              :Normal resistivity     
R16  .Ohm.m              :Single point resistance
R32  .Ohm.m              :Normal resistivity     
R64  .Ohm.m              :Normal resistivity     
~A depth       NG          Sp          Temp        SPR         R8          R16         R32         R64         
# ...
      92.140   319.94162    845.2843     6.99902    4115.410     502.858     590.113     712.698     985.007
      92.150   318.21328    849.4413     6.99463    4129.310     504.270     590.089     714.081     985.786
      92.160   316.27789    854.3850     6.99023    4143.210     505.682     590.064     715.464     986.565
      92.170   314.17781    860.1112     6.98682    4170.135     507.779     591.036     714.125     987.343
      92.180   311.96093    866.6022     6.98340    4197.060     509.876     592.007     712.785     988.122
      92.190   309.67802    873.8272     6.98926    4225.840     513.488     592.539     709.584     988.901
      92.200   307.37980    881.7433     6.99512    4254.620     517.100     593.071     706.383     989.680
      92.210   305.11426    890.2954     6.98926    4273.415     521.949     592.547     705.559     990.459
      92.220   302.92404    899.4171     6.98340    4292.210     526.797     592.023     704.735     991.237
      92.230   300.84452    909.0319     6.97803    4307.380     532.303     591.858     704.456     992.016
      92.240   298.90279    919.0533     6.97266    4322.550     537.808     591.692     704.177     992.795
      92.250   297.11766    929.3871     6.98730    4349.640     544.773     592.923     703.722     993.574
      92.260   295.50048    939.9320     7.00195    4376.730     551.739     594.154     703.266     994.353
      92.270   294.05619    950.5823     6.99072    4423.355     560.704     596.327     702.846     995.131
      92.280   292.78452    961.2292     6.97949    4469.980     569.668     598.501     702.425     995.910
      92.290   291.68103    971.7635     6.98632    4531.970     579.614     599.839     703.423     996.689
      92.300   290.73803    982.0771     6.99316    4593.960     589.560     601.176     704.422     997.468
      92.310   289.94544    992.0654     6.98975    4658.605     599.735     601.009     705.112     998.247
      92.320   289.29169   1001.6296     6.98633    4723.250     609.911     600.841     705.803     999.025
      92.330   288.76471   1010.6789     6.97217    4776.005     621.516     602.209     704.756     999.804
      92.340   288.35281   1019.1320     6.95801    4828.760     633.122     603.576     703.710    1000.583
      92.350   288.04526   1026.9195     6.98096    4865.660     647.441     606.302     702.360    1001.362
      92.360   287.83227   1033.9853     7.00391    4902.560     661.760     609.029     701.011    1002.141
      92.370   287.70471   1040.2873     6.99122    4926.475     678.950     610.816     699.030    1002.919
      92.380   287.65350   1045.7982     6.97852    4950.390     696.140     612.603     697.049    1003.698
      92.390   287.66902   1050.5053     6.98096    4964.855     714.402     613.970     696.840    1004.477
      92.400   287.74056   1054.4102     6.98340    4979.320     732.665     615.337     696.631    1005.256
      92.410   287.85587   1057.5276     6.97412    4989.935     749.491     618.561     694.549    1006.035
      92.420   288.00090   1059.8838     6.96484    5000.550     766.317     621.784     692.468    1010.845
      92.430   288.15969   1061.5152     6.97852    5021.000     780.675     625.723     689.362    1008.632
      92.440   288.31460   1062.4665     6.99219    5041.450     795.033     629.662     686.256    1006.418
      92.450   288.44686   1062.7892     6.99560    5091.245     805.016     634.007     686.088    1006.956
      92.460   288.53759   1062.5397     6.99902    5141.040     814.999     638.353     685.919    1007.494
      92.470   288.56892   1061.7779     6.99902    5220.025     819.550     644.182     686.607    1005.292
      92.480   288.52522   1060.5658     6.99902    5299.010     824.101     650.012     687.294    1003.089
      92.490   288.39418   1058.9668     6.99804    5385.950     824.616     657.587     687.774    1004.386
      92.500   288.16763   1057.0439     6.99707    5472.890     825.131     665.163     688.254    1004.720
      92.510   287.84214   1054.8592     6.99707    5541.285     824.748     672.353     686.233    1005.054
      92.520   287.41920   1052.4730     6.99707    5609.680     824.364     679.543     684.212    1005.388
      92.530   286.90478   1049.9427     6.99463    5645.955     824.194     684.598     685.329    1005.723
      92.540   286.30861   1047.3222     6.99219    5682.230     824.024     689.653     686.447    1006.057
      92.550   285.64319   1044.6610     6.99805    5679.205     824.991     692.080     688.435    1006.391
      92.560   284.92310   1042.0035     7.00391    5676.180     825.959     694.507     690.424    1006.725
      92.570   284.16455   1039.3883     6.99023    5637.065     828.161     694.223     691.894    1007.059
      92.580   283.38527   1036.8472     6.97656    5597.950     830.363     693.940     693.363    1007.393
      92.590   282.60431   1034.4053     6.99707    5545.055     832.805     693.347     694.593    1007.727
      92.600   281.84161   1032.0806     7.01758    5492.160     835.247     692.755     695.823    1008.062
      92.610   281.11746   1029.8844     7.01074    5445.305     835.367     690.150     698.829    1008.396
      92.620   280.45180   1027.8214     7.00391    5398.450     835.487     687.545     701.835    1008.730
      92.630   279.86372   1025.8912     7.01172    5360.870     831.284     684.386     706.058    1009.064
      92.640   279.37075   1024.0888     7.01953    5323.290     827.081     681.228     710.281    1009.398
      92.650   278.98803   1022.4058     7.00488    5287.410     819.331     680.178     712.937    1009.732
      92.660   278.72741   1020.8313     6.99023    5251.530     811.580     679.128     715.593    1010.066
      92.670   278.59654   1019.3535     6.99707    5222.205     800.766     679.250     718.008    1010.401
      92.680   278.59818   1017.9607     7.00391    5192.880     789.951     679.372     720.424    1010.735
      92.690   278.72975   1016.6424     7.00879    5180.180     778.161     679.826     725.967    1011.069
      92.700   278.98313   1015.3910     7.01367    5167.480     766.371     680.281     731.509    1011.403
      92.710   279.34482   1014.2024     7.01220    5157.980     753.629     679.390     736.805    1011.737
      92.720   279.79613   1013.0770     7.01074    5148.480     740.887     678.500     742.101    1012.071
      92.730   280.31359   1012.0195     7.00146    5122.755     729.008     679.443     748.573    1012.405
      92.740   280.86938   1011.0394     6.99219    5097.030     717.129     680.387     755.046    1012.740
      92.750   281.43228   1010.1495     6.99609    5058.065     708.417     681.397     758.680    1013.074
      92.760   281.96875   1009.3654     7.00000    5019.100     699.705     682.406     762.315    1013.408
      92.770   282.44425   1008.7040     7.01367    4973.115     693.241     682.891     767.251    1013.742
      92.780   282.82453   1008.1822     7.02734    4927.130     686.777     683.376     772.187    1014.076
      92.790   283.07707   1007.8151     7.01220    4872.940     681.763     683.381     775.812    1016.244
      92.800   283.17266   1007.6151     6.99707    4818.750     676.749     683.385     779.437    1014.744
      92.810   283.08713   1007.5908     6.98828    4758.190     671.997     684.086     782.322    1015.079
      92.820   282.80303   1007.7458     6.97949    4697.630     667.245     684.786     785.207    1015.413
      92.830   282.31081   1008.0788     6.99072    4645.065     664.289     685.811     790.697    1015.747
      92.840   281.60953   1008.5835     7.00195    4592.500     661.334     686.836     796.186    1016.081
      92.850   280.70670   1009.2490     6.99951    4560.630     658.553     686.513     797.365    1016.415
      92.860   279.61775   1010.0607     6.99707    4528.760     655.773     686.190     798.543    1016.749
      92.870   278.36493   1011.0012     6.98926    4509.135     652.501     685.470     801.751    1017.083
