~VERSION INFORMATION SECTION
VERS.           2.0  :CWLS Log ASCII Standard - 2.0
WRAP.           NO   :One line per depth
#               Created in SeisLab
~WELL INFORMATION SECTION
#MNEM.UNIT  VALUE/NAME               :DESCRIPTION    
STRT.m  47.59                        :Start Depth    
STOP.m  123.23                       :Stop Depth     
STEP.m  0.02                         :Step           
NULL.    -999.25                     :Null Value     
WELL.    GDP1                        :Well Name      
CTRY.    Switzerland                 :Country        
CNTY.                                :County         
STAT.    Central Swiss Alps          :State          
API .                                :API number     
UWI .                                :Unique well ID 
LOC .    Grimsel Pass, Switzerland   :Well Location  
FLD .    n/a                         :Field          
COMP.    n/a                         :Company        
SRVC.    University of Lausanne      :Service Company
DATE.    2017                        :Date           
~PARAMETER INFORMATION SECTION
#MNEM .UNITS  VALUE   :DESCRIPTION OF PARAMETER
Casing.n/a    1       :slotted PVC casing      
~CURVE INFORMATION SECTION
#MNEM.UNITS  API CODES   :DESCRIPTION OF MNEMONIC
depth.m                  :measured depth         
NG   .cps                :Natural gamma          
Sp   .mV                 :Self potential         
Temp .DegC               :Temperature            
SPR  .Ohm                :Single point resistance
R8   .Ohm.m              :Normal resistivity     
R16  .Ohm.m              :Single point resistance
R32  .Ohm.m              :Normal resistivity     
R64  .Ohm.m              :Normal resistivity     
~A depth       NG          Sp          Temp        SPR         R8          R16         R32         R64         
# ...
     117.150   329.40600   1052.2500     7.83691     -1216.6     10687.0    10563.90     8327.50     4442.77
     117.170   287.82800   1058.0000     7.86133     -1210.8     10536.8    10466.20    11791.00     4469.09
     117.190   277.18800   1065.3800     7.86621     -1205.8     10389.3    10292.20    20786.90     4480.94
     117.210   277.95300   1065.2500     7.87988     -1200.6     10233.7    10089.20    65180.80     4475.74
     117.230   300.15600   1063.8800     7.87793     -1192.7     10088.1     9885.78   -98948.10     4475.09
     117.250   282.42200   1063.8800     7.87109     -1181.6      9909.3     9675.52   -37740.70     4468.13
     117.270   260.31300   1064.7500     7.86328     -1162.7      9727.2     9513.20   -31783.40     4448.45
     117.290   257.76600   1059.6300     7.85254     -1145.1      9492.8     9467.29   -35889.00     4428.77
     117.310   244.19500   1053.3800     7.85254     -1129.6      9242.5     9767.12   -72284.90     4425.28
     117.330   260.92200   1050.8800     7.86133     -1116.7      8997.6    10628.10   104542.00     4424.66
     117.350   289.98400   1049.1300     7.84082     -1105.5      8751.0    12764.80    21592.80     4421.58
     117.370   307.00000   1049.3800     7.86426     -1095.8      8551.6    17855.30    11755.20     4438.37
     117.390   324.39100   1050.5000     7.86133     -1081.7      8477.1    31057.10     8913.75     4463.29
     117.410   272.40600   1045.8800     7.85449     -1065.2      8738.0    96223.70     7854.46     4474.79
     117.430   299.78100   1040.1300     7.85254     -1049.5      9538.7  -143955.00     7427.58     4511.30
     117.450   331.18800   1030.6300     7.86328     -1035.5     11540.8   -54085.00     7169.25     4586.40
     117.470   309.82800   1020.7500     7.86133     11015.3     16340.8   -44935.20     7025.85     4666.50
     117.490   292.84400    999.6250     7.83887     12275.3     28922.3   -49930.80     6963.40     4741.90
     117.510   293.40600    977.0000     7.85742         8.8     91689.5   -98592.40     6908.92     4814.35
     117.530   292.15600    930.8750     7.87793     -1407.5   -141383.0   139256.00     6887.07     4884.35
     117.550   229.26600    880.3750     7.85059     -2087.9    -55422.3    27814.10     6845.54     4965.64
     117.570   241.51600    830.0000     7.85449     -3758.0    -49094.2    14643.70     6803.77     5059.37
     117.590   284.28100    779.1250     7.87988     -8141.2    -59752.6    10836.30     6783.23     5149.84
     117.610   262.92200    755.6250     7.85059    -29851.0   -133682.0     9482.35     6790.52     5220.11
     117.630   308.28100    737.6250     7.83594     49976.8    219075.0     8942.83     6791.66     5294.38
     117.650   325.12500    741.1250     7.84570     20033.0     48932.7     8705.78     6757.12     5379.98
     117.670   339.12500    749.2500     7.87012     16992.1     25957.7     8638.71     6772.29     5449.29
     117.690   240.77300    769.7500     7.86816     18667.4     18106.9     8654.89     6816.10     5516.50
     117.710   332.32800    793.2500     7.84961     34952.1     14746.3     8730.26     6819.18     5577.71
     117.730   259.76600    854.0000     7.86816    -44716.0     12762.8     8877.88     6821.33     5610.89
     117.750   305.71900    921.1250     7.87305     -7486.4     11394.2     9147.62     7046.04     5627.15
     117.770   310.60900    978.0000     7.86133     -3094.4     10515.9     9448.38     7307.45     5638.26
     117.790   257.50000   1033.5000     7.87793     -1808.5      9911.3     9653.46     7778.06     5585.31
     117.810   287.00000   1073.0000     7.86426     -1334.6      9480.7     9732.26     8333.10     5533.55
     117.830   282.09400   1107.7500     7.83887     -1145.6      9125.1     9676.22     8184.70     5519.48
     117.850   242.88300   1124.2500     7.87109     10988.0      8829.5     9519.41     8025.79     5521.29
     117.870   285.46900   1135.6300     7.87305     24004.8      8565.1     9317.48     7926.47     5520.97
     117.890   285.48400   1136.0000     7.87500     25366.9      8307.7     9115.51     7788.48     5500.87
     117.910   303.84400   1134.2500     7.86621     25181.4      8080.9     8925.20     8137.38     5504.02
     117.930   306.76600   1145.5000     7.86621     25271.2      7920.5     8739.58     8547.45     5523.75
     117.950   303.43800   1160.1300     7.86426     13292.7      7795.6     8541.05     4311.68     5578.52
     117.970   295.12500   1163.3800     7.87109        22.9      7686.0     8355.52     -291.51     5634.73
     117.990   311.40600   1163.8800     7.85449     10619.6      7590.6     8214.18     -513.72     5671.97
     118.010   283.85900   1169.7500     7.87109     23421.6      7508.3     8122.00     -562.87     5696.75
     118.030   303.06300   1177.3800     7.86816     24601.5      7426.4     8085.61     -600.77     5712.20
     118.050   285.90600   1179.8800     7.85449     24753.8      7330.3     8096.99     -607.72     5731.64
     118.070   272.79700   1181.7500     7.88379     24534.5      7249.8     8138.61     -575.93     5752.29
     118.090   277.70300   1175.8800     7.85059     23907.3      7216.9     8178.47     -563.65     5763.07
     118.110   294.73400   1168.3800     7.85938     23192.2      7215.8     8202.83     -566.66     5752.20
     118.130   273.96900   1165.5000     7.87109     22388.5      7229.8     8228.98     -562.45     5732.96
     118.150   321.54700   1163.2500     7.86133     21793.4      7254.6     8267.34     -562.72     5711.15
     118.170   305.87500   1152.7500     7.88477     20686.0      7286.5     8319.59     -541.31     5682.34
     118.190   268.70300   1139.7500     7.88672     19908.1      7309.2     8391.06     4172.07     5623.13
     118.210   275.26600   1119.3800     7.86133     20525.1      7314.8     8466.58     9229.03     5562.14
     118.230   290.21900   1097.8800     7.87109     21343.1      7321.3     8538.50     8846.82     5485.67
     118.250   247.95300   1075.0000     7.86621     21905.4      7334.6     8612.81     8142.82     5422.96
     118.270   316.76600   1051.5000     7.87109     22343.8      7353.1     8681.38     7959.86     5361.58
     118.290   258.31300   1040.7500     7.86621     22568.7      7385.7     8745.40     7770.17     5338.69
     118.310   284.20300   1032.0000     7.88477     22893.4      7432.4     8807.36     7540.75     5351.44
     118.330   266.00000   1033.0000     7.89160     23261.1      7498.7     8850.94     7321.74     5407.05
     118.350   277.35900   1035.1300     7.85645     23672.0      7584.1     8847.46     7245.60     5495.62
     118.370   326.10900   1041.7500     7.90430     23841.4      7674.9     8813.53     7150.62     5655.01
     118.390   306.35900   1048.8800     7.87012     23740.5      7770.3     8770.24     7236.85     5805.45
     118.410   272.45300   1059.8800     7.86621     24241.3      7865.5     8737.80     7319.83     5879.64
     118.430   270.29700   1072.0000     7.90039     13019.9      7945.9     8710.15     7361.98     6022.14
     118.450   307.00000   1083.8800     7.88184       106.9      7997.9     8698.14     7402.71     6054.82
     118.470   292.06300   1095.0000     7.87793     -1022.2      8036.7     8705.30     7426.74     6046.16
     118.490   266.31300   1115.3800     7.88379     11216.1      8070.9     8706.63     7440.55     6023.62
     118.510   277.78100   1137.8800     7.88477     12323.4      8105.0     8696.04     7449.82     5974.64
     118.530   249.05500   1160.0000     7.86621       -49.7      8132.1     8697.09     7432.95     5856.14
     118.550   281.65600   1182.5000     7.88184     -1053.9      8163.9     8714.45     7397.97     5721.84
     118.570   300.10900   1200.3800     7.89063     -1052.5      8205.0     8746.52     7354.53     5539.84
     118.590   291.70300   1217.3800     7.86621     -1050.1      8236.5     8776.71     7299.30     5315.19
     118.610   312.35900   1243.1300     7.88477     -1048.4      8253.4     8798.66     7242.17     5125.13
