~VERSION INFORMATION SECTION
VERS.           2.0  :CWLS Log ASCII Standard - 2.0
WRAP.           NO   :One line per depth
#               Created in SeisLab
~WELL INFORMATION SECTION
#MNEM.UNIT  VALUE/NAME               :DESCRIPTION    
STRT.m  10                           :Start Depth    
STOP.m  125                          :Stop Depth     
STEP.m  0.01                         :Step           
NULL.    -999.25                     :Null Value     
WELL.    GDP1                        :Well Name      
CTRY.    Switzerland                 :Country        
CNTY.                                :County         
STAT.    Central Swiss Alps          :State          
API .                                :API number     
UWI .                                :Unique well ID 
LOC .    Grimsel Pass, Switzerland   :Well Location  
FLD .    n/a                         :Field          
COMP.    n/a                         :Company        
SRVC.    University of Lausanne      :Service Company
DATE.    2016                        :Date           
~PARAMETER INFORMATION SECTION
#MNEM .UNITS  VALUE   :DESCRIPTION OF PARAMETER
Casing.n/a    1       :slotted PVC casing      
~CURVE INFORMATION SECTION
#MNEM.UNITS  API CODES   :DESCRIPTION OF MNEMONIC
depth.m                  :measured depth         
NG   .cps                :Natural gamma          
Sp   .mV                 :Self potential         
Temp .DegC               :Temperature            
SPR  .Ohm                :Single point resistance
R8   .Ohm.m              :Normal resistivity     
R16  .Ohm.m              :Single point resistance
R32  .Ohm.m              :Normal resistivity     
R64  .Ohm.m              :Normal resistivity     
~A depth       NG          Sp          Temp        SPR         R8          R16         R32         R64         
# ...
      86.220   266.04826    878.3202     7.19726    4329.680     547.433     583.650     742.501     676.563
      86.230   265.63338    875.7139     7.19336    4362.040     557.447     586.319     740.333     677.543
      86.240   265.10391    872.8525     7.18945    4394.400     567.460     588.929     738.092     678.853
      86.250   264.49695    869.7579     7.19564    4471.043     581.046     591.480     735.803     680.496
      86.260   263.85128    866.4665     7.20182    4547.687     594.633     593.968     733.485     682.475
      86.270   263.20588    863.0283     7.20801    4624.330     608.219     596.395     731.161     684.793
      86.280   262.59829    859.5058     7.20866    4715.340     620.752     598.759     728.849     687.454
      86.290   262.06256    855.9712     7.20931    4806.350     633.285     601.062     726.566     690.461
      86.300   261.62738    852.5037     7.20996    4897.360     645.818     603.305     724.330     693.820
      86.310   261.31439    849.1866     7.21167    4915.598     650.832     605.489     722.154     697.536
      86.320   261.13716    846.1041     7.21338    4933.835     655.846     607.618     720.050     701.613
      86.330   261.10084    843.3383     7.21509    4952.072     660.860     609.695     718.029     706.057
      86.340   261.20251    840.9671     7.21680    4970.310     665.874     611.723     716.099     710.872
      86.350   261.43211    839.0617     7.21191    4964.925     668.825     613.707     714.269     716.064
      86.360   261.77374    837.6845     7.20703    4959.540     671.776     615.650     712.541     721.635
      86.370   262.20713    836.8874     7.20019    4925.620     676.781     617.557     710.919     727.589
      86.380   262.70927    836.7106     7.19336    4891.700     681.785     619.433     709.406     733.929
      86.390   263.25607    837.1805     7.18652    4857.780     686.789     621.281     707.999     740.655
      86.400   263.82421    838.3095     7.19165    4823.945     688.476     623.107     706.698     747.768
      86.410   264.39307    840.0945     7.19678    4790.110     690.163     624.916     705.499     755.266
      86.420   264.94668    842.5169     7.20190    4756.275     691.850     626.709     704.397     763.145
      86.430   265.47532    845.5423     7.20703    4722.440     693.537     628.493     703.387     771.399
      86.440   265.97627    849.1214     7.20801    4699.463     679.491     630.269     702.462     780.021
      86.450   266.45333    853.1911     7.20898    4676.487     665.444     632.040     701.614     789.000
      86.460   266.91516    857.6765     7.20996    4653.510     651.397     633.809     700.834     798.324
      86.470   267.37307    862.4939     7.20605    4640.857     642.190     635.577     700.114     807.978
      86.480   267.83901    867.5532     7.20215    4628.203     632.983     637.344     699.445     817.943
      86.490   268.32456    872.7618     7.19824    4615.550     623.776     639.112     698.815     828.199
      86.500   268.84060    878.0276     7.19466    4644.497     635.686     640.878     698.217     838.723
      86.510   269.39750    883.2621     7.19108    4673.443     647.596     642.642     697.641     849.487
      86.520   270.00519    888.3831     7.18750    4702.390     659.506     644.401     697.076     860.464
      86.530   270.67287    893.3166     7.18880    4749.850     664.119     646.152     696.515     871.621
      86.540   271.40818    897.9987     7.19011    4797.310     668.733     647.892     695.948     882.925
      86.550   272.21586    902.3761     7.19141    4844.770     673.346     649.616     695.368     894.338
      86.560   273.09659    906.4075     7.19141    4861.655     666.322     651.319     694.768     905.824
      86.570   274.04597    910.0628     7.19141    4878.540     659.297     652.995     694.141     917.341
      86.580   275.05436    913.3231     7.18913    4870.633     662.459     654.638     693.482     928.847
      86.590   276.10719    916.1800     7.18685    4862.727     665.621     656.240     692.786     940.300
      86.600   277.18560    918.6344     7.18457    4854.820     668.782     657.795     692.050     951.656
      86.610   278.26755    920.6949     7.18783    4838.280     681.077     659.295     691.270     962.869
      86.620   279.32930    922.3771     7.19108    4821.740     693.371     660.732     690.446     973.896
      86.630   280.34734    923.7013     7.19434    4805.200     705.666     662.098     689.577     984.691
      86.640   281.30033    924.6919     7.19890    4780.210     716.923     663.385     688.664     995.211
      86.650   282.17070    925.3754     7.20345    4755.220     728.181     664.583     687.707    1005.413
      86.660   282.94558    925.7797     7.20801    4730.230     739.438     665.687     686.709    1015.256
      86.670   283.61705    925.9331     7.21192    4722.040     733.472     666.686     685.673    1024.701
      86.680   284.18188    925.8634     7.21582    4713.850     727.506     667.575     684.604    1033.710
      86.690   284.64113    925.5978     7.21972    4705.660     721.540     668.345     683.506    1042.248
      86.700   284.99965    925.1623     7.22363    4697.470     715.574     668.991     682.384    1050.285
      86.710   285.26564    924.5817     7.21354    4696.070     700.315     669.506     681.245    1057.792
      86.720   285.45027    923.8799     7.20345    4694.670     685.055     669.884     680.096    1064.746
      86.730   285.56723    923.0796     7.19336    4693.270     669.795     670.121     678.942    1071.124
      86.740   285.63190    922.2027     7.18897    4682.270     662.969     670.214     677.792    1076.912
      86.750   285.66009    921.2704     7.18457    4671.270     656.142     670.160     676.653    1082.096
      86.760   285.66624    920.3032     7.18872    4671.120     664.907     669.956     675.532    1086.670
      86.770   285.66148    919.3206     7.19287    4670.970     673.673     669.602     674.437    1090.629
      86.780   285.65212    918.3413     7.19702    4670.820     682.438     669.098     673.374    1093.975
      86.790   285.63869    917.3827     7.20117    4670.670     691.203     668.446     672.352    1096.713
      86.800   285.61558    916.4610     7.20247    4654.487     694.247     667.648     671.377    1098.854
      86.810   285.57118    915.5906     7.20378    4638.303     697.291     666.708     670.456    1100.410
      86.820   285.48837    914.7844     7.20508    4622.120     700.335     665.630     669.594    1101.401
      86.830   285.34571    914.0533     7.19824    4605.123     690.820     664.420     668.796    1101.848
      86.840   285.11910    913.4057     7.19141    4588.127     681.304     663.086     668.068    1101.776
      86.850   284.78416    912.8475     7.18457    4571.130     671.789     661.636     667.414    1101.214
      86.860   284.31899    912.3813     7.19010    4576.370     671.178     660.078     666.837    1100.192
      86.870   283.70689    912.0055     7.19564    4581.610     670.568     658.424     666.340    1098.745
      86.880   282.93886    911.7140     7.20117    4586.850     669.958     656.684     665.924    1096.907
      86.890   282.01537    911.4944     7.20540    4595.830     667.642     654.871     665.590    1094.716
      86.900   280.94721    911.3279     7.20964    4604.810     665.326     652.996     665.339    1092.210
      86.910   279.75535    911.1885     7.21387    4613.790     663.010     651.075     665.170    1089.427
      86.920   278.46987    911.0431     7.19482    4583.730     657.373     649.121     665.082    1086.408
      86.930   277.12798    910.8520     7.17578    4553.670     651.736     647.149     665.071    1083.190
      86.940   275.77158    910.5708     7.18652    4520.007     651.979     645.175     665.136    1079.812
      86.950   274.44453    910.1523     7.19727    4486.343     652.221     643.214     665.272    1076.311
