~VERSION INFORMATION SECTION
VERS.           2.0  :CWLS Log ASCII Standard - 2.0
WRAP.           NO   :One line per depth
#               Created in SeisLab
~WELL INFORMATION SECTION
#MNEM.UNIT  VALUE/NAME               :DESCRIPTION    
STRT.m  11                           :Start Depth    
STOP.m  125                          :Stop Depth     
STEP.m  0.01                         :Step           
NULL.    -999.25                     :Null Value     
WELL.    GDP1                        :Well Name      
CTRY.    Switzerland                 :Country        
CNTY.                                :County         
STAT.                                :State          
API .                                :API number     
UWI .                                :Unique well ID 
LOC .    Grimsel pass, Switzerland   :Well Location  
FLD .    n/a                         :Field          
COMP.    n/a                         :Company        
SRVC.    University of Lausanne      :Service Company
DATE.    2016                        :Date           
~PARAMETER INFORMATION SECTION
#MNEM .UNITS  VALUE   :DESCRIPTION OF PARAMETER
Casing.n/a    0       :cased hole              
~CURVE INFORMATION SECTION
#MNEM     .UNITS  API CODES   :DESCRIPTION OF MNEMONIC      
depth     .m                  :measured depth (interpolated)
P_slowness.us/m               :FWS2016_25kHz_semblance      
S_slowness.us/m               :FWS2016_25kHz_semblance      
~A depth       P_slowness  S_slowness  
# ...
      60.910   280.87752   458.25589
      60.920   281.47384   457.56061
      60.930   282.00710   456.82684
      60.940   282.51470   456.07467
      60.950   283.03451   455.29684
      60.960   283.50298   454.47302
      60.970   283.92908   453.58505
      60.980   284.35518   452.67870
      60.990   284.74738   451.73385
      61.000   285.13957   450.72462
      61.010   285.49787   449.68974
      61.020   285.85616   448.59049
      61.030   286.03582   447.42708
      61.040   286.21548   446.23608
      61.050   286.30531   444.99375
      61.060   286.39515   443.71466
      61.070   286.45931   442.30723
      61.080   286.52348   440.85382
      61.090   286.53387   439.36190
      61.100   286.54426   437.84767
      61.110   286.45693   436.26930
      61.120   286.36961   434.69092
      61.130   286.16733   433.08687
      61.140   285.96505   431.54698
      61.150   285.60756   430.00710
      61.160   285.22439   428.49287
      61.170   284.70903   426.97864
      61.180   284.18084   425.52857
      61.190   283.59516   424.16833
      61.200   282.98384   422.84657
      61.210   282.37251   421.52482
      61.220   281.72267   420.25439
      61.230   281.07284   419.22779
      61.240   280.39734   418.20118
      61.250   279.66436   417.23874
      61.260   278.89287   416.30197
      61.270   278.12138   415.44220
      61.280   277.33707   414.64659
      61.290   276.52977   413.87664
      61.300   275.69680   413.11952
      61.310   274.86384   412.42303
      61.320   273.99238   411.85485
      61.330   273.11566   411.46138
      61.340   272.21326   411.11925
      61.350   271.35161   410.86907
      61.360   270.45146   410.72154
      61.370   269.58185   410.52805
      61.380   268.69941   410.42438
      61.390   267.85770   410.38507
      61.400   266.99034   410.25593
      61.410   266.12298   410.12680
      61.420   265.22995   409.99767
      61.430   264.32205   409.86854
      61.440   263.41415   409.73941
      61.450   262.50625   409.61943
      61.460   261.54574   409.62777
      61.470   260.58523   409.67634
      61.480   259.59320   409.91739
      61.490   258.60116   410.13546
      61.500   257.54608   410.40485
      61.510   256.53403   410.71448
      61.520   255.52198   411.06261
      61.530   254.50993   411.41074
      61.540   253.56093   411.79736
      61.550   252.65495   412.12651
      61.560   251.73677   412.48133
      61.570   250.86162   412.83615
      61.580   250.02885   413.25511
      61.590   249.23911   413.61659
      61.600   248.48328   414.01657
      61.610   247.77048   414.35908
      61.620   247.09157   414.72725
      61.630   246.45569   415.05208
      61.640   245.99844   415.44108
      61.650   245.54120   415.78705
      61.660   245.17377   416.18434
      61.670   244.76333   416.58164
      61.680   244.37856   417.10726
      61.690   243.99379   417.63289
      61.700   243.66279   418.19702
      61.710   243.28875   418.71813
      61.720   243.01244   419.30339
      61.730   242.69310   419.84562
      61.740   242.48870   420.41352
      61.750   242.24128   420.98143
      61.760   242.14907   421.54933
      61.770   242.01384   422.07420
      61.780   242.01080   422.59907
      61.790   241.96474   423.12393
      61.800   241.97615   423.55898
      61.810   241.98756   423.95100
      61.820   241.99897   424.34302
      61.830   241.96734   424.69202
      61.840   241.93572   424.79720
      61.850   241.86108   424.90238
      61.860   241.84393   424.94339
      61.870   241.82679   424.94138
      61.880   241.80964   424.86236
      61.890   241.79249   424.74031
      61.900   241.79833   424.59261
      61.910   241.80416   424.44490
      61.920   241.81000   424.23657
      61.930   241.81584   424.07128
      61.940   241.82693   423.73128
      61.950   241.88105   423.39128
      61.960   241.89443   422.95933
      61.970   241.90780   422.57041
      61.980   241.89064   422.22746
      61.990   241.91651   421.92752
      62.000   241.90164   421.56323
      62.010   241.88677   421.24197
      62.020   241.87190   420.92070
      62.030   241.90007   420.64248
      62.040   241.94310   420.36425
      62.050   242.02915   420.12905
      62.060   242.11520   419.88470
      62.070   242.20125   419.72641
      62.080   242.28730   419.52789
      62.090   242.41638   419.45844
      62.100   242.54546   419.41198
      62.110   242.67454   419.45157
      62.120   242.76059   419.45093
      62.130   242.84664   419.45030
      62.140   242.93269   419.44966
      62.150   243.01874   419.44902
      62.160   243.06177   419.50585
      62.170   243.10480   419.51967
      62.180   243.10480   419.53349
      62.190   243.10480   419.50428
      62.200   243.06177   419.53256
      62.210   242.97570   419.51780
      62.220   242.84661   419.56052
      62.230   242.67449   419.56023
      62.240   242.45936   419.60326
      62.250   242.20120   419.60326
      62.260   241.94303   419.64630
      62.270   241.64184   419.64630
      62.280   241.38366   419.64630
      62.290   241.08246   419.60328
      62.300   240.78126   419.56026
      62.310   240.48007   419.47421
      62.320   240.22190   419.43118
      62.330   239.92070   419.34511
      62.340   239.66254   419.30208
      62.350   239.36134   419.21602
      62.360   239.10318   419.12995
      62.370   238.84502   419.00087
      62.380   238.62987   418.91482
      62.390   238.41472   418.78574
      62.400   238.24261   418.65666
      62.410   238.07049   418.55595
      62.420   237.89838   418.49828
      62.430   237.72626   418.44061
      62.440   237.59718   418.42595
      62.450   237.52270   418.41130
      62.460   237.49125   418.39664
      62.470   237.45979   418.39923
      62.480   237.42833   418.44485
      62.490   237.39687   418.54221
      62.500   237.36541   418.68261
      62.510   237.39505   418.84025
      62.520   237.42469   418.99789
      62.530   237.48487   419.20726
      62.540   237.54505   419.37361
      62.550   237.58807   419.57443
      62.560   237.58807   419.77525
      62.570   237.58807   420.01056
      62.580   237.58807   420.20284
      62.590   237.63110   420.43536
      62.600   237.63110   420.62487
      62.610   237.63110   420.86610
      62.620   237.63110   421.06430
      62.630   237.63110   421.27974
      62.640   237.58807   421.45215
      62.650   237.54503   421.62456
      62.660   237.45898   421.75393
      62.670   237.37293   421.84882
      62.680   237.28689   421.85766
      62.690   237.20084   421.84925
      62.700   237.07175   421.71175
      62.710   236.89964   421.58267
      62.720   236.72752   421.36754
      62.730   236.55541   421.15241
      62.740   236.38330   420.93728
      62.750   236.16816   420.67911
      62.760   235.95303   420.42095
      62.770   235.73790   420.16279
      62.780   235.52277   419.94764
      62.790   235.30764   419.73249
      62.800   235.09251   419.56038
      62.810   234.87738   419.34525
      62.820   234.70528   419.17315
      62.830   234.49015   419.00105
      62.840   234.31803   418.87197
      62.850   234.15749   418.69985
      62.860   234.03998   418.57077
      62.870   233.94284   418.39866
      62.880   233.88872   418.26957
      62.890   233.83461   418.09746
      62.900   233.82351   417.96836
      62.910   233.85315   417.79625
      62.920   233.88279   417.66716
      62.930   233.91243   417.53808
      62.940   233.98510   417.45203
      62.950   234.05777   417.32295
      62.960   234.17348   417.23690
      62.970   234.28918   417.15085
      62.980   234.40489   417.10782
      62.990   234.52059   417.06479
      63.000   234.63630   417.06479
      63.010   234.73162   417.06479
      63.020   234.82695   417.03641
      63.030   234.92228   417.00803
      63.040   235.01761   416.97966
      63.050   235.10367   416.90825
      63.060   235.13513   416.83684
      63.070   235.16659   416.76543
