~VERSION INFORMATION SECTION
VERS.           2.0  :CWLS Log ASCII Standard - 2.0
WRAP.           NO   :One line per depth
#               Created in SeisLab
~WELL INFORMATION SECTION
#MNEM.UNIT  VALUE/NAME               :DESCRIPTION    
STRT.m  10                           :Start Depth    
STOP.m  125                          :Stop Depth     
STEP.m  0.01                         :Step           
NULL.    -999.25                     :Null Value     
WELL.    GDP1                        :Well Name      
CTRY.    Switzerland                 :Country        
CNTY.                                :County         
STAT.    Central Swiss Alps          :State          
API .                                :API number     
UWI .                                :Unique well ID 
LOC .    Grimsel Pass, Switzerland   :Well Location  
FLD .    n/a                         :Field          
COMP.    n/a                         :Company        
SRVC.    University of Lausanne      :Service Company
DATE.    2017                        :Date           
~PARAMETER INFORMATION SECTION
#MNEM .UNITS  VALUE   :DESCRIPTION OF PARAMETER
Casing.n/a    1       :slotted PVC casing      
~CURVE INFORMATION SECTION
#MNEM.UNITS  API CODES   :DESCRIPTION OF MNEMONIC
depth.m                  :measured depth         
NG   .cps                :Natural gamma          
Sp   .mV                 :Self potential         
Temp .DegC               :Temperature            
SPR  .Ohm                :Single point resistance
R8   .Ohm.m              :Normal resistivity     
R16  .Ohm.m              :Single point resistance
R32  .Ohm.m              :Normal resistivity     
R64  .Ohm.m              :Normal resistivity     
~A depth       NG          Sp          Temp        SPR         R8          R16         R32         R64         
# ...
     116.560   295.63714   1005.8522     7.84082    -999.250    3621.942    4848.523    3827.301    3663.126
     116.570   296.70601   1006.6427     7.84082    -999.250    3764.930    4902.321    3836.969    3660.081
     116.580   297.79841   1007.3701     7.84082    -999.250    3907.917    4958.406    3846.637    3657.036
     116.590   298.91994   1008.0370     7.83887    -999.250    4101.074    5016.923    3851.107    3653.990
     116.600   300.07237   1008.6493     7.83691    -999.250    4294.231    5078.001    3855.577    3650.945
     116.610   301.25348   1009.2160     7.84033    -999.250    4535.181    5141.751    3879.301    3647.900
     116.620   302.45660   1009.7475     7.84375    -999.250    4776.131    5208.262    3903.025    3644.855
     116.630   303.66993   1010.2554     7.84131    -999.250    5043.746    5277.597    3934.757    3641.810
     116.640   304.87603   1010.7512     7.83887    -999.250    5311.362    5349.788    3966.489    3638.764
     116.650   306.05199   1011.2459     7.83643    -999.250    5578.555    5424.840    4024.460    3635.719
     116.660   307.17025   1011.7494     7.83398    -999.250    5845.749    5502.721    4082.432    3632.674
     116.670   308.20009   1012.2707     7.83886    -999.250    6092.349    4511.840    4143.368    3629.629
     116.680   309.10969   1012.8174     7.84375    -999.250    6338.950    4601.926    4204.304    3626.583
     116.690   309.86898   1013.3964     7.83545    -999.250    6551.883    4729.534    4256.853    3623.538
     116.700   310.45270   1014.0137     7.82715    -999.250    6764.817    4857.142    4309.402    3620.493
     116.710   310.84337   1014.6752     7.83399    -999.250    6941.413    5032.229    4361.085    3617.448
     116.720   311.03323   1015.3868     7.84082    -999.250    7118.010    5207.316    4412.767    3614.403
     116.730   311.02492   1016.1547     7.83838    -999.250    7263.262    5420.714    4426.034    3611.357
     116.740   310.83105   1016.9857     7.83594    -999.250    7408.514    5634.112    4439.301    3608.312
     116.750   310.47283   1017.8873     7.83155    -999.250    7523.230    5850.943    4446.802    3605.267
     116.760   309.97836   1018.8678     7.82715    -999.250    7637.946    6067.774    4454.302    3602.222
     116.770   309.38076   1019.9358     7.84229    -999.250    7725.485    6271.725    4445.807    3599.177
     116.780   308.71631   1021.1005     7.85742    -999.250    7813.025    6475.676    7482.979    3596.131
     116.790   308.02252   1022.3707     7.86181    -999.250    7871.697    6647.109    7602.551    3593.086
     116.800   307.33634   1023.7543     7.86621    -999.250    7930.369    6818.543    7583.974    3590.041
     116.810   306.69231   1025.2571     7.86133    -999.250    7976.695    6978.474    7565.396    3586.996
     116.820   306.12090   1026.8818     7.85645    -999.250    8023.021    7138.406    7363.108    3583.951
     116.830   305.64708   1028.6269     7.85645    -999.250    8065.864    7274.613    7160.821    3580.905
     116.840   305.28899   1030.4859     7.85645    -999.250    8108.707    7410.820    7017.190    3577.860
     116.850   305.05679   1032.4473     7.85889    -999.250    8139.011    7551.424    6972.439    3574.815
     116.860   304.95149   1034.4944     7.86133    -999.250    8169.314    7692.028    7000.656    3571.770
     116.870   304.96402   1036.6066     7.86914    -999.250    8194.741    7814.527    7028.873    3568.725
     116.880   305.07469   1038.7598     7.87695    -999.250    8220.168    7937.026    7104.450    3565.679
     116.890   305.25365   1040.9282     7.85889    -999.250    8232.359    8029.136    7180.027    3562.634
     116.900   305.46264   1043.0850     7.84082    -999.250    8244.550    8121.246    7319.249    3559.589
     116.910   305.65790   1045.2044     7.84522    -999.250    8263.321    8194.548    7458.471    3556.544
     116.920   305.79340   1047.2622     7.84961    -999.250    8282.091    8267.849    7564.150    3553.499
     116.930   305.82389   1049.2370     7.84863    -999.250    8290.606    8285.187    7669.829    3550.453
     116.940   305.70714   1051.1108     7.84766    -999.250    8299.120    8302.526    7779.138    3547.408
     116.950   305.40596   1052.8693     7.84913    -999.250    8319.787    8309.260    7888.447    3691.502
     116.960   304.89003   1054.5018     7.85059    -999.250    8340.454    8315.994    8071.356    3809.979
     116.970   304.13781   1056.0014     7.86182    -999.250    8352.296    8306.048    8254.264    3928.456
     116.980   303.13775   1057.3640     7.87305    -999.250    8364.139    8296.101    8451.272    4125.630
     116.990   301.88877   1058.5876     7.86133    -999.250    8355.393    8286.194    8648.280    4322.803
     117.000   300.39972   1059.6720     7.84961    -999.250    8346.646    8276.286    8773.627    4470.601
     117.010   298.68875   1060.6176     7.84326    -999.250    8328.185    8245.363    8898.974    4618.399
     117.020   296.78263   1061.4245     7.83691    -999.250    8309.724    8214.440    8977.527    4656.438
     117.030   294.71625   1062.0923     7.84912    -999.250    8251.594    8176.629    9056.080    4694.478
     117.040   292.53185   1062.6197     7.86133    -999.250    8193.464    8138.817    9188.301    4703.514
     117.050   290.27767   1063.0046     7.86377    -999.250    8136.379    8266.051    9320.521    4712.550
     117.060   288.00607   1063.2441     7.86621    -999.250    8079.294    8255.479    9453.377    4666.034
     117.070   285.77164   1063.3356     7.87305    -999.250    8019.074    8242.648    9586.232    4619.518
     117.080   283.62949   1063.2768     7.87988    -999.250    7958.854    8227.835    9680.603    4459.907
     117.090   281.63391   1063.0666     7.87890    -999.250    7902.504    8211.315    9774.973    3501.730
     117.100   279.83731   1062.7055     7.87793    -999.250    7846.154    8193.360    9894.422    3501.478
     117.110   278.28922   1062.1961     7.87451    -999.250    7776.939    8174.230   10013.871    3498.785
     117.120   277.03501   1061.5433     7.87109    -999.250    7707.725    8154.175   10103.752    3496.091
     117.130   276.11404   1060.7546     7.86718    -999.250    7637.284    8133.429   10193.633    3488.475
     117.140   275.55750   1059.8405     7.86328    -999.250    7618.246    8112.214   10208.471    3480.858
     117.150   275.38591   1058.8141     7.85791    -999.250    7581.862    8090.731   10223.309    3473.242
     117.160   275.60695   1057.6915     7.85254    -999.250    7545.871    8069.163   10197.588    3465.625
     117.170   276.21364   1056.4911     7.85254    -999.250    7510.374    8047.674   10171.866    3464.274
     117.180   277.18343   1055.2338     7.85254    -999.250    7475.459    8026.406   10198.354    3462.924
     117.190   278.47805   1053.9418     7.85693    -999.250    7441.206    8005.484   10224.841    3462.684
     117.200   280.04459   1052.6385     7.86133    -999.250    7407.683    7985.008   10306.208    3462.444
     117.210   281.81774   1051.3483     7.85107    -999.250    7374.947    7965.061   10387.574    3461.252
     117.220   283.72304   1050.0957     7.84082    -999.250    7343.046    7945.706   10437.167    3460.060
     117.230   285.68099   1048.9055     7.85254    -999.250    7312.017    7926.987   10486.759    3466.558
     117.240   287.61133   1047.8020     7.86426    -999.250    7281.887    7908.932   10419.123    3473.056
     117.250   289.43724   1046.8095     7.86280    -999.250    7252.672    7891.552   10351.488    3482.700
     117.260   291.08897   1045.9513     7.86133    -999.250    7224.380    7874.846   10341.054    3492.345
     117.270   292.50658   1045.2501     7.85791    -999.250    7197.010    7858.798   10330.619    3496.796
     117.280   293.64173   1044.7269     7.85449    -999.250    7170.551    7843.382   10408.116    3501.246
     117.290   294.45858   1044.4009     7.85351    -999.250    7144.986    7828.564   10485.612    3515.376
