~VERSION INFORMATION SECTION
VERS.           2.0  :CWLS Log ASCII Standard - 2.0
WRAP.           NO   :One line per depth
#               Created in SeisLab
~WELL INFORMATION SECTION
#MNEM.UNIT  VALUE/NAME               :DESCRIPTION    
STRT.m  33.03                        :Start Depth    
STOP.m  122.23                       :Stop Depth     
STEP.m  0.03                         :Step           
NULL.    -999.25                     :Null Value     
WELL.    GDP1                        :Well Name      
CTRY.    Switzerland                 :Country        
CNTY.                                :County         
STAT.    Central Swiss Alps          :State          
API .                                :API number     
UWI .                                :Unique well ID 
LOC .    Grimsel Pass, Switzerland   :Well Location  
FLD .    n/a                         :Field          
COMP.    n/a                         :Company        
SRVC.    University of Lausanne      :Service Company
DATE.    2016                        :Date           
~PARAMETER INFORMATION SECTION
#MNEM .UNITS  VALUE   :DESCRIPTION OF PARAMETER
Casing.n/a    1       :slotted PVC casing      
~CURVE INFORMATION SECTION
#MNEM.UNITS  API CODES   :DESCRIPTION OF MNEMONIC
depth.m                  :measured depth         
NG   .cps                :Natural gamma          
Sp   .mV                 :Self potential         
Temp .DegC               :Temperature            
SPR  .Ohm                :Single point resistance
R8   .Ohm.m              :Normal resistivity     
R16  .Ohm.m              :Single point resistance
R32  .Ohm.m              :Normal resistivity     
R64  .Ohm.m              :Normal resistivity     
~A depth       NG          Sp          Temp        SPR         R8          R16         R32         R64         
# ...
      46.350   300.43800   1713.8800     6.27637        4416      1308.5      1807.6      2771.2      4210.8
      46.390   259.29700   1702.8800     6.31152        4384      1219.9      1529.6      2512.4      4043.6
      46.420   303.46900   1688.5000     6.29492        4344      1269.6      1853.6      2717.6      3954.1
      46.440   275.12500   -999.0000     6.25000        4265      1244.1      1771.0      2426.0      4140.6
      46.470   250.99200   1685.8800     6.26758        4302      1077.9      1874.4      3012.7      4239.7
      46.510   274.39100   1703.5000     6.29980        4232      1231.7      1664.3      3342.5      3955.1
      46.530   265.12500   1741.0000     6.28320        4201      1170.3      1915.9      4968.1      3879.1
      46.570   277.15600   1782.5000     6.26758        4165      1215.7      1766.9     18169.6      4077.7
      46.600   246.97700   1800.5000     6.27930        4106      1100.2      1641.1     57363.9      4005.3
      46.630   264.42200   1814.3800     6.27734        4180      1227.5      1767.2    -17163.4      3746.5
      46.650   249.26600   1787.8800     6.28418        4113      1140.5      1597.9    -15484.7      3772.3
      46.690   216.81300   1753.7500     6.24902        4088      1071.8      1941.1     12767.8      3884.2
      46.720   217.32800   1707.2500     6.25391        4027      1141.4      2292.0      4074.4      4115.9
      46.750   203.18800   1658.8800     6.27734        4075      1051.6      3602.4      2813.6      3564.6
      46.780   222.62500   1602.3800     6.27051        3992      1264.0     12359.8      2515.8      4301.4
      46.810   230.53900   1543.8800     6.24316        3964      1554.2     37977.5      2463.0      3903.8
      46.830   242.43800   1414.0000     6.26367        4150      2625.9    -12361.9      2505.7      4457.7
      46.870   213.19500   1270.5000     6.26270        4584      9640.0    -12234.6      2454.4      4426.0
      46.900   202.66400   1050.1300     6.27734        7437     36585.6      8985.0      2434.8      3446.1
      46.930   229.19500    814.5000     6.22852       16435    -19341.8      2651.8      2443.7      4600.8
      46.960   233.60200    711.2500     6.24707       42019    -46142.3      1857.1      2454.4      4387.7
      46.990  -999.00000    634.2500     6.27930      174499     44206.3      1672.7      2287.7      4704.1
      47.010   242.90600    638.5000     6.28320      560609     11312.3      1611.8      2395.8      3992.4
      47.050   226.41400    658.7500     6.24512     -240074      7141.7      1640.2      2432.5      4984.5
      47.080   230.56300    810.0000     6.26074     -263953      4649.4      1648.7      2471.0      4554.0
      47.100   250.71100    986.6250     6.26563      132633      3131.9      1710.7      2467.4      4044.6
      47.140   287.20300   1177.7500     6.24707       20800      2379.0      1758.0      2421.6      4413.0
      47.170   242.60900   1370.7500     6.21680        9627      1846.2      1751.3      2571.9      3899.7
      47.190   276.67200   1445.0000     6.20801        6309      1586.7      1665.6      2469.7      4924.9
      47.220   270.15600   1496.1300     6.24316        4942      1388.4      1711.2      2444.6      5232.8
      47.260   255.71900   1518.8800     6.26074        4677      1290.6      1707.3      2414.9      7442.1
      47.280   248.85200   1536.6300     6.22461        4577      1187.3      1715.8      2577.8     29822.7
      47.320   207.85900   1522.3800     6.21289        4547      1220.1      1720.8      2535.4     97561.7
      47.350   244.64100   1502.2500     6.24902        4500      1229.1      1695.8      2430.4    -27271.5
      47.380   278.48400   1450.8800     6.24707        4419      1255.7      1753.4      2376.4    -22568.1
      47.400   241.28900   1393.3800     6.20605        4305      1275.4      1697.2      2578.9     20803.7
      47.440   219.90600   1346.6300     6.20117        4277      1282.2      1721.8      2579.1      6878.7
      47.470   264.35900   1302.5000     6.24902        4222      1332.2      1744.9      2527.4      4621.9
      47.500   272.75000   1258.5000     6.22949        4181      1302.3      1844.4      2538.5      4092.9
      47.530   215.79700   1215.0000     6.19434        4159      1314.6      1817.2      2603.0      4055.3
      47.560   212.62500   1173.7500     6.22168        4201      1324.2      1783.4      2842.8      4154.3
      47.580   196.88300   1133.3800     6.25000        4276      1371.9      1795.8      2587.5      4012.7
      47.620   258.43800   1110.2500     6.23145        4267      1353.3      1909.0      2583.9      3949.4
      47.650   264.35900   1090.7500     6.19238        4298      1340.0      1926.2      2715.6      4006.7
      47.680   223.39800   1069.7500     6.20801        4372      1369.4      1936.3      -999.0      4053.9
      47.710   230.79700   1048.1300     6.21484        4458      1461.5      1982.7      2628.6      3726.7
      47.740   242.02300   1019.6300     6.23145        4475      1523.6      2008.6      2426.5      3915.0
      47.760   215.49200    989.3750     6.16895        4525      1605.8      2136.8      2533.8      4006.2
      47.800   233.82000    970.7500     6.19434        4765      1745.7      2058.4      2508.3      4076.0
      47.830   225.48400    954.5000     6.20996        5123      1900.4      2093.2      2236.4      4032.5
      47.850   223.04700    939.8750     6.21973        5579      2130.1      2153.9      2356.2      3932.2
      47.890   213.35900    925.6250     6.20117        6120      2292.3      -999.0      2340.2      4259.1
      47.920   205.85900    921.1250     6.20605        6725      2578.8      2146.9      2426.3      4093.9
      47.940   218.92200    919.2500     6.22168        7299      2862.6      2073.4      2359.4      4011.7
      47.970   224.55500    907.1250     6.19238        7625      -999.0      2117.9      2270.7      3923.0
      48.010   230.05500    893.2500     6.18262        7863      3194.8      2096.3      2257.9      4278.9
      48.030   217.88300    874.3750     6.20410        7986      3204.6      1988.9      2456.9      4202.2
      48.070   212.10900    853.8750     6.22168        7907      3173.0      2087.9      2233.9      3931.4
      48.100   224.12500    846.0000     6.20313        -999      2942.3      2081.9      2416.9      3781.3
      48.130   238.15600    841.0000     6.16895        7535      2664.6      2129.1      2269.3      4156.8
      48.150   212.86700    844.3750     6.18066        7321      2504.8      2121.5      2110.2      4172.7
      48.190   260.03100    849.7500     6.21680        6992      2283.7      2095.8      2480.8      3963.0
      48.220   235.50000    858.1250     6.23145        6469      2153.0      2065.9      2231.8      3962.6
      48.250   231.64100    866.7500     6.18555        6023      2038.7      2149.3      2487.2      4091.2
      48.280   231.28900    861.3750     6.17676        5737      1959.8      2007.5      2212.7      4520.7
      48.310   217.76600    852.7500     6.21484        5402      1883.5      2052.1      2479.2      3993.2
      48.330   247.30500    848.5000     6.18262        5191      1882.9      1864.3      2348.4      3908.5
      48.370   242.02300    845.5000     6.19434        5089      1768.2      1700.8      2386.0      4209.5
      48.400   240.66400    827.2500     6.19434        5161      1752.7      1879.2      2549.3      -999.0
      48.430   241.65600    806.3750  -999.00000        5253      1594.3      1724.7      2004.0      4012.5
      48.460   233.68800    784.6250     6.21289        5321      1449.2      1832.4      2303.8      3638.5
      48.490   212.97700    762.1250     6.19238        5321      1506.7      1664.0      2961.0      3919.7
      48.510   217.35900    752.2500     6.18359        5258      1402.5      1836.8      4609.5      3933.8
      48.550   255.95300    745.2500     6.23828        5051      1455.9      1778.9      9077.1      3421.5
