~VERSION INFORMATION SECTION
VERS.           2.0  :CWLS Log ASCII Standard - 2.0
WRAP.           NO   :One line per depth
#               Created in SeisLab
~WELL INFORMATION SECTION
#MNEM.UNIT  VALUE/NAME               :DESCRIPTION    
STRT.m  10                           :Start Depth    
STOP.m  124                          :Stop Depth     
STEP.m  0.01                         :Step           
NULL.    -999.25                     :Null Value     
WELL.    GDP1                        :Well Name      
CTRY.    Switzerland                 :Country        
CNTY.                                :County         
STAT.    Central Swiss Alps          :State          
API .                                :API number     
UWI .                                :Unique well ID 
LOC .    Grimsel pass, Switzerland   :Well Location  
FLD .    n/a                         :Field          
COMP.    n/a                         :Company        
SRVC.    University of Lausanne      :Service Company
DATE.    2015/2016                   :Date           
~PARAMETER INFORMATION SECTION
#MNEM .UNITS  VALUE   :DESCRIPTION OF PARAMETER
Casing.n/a    0       :open hole/cased hole    
~CURVE INFORMATION SECTION
#MNEM       .UNITS  API CODES   :DESCRIPTION OF MNEMONIC      
depth       .m                  :measured depth (interpolated)
BHR velocity.m/ns               :BHR velocity 2015            
BHR velocity.m/ns               :BHR velocity 2016            
~A depth       BHR_velocity BHR_velocity
# ...
      46.890     0.10665     0.10679
      46.900     0.10662     0.10676
      46.910     0.10659     0.10672
      46.920     0.10654     0.10666
      46.930     0.10649     0.10659
      46.940     0.10647     0.10652
      46.950     0.10645     0.10645
      46.960     0.10644     0.10639
      46.970     0.10642     0.10634
      46.980     0.10639     0.10628
      46.990     0.10636     0.10623
      47.000     0.10633     0.10618
      47.010     0.10630     0.10613
      47.020     0.10627     0.10610
      47.030     0.10624     0.10607
      47.040     0.10618     0.10603
      47.050     0.10612     0.10600
      47.060     0.10610     0.10597
      47.070     0.10607     0.10595
      47.080     0.10602     0.10593
      47.090     0.10597     0.10592
      47.100     0.10590     0.10590
      47.110     0.10583     0.10588
      47.120     0.10576     0.10590
      47.130     0.10568     0.10592
      47.140     0.10560     0.10593
      47.150     0.10553     0.10595
      47.160     0.10544     0.10597
      47.170     0.10535     0.10585
      47.180     0.10525     0.10573
      47.190     0.10514     0.10562
      47.200     0.10503     0.10550
      47.210     0.10492     0.10538
      47.220     0.10482     0.10525
      47.230     0.10473     0.10512
      47.240     0.10466     0.10499
      47.250     0.10460     0.10486
      47.260     0.10449     0.10473
      47.270     0.10439     0.10465
      47.280     0.10432     0.10456
      47.290     0.10426     0.10448
      47.300     0.10423     0.10440
      47.310     0.10420     0.10432
      47.320     0.10416     0.10430
      47.330     0.10411     0.10429
      47.340     0.10405     0.10427
      47.350     0.10400     0.10426
      47.360     0.10400     0.10424
      47.370     0.10400     0.10422
      47.380     0.10398     0.10421
      47.390     0.10396     0.10419
      47.400     0.10393     0.10417
      47.410     0.10390     0.10416
      47.420     0.10390     0.10411
      47.430     0.10390     0.10406
      47.440     0.10389     0.10401
      47.450     0.10389     0.10396
      47.460     0.10388     0.10392
      47.470     0.10387     0.10392
      47.480     0.10389     0.10392
      47.490     0.10390     0.10392
      47.500     0.10389     0.10392
      47.510     0.10389     0.10392
      47.520     0.10389     0.10395
      47.530     0.10389     0.10398
      47.540     0.10391     0.10401
      47.550     0.10394     0.10405
      47.560     0.10396     0.10408
      47.570     0.10398     0.10408
      47.580     0.10398     0.10408
      47.590     0.10398     0.10408
      47.600     0.10402     0.10408
      47.610     0.10407     0.10408
      47.620     0.10412     0.10413
      47.630     0.10416     0.10417
      47.640     0.10418     0.10422
      47.650     0.10420     0.10427
      47.660     0.10423     0.10432
      47.670     0.10426     0.10435
      47.680     0.10431     0.10438
      47.690     0.10437     0.10442
      47.700     0.10439     0.10445
      47.710     0.10441     0.10448
      47.720     0.10445     0.10456
      47.730     0.10448     0.10465
      47.740     0.10456     0.10473
      47.750     0.10463     0.10481
      47.760     0.10468     0.10489
      47.770     0.10473     0.10499
      47.780     0.10475     0.10509
      47.790     0.10477     0.10519
      47.800     0.10482     0.10529
      47.810     0.10488     0.10538
      47.820     0.10494     0.10537
      47.830     0.10499     0.10535
      47.840     0.10502     0.10533
      47.850     0.10505     0.10532
      47.860     0.10508     0.10530
      47.870     0.10511     0.10535
      47.880     0.10516     0.10540
      47.890     0.10522     0.10545
      47.900     0.10526     0.10550
      47.910     0.10530     0.10555
      47.920     0.10533     0.10558
      47.930     0.10535     0.10562
      47.940     0.10536     0.10565
      47.950     0.10537     0.10568
      47.960     0.10542     0.10572
      47.970     0.10547     0.10577
      47.980     0.10551     0.10582
      47.990     0.10555     0.10587
      48.000     0.10557     0.10592
      48.010     0.10560     0.10597
      48.020     0.10564     0.10605
      48.030     0.10568     0.10613
      48.040     0.10575     0.10622
      48.050     0.10581     0.10630
      48.060     0.10587     0.10639
      48.070     0.10593     0.10649
      48.080     0.10598     0.10659
      48.090     0.10603     0.10669
      48.100     0.10610     0.10679
      48.110     0.10618     0.10689
      48.120     0.10624     0.10701
      48.130     0.10630     0.10713
      48.140     0.10638     0.10725
      48.150     0.10645     0.10737
      48.160     0.10651     0.10749
      48.170     0.10657     0.10761
      48.180     0.10665     0.10773
      48.190     0.10673     0.10786
      48.200     0.10680     0.10798
      48.210     0.10687     0.10810
      48.220     0.10695     0.10819
      48.230     0.10704     0.10827
      48.240     0.10709     0.10836
      48.250     0.10714     0.10845
      48.260     0.10720     0.10854
      48.270     0.10726     0.10857
      48.280     0.10731     0.10861
      48.290     0.10736     0.10864
      48.300     0.10742     0.10868
      48.310     0.10748     0.10871
      48.320     0.10749     0.10873
      48.330     0.10750     0.10875
      48.340     0.10754     0.10876
      48.350     0.10758     0.10878
      48.360     0.10761     0.10880
      48.370     0.10764     0.10885
      48.380     0.10766     0.10891
      48.390     0.10768     0.10896
      48.400     0.10769     0.10901
      48.410     0.10770     0.10906
      48.420     0.10774     0.10912
      48.430     0.10778     0.10917
      48.440     0.10781     0.10922
      48.450     0.10784     0.10928
      48.460     0.10786     0.10933
      48.470     0.10788     0.10942
      48.480     0.10791     0.10951
      48.490     0.10794     0.10960
      48.500     0.10798     0.10969
      48.510     0.10802     0.10978
      48.520     0.10807     0.10978
      48.530     0.10812     0.10978
      48.540     0.10816     0.10978
      48.550     0.10820     0.10978
      48.560     0.10827     0.10978
      48.570     0.10834     0.10990
      48.580     0.10842     0.11003
      48.590     0.10850     0.11016
      48.600     0.10858     0.11028
      48.610     0.10866     0.11041
      48.620     0.10873     0.11048
      48.630     0.10879     0.11055
      48.640     0.10887     0.11063
      48.650     0.10895     0.11070
      48.660     0.10902     0.11077
      48.670     0.10909     0.11085
      48.680     0.10916     0.11092
      48.690     0.10924     0.11099
      48.700     0.10930     0.11107
      48.710     0.10936     0.11114
      48.720     0.10942     0.11116
      48.730     0.10948     0.11118
      48.740     0.10955     0.11120
      48.750     0.10961     0.11121
      48.760     0.10968     0.11123
      48.770     0.10975     0.11125
      48.780     0.10979     0.11127
      48.790     0.10984     0.11129
      48.800     0.10988     0.11131
      48.810     0.10992     0.11132
      48.820     0.10996     0.11131
      48.830     0.11000     0.11129
      48.840     0.11004     0.11127
      48.850     0.11008     0.11125
      48.860     0.11012     0.11123
      48.870     0.11015     0.11121
      48.880     0.11017     0.11120
      48.890     0.11019     0.11118
      48.900     0.11020     0.11116
      48.910     0.11021     0.11114
      48.920     0.11024     0.11118
      48.930     0.11027     0.11121
      48.940     0.11029     0.11125
      48.950     0.11031     0.11129
      48.960     0.11031     0.11132
      48.970     0.11031     0.11129
      48.980     0.11034     0.11125
      48.990     0.11036     0.11121
      49.000     0.11039     0.11118
      49.010     0.11042     0.11114
      49.020     0.11042     0.11112
      49.030     0.11042     0.11110
      49.040     0.11042     0.11109
      49.050     0.11042     0.11107
