~VERSION INFORMATION SECTION
VERS.           2.0  :CWLS Log ASCII Standard - 2.0
WRAP.           NO   :One line per depth
#               Created in SeisLab
~WELL INFORMATION SECTION
#MNEM.UNIT  VALUE/NAME               :DESCRIPTION    
STRT.m  24.75                        :Start Depth    
STOP.m  125.11                       :Stop Depth     
STEP.m  0.02                         :Step           
NULL.    -999.25                     :Null Value     
WELL.    GDP1                        :Well Name      
CTRY.    Switzerland                 :Country        
CNTY.                                :County         
STAT.    Central Swiss Alps          :State          
API .                                :API number     
UWI .                                :Unique well ID 
LOC .    Grimsel Pass, Switzerland   :Well Location  
FLD .    n/a                         :Field          
COMP.    n/a                         :Company        
SRVC.    University of Lausanne      :Service Company
DATE.    2015                        :Date           
~PARAMETER INFORMATION SECTION
#MNEM .UNITS    VALUE   :DESCRIPTION OF PARAMETER
Casing.n/a      0       :open hole               
Mud   .Polymer  1       :Mud type                
~CURVE INFORMATION SECTION
#MNEM.UNITS  API CODES   :DESCRIPTION OF MNEMONIC
depth.m                  :measured depth         
NG   .cps                :Natural gamma          
Sp   .mV                 :Self potential         
Temp .DegC               :Temperature            
SPR  .Ohm                :Single point resistance
R8   .Ohm.m              :Normal resistivity     
R16  .Ohm.m              :Single point resistance
R32  .Ohm.m              :Normal resistivity     
R64  .Ohm.m              :Normal resistivity     
~A depth       NG          Sp          Temp        SPR         R8          R16         R32         R64         
# ...
     109.110   3427.6000    550.7500     8.93164   11459.900    7903.350    6766.140    6186.450    4581.220
     109.130   3726.0500    542.8750     8.90820   11396.900    7948.890    6550.670    5912.580    4677.570
     109.150   3034.2600    558.3750     8.95508   11506.100    7836.010    6352.290    5678.830    4552.250
     109.170   4000.8600    561.7500     8.89258   11416.300    7673.590    6156.290    5542.330    4122.120
     109.190   3436.1200    538.0000     8.93164   11076.500    7579.720    6123.230    5538.090    4338.380
     109.210   3482.8000    536.7500     8.90820   10860.300    7440.130    6023.140    5505.110    4765.180
     109.230   2986.2300    585.7500     8.91309   10771.200    7180.720    5771.210    5617.590    4557.830
     109.250   3170.8000    612.5000     8.93164   10542.100    6908.270    5743.460    5577.520    4078.120
     109.270   3337.9300    595.5000     8.89063   10297.100    6645.350    5772.290    5537.500    4208.660
     109.290   3578.0800    573.2500     8.93164   10213.000    6484.290    5676.130    5899.990    4802.840
     109.310   2820.8400    535.5000     8.89941   10165.000    6247.190    5456.570    6004.470    4878.010
     109.330   3092.1700    514.0000     8.93164   10053.200    5915.920    5237.050    5672.210    4364.830
     109.350   2948.4700    523.0000     8.90820    9958.520    5750.310    5059.540    5730.520    4164.600
     109.370   3550.9700    529.3750     8.93848    9899.210    5648.190    4938.080    6117.790    4313.000
     109.390   2873.7100    532.0000     8.93164    9888.830    5504.280    4886.810    6366.820    4411.390
     109.410   3325.7300    544.2500     8.91602    9692.630    5304.570    4875.770    6699.190    3874.480
     109.430   3354.7800    579.8750     8.95508    9311.320    5136.050    4956.210    6590.670    4028.590
     109.450   3452.5900    601.2500     8.90820    8996.720    5041.240    4930.450    6152.960    5401.440
     109.470   3726.4300    594.3750     8.93652    8730.880    5011.100    4932.830    6301.400    6096.620
     109.490   3329.6100    592.6250     8.91992    8411.380    5020.880    5221.670    6591.160    5789.520
     109.510   4371.9300    600.1250     8.91309    8030.610    5081.840    5360.440    6751.580    5647.270
     109.530   3091.3900    598.1250     8.92676    7658.000    5206.480    5201.050    7157.570    5776.940
     109.550   2945.5600    575.1250     8.88770    7392.510    5250.230    5281.610    7402.900    5564.110
     109.570   3084.4200    555.3750     8.91504    7213.300    5305.040    5572.780    7241.110    5241.820
     109.590   3230.8400    539.6250     8.89746    7101.160    5519.270    5819.070    7006.510    5281.790
     109.610   3434.7700    540.8750     8.91797    7171.310    5626.130    6094.510    6718.930    5421.100
     109.630   3689.2500    581.8750     8.88867    7411.580    5531.660    6049.840    6453.140    5167.170
     109.650   2720.1300    608.0000     8.93652    7757.250    5563.190    5832.370    6377.080    4778.110
     109.670   3036.5900    604.0000     8.88379    8189.740    5702.980    5989.900    6220.210    4601.860
     109.690   3599.0000    592.7500     8.91602    8740.590    5832.900    6210.720    6234.960    4725.140
     109.710   3067.3800    563.8750     8.91309    9194.480    6016.230    6272.060    6627.600    4537.800
     109.730   2885.7200    554.1250     8.93164    9460.120    6041.710    6437.580    6885.190    4288.290
     109.750   3196.7500    581.1250     8.91504    9781.950    6032.060    6583.790    6817.340    4655.820
     109.770   3521.3400    592.6250     8.89746   10146.400    6278.490    6533.920    6495.210    4965.250
     109.790   3655.5500    577.2500     8.91309   10519.600    6549.930    6344.570    6363.210    5054.190
     109.810   3164.4100    576.1250     8.91504   10905.200    6694.560    6031.710    6522.310    4804.790
     109.830   2693.2100    603.8750     8.91797   11051.100    6878.790    5818.760    6334.560    4492.960
     109.850   2815.2200    621.2500     8.91602   11084.100    7033.900    5826.960    6289.200    4173.260
     109.870   3533.9300    618.7500     8.92188   11301.800    7047.560    5724.010    6421.100    4002.290
     109.890   2859.3800    616.5000     8.89453   11472.400    6931.250    5694.250    6112.520    4133.550
     109.910   3041.6200    616.7500     8.87012   11518.200    6696.180    5981.160    6133.400    4116.350
     109.930   3471.1800    614.6250     8.90430   11574.200    6504.730    6186.930    6557.730    4309.910
     109.950   3432.6400    607.6250     8.94922   11586.600    6439.010    6115.290    6743.090    4262.580
     109.970   3226.7700    594.7500     8.89453   11435.800    6319.910    5882.470    6698.650    4152.330
     109.990   3141.7500    566.6250     8.89941   11053.700    6296.380    5820.340    6671.730    4622.400
     110.010   3912.5500    545.2500     8.93164   10472.100    6530.640    5926.170    6913.550    4606.870
     110.030   3024.0000    532.1250     8.88867    9922.850    6755.910    5803.110    7152.190    3929.740
     110.050   2740.0800    526.5000     8.92676    9500.710    6796.650    5753.640    6928.560    3974.060
     110.070   3484.1500    534.7500     8.88867    9108.340    6691.320    5776.780    6405.560    4558.300
     110.090   3392.5500    541.2500     8.87891    8914.260    6648.870    5576.510    6164.210    4793.600
     110.110   2679.0700    545.0000     8.90234    9067.470    6695.870    5611.150    6222.050    5157.340
     110.130   2638.6000    558.3750     8.90625    9388.370    6590.100    5859.160    6444.210    4848.010
     110.150   2802.4400    594.5000     8.90430    9661.160    6485.360    6013.200    6792.770    3945.560
     110.170   3223.4800    613.7500     8.90820    9828.580    6394.170    6103.580    6671.190    4021.970
     110.190   2908.7600    602.2500     8.89941    9941.070    6171.550    6159.320    6400.410    4394.730
     110.210   3813.0000    590.6250     8.91602   10029.200    6113.430    6301.600    6388.640    4720.870
     110.230   3044.1400    578.3750     8.86719    9983.710    6209.390    6446.170    6349.080    5565.860
     110.250   3108.2400    578.2500     8.86523    9838.080    6286.260    6332.020    6523.870    5969.580
     110.270   3193.4600    602.0000     8.91602    9629.360    6366.820    6000.650    6752.370    5561.470
     110.290   3300.9400    615.8750     8.91309    9302.110    6419.620    5774.300    6934.860    5276.870
     110.310   3045.6900    611.6250     8.93164    9060.780    6512.070    5718.690    7181.070    5111.420
     110.330   3231.0300    607.2500     8.86328    8871.410    6583.730    5784.820    7318.200    4804.670
     110.350   3297.2600    601.6250     8.88379    8702.700    6420.310    6004.630    7354.970    4639.850
     110.370   3031.3600    587.7500     8.88379    8657.920    6084.690    5994.870    7202.950    4480.050
     110.390   3315.8600    551.6250     8.88867    8695.340    5836.900    5836.030    7198.760    4685.170
     110.410   3723.9200    531.3750     8.86133    8833.770    5730.760    5812.100    7338.680    5286.610
     110.430   3590.8700    540.3750     8.93164    8909.420    5707.440    5845.020    7223.620    5528.580
     110.450   3040.4600    549.3750     8.89453    8583.170    5763.080    6033.200    7432.070    5350.770
     110.470   3432.2500    562.0000     8.89453    7970.310    5680.680    6209.440    7994.480    4795.320
     110.490   2764.2900    577.0000     8.91309    7433.570    5530.780    6312.680    8084.850    4480.260
     110.510   3260.6600    598.7500     8.92969    7158.850    5456.960    6438.410    7978.260    4662.210
     110.530   2910.1200    607.1250     8.92676    7146.190    5412.700    6501.280    8192.820    4303.090
     110.550   3366.6000    590.0000     8.89258    7282.240    5465.770    6471.450    8287.180    4310.550
     110.570   2784.2400    584.1250     8.88867    7351.400    5511.650    6331.150    8186.060    4699.970
