~VERSION INFORMATION SECTION
VERS.           2.0  :CWLS Log ASCII Standard - 2.0
WRAP.           NO   :One line per depth
#               Created in SeisLab
~WELL INFORMATION SECTION
#MNEM.UNIT  VALUE/NAME               :DESCRIPTION    
STRT.m  10                           :Start Depth    
STOP.m  125                          :Stop Depth     
STEP.m  0.01                         :Step           
NULL.    -999.25                     :Null Value     
WELL.    GDP1                        :Well Name      
CTRY.    Switzerland                 :Country        
CNTY.                                :County         
STAT.    Central Swiss Alps          :State          
API .                                :API number     
UWI .                                :Unique well ID 
LOC .    Grimsel Pass, Switzerland   :Well Location  
FLD .    n/a                         :Field          
COMP.    n/a                         :Company        
SRVC.    University of Lausanne      :Service Company
DATE.    2015                        :Date           
~PARAMETER INFORMATION SECTION
#MNEM .UNITS    VALUE   :DESCRIPTION OF PARAMETER
Casing.n/a      0       :open hole               
Mud   .Polymer  1       :Mud type                
~CURVE INFORMATION SECTION
#MNEM.UNITS  API CODES   :DESCRIPTION OF MNEMONIC
depth.m                  :measured depth         
NG   .cps                :Natural gamma          
Sp   .mV                 :Self potential         
Temp .DegC               :Temperature            
SPR  .Ohm                :Single point resistance
R8   .Ohm.m              :Normal resistivity     
R16  .Ohm.m              :Single point resistance
R32  .Ohm.m              :Normal resistivity     
R64  .Ohm.m              :Normal resistivity     
~A depth       NG          Sp          Temp        SPR         R8          R16         R32         R64         
# ...
      55.880   268.21725    567.1091    10.84960    9953.879    3796.512    4536.585    5602.912    5073.013
      55.890   267.57444    568.1104    10.85940    9807.426    3762.326    4525.076    5588.110    5083.072
      55.900   266.92804    569.1023    10.86425    9667.051    3731.422    4514.005    5572.441    5091.690
      55.910   266.28225    570.0461    10.86910    9533.515    3703.836    4503.314    5555.926    5098.868
      55.920   265.64080    570.9078    10.87400    9407.508    3679.579    4492.947    5538.594    5104.621
      55.930   265.00691    571.6609    10.87890    9289.643    3658.637    4482.850    5520.484    5108.970
      55.940   264.38325    572.2886    10.89060    9180.458    3640.975    4472.976    5501.641    5111.948
      55.950   263.77189    572.7862    10.90230    9080.407    3626.537    4463.281    5482.117    5113.594
      55.960   263.17438    573.1625    10.88865    8989.860    3615.244    4453.728    5461.969    5113.960
      55.970   262.59188    573.4399    10.87500    8909.103    3607.002    4444.284    5441.260    5113.102
      55.980   262.02523    573.6535    10.86620    8838.337    3601.696    4434.925    5420.056    5111.083
      55.990   261.47514    573.8496    10.85740    8777.675    3599.197    4425.633    5398.425    5107.975
      56.000   260.94217    574.0826    10.86130    8727.148    3599.364    4416.398    5376.438    5103.854
      56.010   260.42682    574.4106    10.86520    8686.700    3602.040    4407.218    5354.165    5098.802
      56.020   259.92948    574.8912    10.86715    8656.198    3607.061    4398.098    5331.675    5092.904
      56.030   259.45038    575.5763    10.86910    8635.430    3614.255    4389.051    5309.036    5086.252
      56.040   258.98969    576.5078    10.87305    8624.109    3623.441    4380.098    5286.313    5078.937
      56.050   258.54746    577.7140    10.87700    8621.881    3634.436    4371.265    5263.565    5071.055
      56.060   258.12373    579.2065    10.86040    8628.326    3647.054    4362.589    5240.849    5062.703
      56.070   257.71862    580.9790    10.84380    8642.968    3661.110    4354.110    5218.215    5053.978
      56.080   257.33239    583.0075    10.83400    8665.276    3676.418    4345.873    5195.705    5044.978
      56.090   256.96547    585.2511    10.82420    8694.677    3692.796    4337.931    5173.356    5035.801
      56.100   256.61846    587.6542    10.84665    8730.557    3710.068    4330.338    5151.196    5026.542
      56.110   256.29209    590.1501    10.86910    8772.274    3728.063    4323.154    5129.243    5017.296
      56.120   255.98724    592.6643    10.85935    8819.160    3746.620    4316.438    5107.510    5008.154
      56.130   255.70485    595.1187    10.84960    8870.534    3765.583    4310.252    5085.996    4999.203
      56.140   255.44597    597.4353    10.83400    8925.706    3784.810    4304.657    5064.694    4990.529
      56.150   255.21168    599.5401    10.81840    8983.986    3804.170    4299.713    5043.588    4982.211
      56.160   255.00302    601.3659    10.82620    9044.693    3823.543    4295.478    5022.649    4974.322
      56.170   254.82096    602.8546    10.83400    9107.161    3842.820    4292.005    5001.843    4966.933
      56.180   254.66644    603.9591    10.84475    9170.744    3861.909    4289.344    4981.124    4960.104
      56.190   254.54037    604.6442    10.85550    9234.829    3880.729    4287.537    4960.440    4953.893
      56.200   254.44364    604.8869    10.84670    9298.835    3899.213    4286.622    4939.730    4948.346
      56.210   254.37715    604.6767    10.83790    9362.222    3917.307    4286.625    4918.925    4943.505
      56.220   254.34175    604.0155    10.82910    9424.498    3934.970    4287.567    4897.952    4939.403
      56.230   254.33828    602.9169    10.82030    9485.219    3952.176    4289.456    4876.730    4936.064
      56.240   254.36755    601.4057    10.85350    9543.996    3968.908    4292.291    4855.174    4933.504
      56.250   254.43041    599.5168    10.88670    9600.496    3985.162    4296.060    4833.197    4931.732
      56.260   254.52775    597.2940    10.85840    9654.446    4000.944    4300.737    4810.707    4930.746
      56.270   254.66043    594.7881    10.83010    9705.634    4016.269    4306.286    4787.611    4930.538
      56.280   254.82914    592.0551    10.85060    9753.906    4031.160    4312.657    4763.818    4931.088
      56.290   255.03430    589.1537    10.87110    9799.171    4045.648    4319.788    4739.236    4932.372
      56.300   255.27594    586.1430    10.85255    9841.396    4059.769    4327.602    4713.775    4934.354
      56.310   255.55355    583.0799    10.83400    9880.604    4073.563    4336.013    4687.350    4936.994
      56.320   255.86604    580.0176    10.82225    9916.877    4087.072    4344.919    4659.879    4940.242
      56.330   256.21169    577.0038    10.81050    9950.342    4100.339    4354.207    4631.288    4944.042
      56.340   256.58826    574.0799    10.82320    9981.178    4113.409    4363.754    4601.508    4948.332
      56.350   256.99311    571.2811    10.83590   10009.605    4126.321    4373.424    4570.479    4953.045
      56.360   257.42329    568.6358    10.85055   10035.878    4139.114    4383.072    4538.151    4958.109
      56.370   257.87569    566.1661    10.86520   10060.288    4151.820    4392.544    4504.483    4963.447
      56.380   258.34705    563.8877    10.83495   10083.146    4164.466    4401.676    4469.445    4968.980
      56.390   258.83397    561.8113    10.80470   10104.786    4177.069    4410.301    4433.020    4974.627
      56.400   259.33296    559.9429    10.84375   10125.552    4189.640    4418.243    4395.203    4980.303
      56.410   259.84051    558.2858    10.88280   10145.796    4202.177    4425.323    4356.002    4985.925
      56.420   260.35318    556.8423    10.86915   10165.866    4214.670    4431.360    4315.439    4991.410
      56.430   260.86775    555.6153    10.85550   10186.104    4227.093    4436.169    4273.550    4996.677
      56.440   261.38136    554.6093    10.85355   10206.836    4239.409    4439.570    4230.385    5001.646
      56.450   261.89157    553.8305    10.85160   10228.367    4251.570    4441.381    4186.007    5006.242
      56.460   262.39642    553.2860    10.85060   10250.976    4263.510    4441.425    4140.495    5010.393
      56.470   262.89439    552.9814    10.84960   10274.908    4275.150    4439.532    4093.941    5014.033
      56.480   263.38435    552.9198    10.84670   10300.368    4286.399    4435.536    4046.450    5017.102
      56.490   263.86541    553.0991    10.84380   10327.519    4297.150    4429.282    3998.140    5019.545
      56.500   264.33678    553.5111    10.84085   10356.476    4307.283    4420.624    3949.143    5021.317
      56.510   264.79764    554.1403    10.83790   10387.302    4316.663    4409.428    3899.601    5022.380
      56.520   265.24714    554.9639    10.83985   10420.006    4325.143    4395.575    3849.668    5022.703
      56.530   265.68439    555.9522    10.84180   10454.538    4332.567    4378.958    3799.505    5022.267
      56.540   266.10869    557.0696    10.82520   10490.791    4338.764    4359.487    3749.286    5021.059
      56.550   266.51963    558.2763    10.80860   10528.596    4343.557    4337.090    3699.189    5019.078
      56.560   266.91726    559.5305    10.82520   10567.725    4346.758    4311.713    3649.400    5016.330
      56.570   267.30222    560.7906    10.84180   10607.891    4348.175    4283.319    3600.109    5012.832
      56.580   267.67578    562.0181    10.83300   10648.747    4347.609    4251.893    3551.511    5008.608
      56.590   268.03988    563.1803    10.82420   10689.889    4344.860    4217.440    3503.802    5003.694
      56.600   268.39702    564.2527    10.84275   10730.862    4339.724    4179.985    3457.179    4998.131
      56.610   268.75007    565.2203    10.86130   10771.158    4332.002    4139.575    3411.839    4991.970
