~VERSION INFORMATION SECTION
VERS.           2.0  :CWLS Log ASCII Standard - 2.0
WRAP.           NO   :One line per depth
#               Created in SeisLab
~WELL INFORMATION SECTION
#MNEM.UNIT  VALUE/NAME               :DESCRIPTION    
STRT.m  10                           :Start Depth    
STOP.m  124                          :Stop Depth     
STEP.m  0.01                         :Step           
NULL.    -999.25                     :Null Value     
WELL.    GDP1                        :Well Name      
CTRY.    Switzerland                 :Country        
CNTY.                                :County         
STAT.    Central Swiss Alps          :State          
API .                                :API number     
UWI .                                :Unique well ID 
LOC .    Grimsel pass, Switzerland   :Well Location  
FLD .    n/a                         :Field          
COMP.    n/a                         :Company        
SRVC.    University of Lausanne      :Service Company
DATE.    2015/2016                   :Date           
~PARAMETER INFORMATION SECTION
#MNEM .UNITS  VALUE   :DESCRIPTION OF PARAMETER
Casing.n/a    0       :open hole/cased hole    
~CURVE INFORMATION SECTION
#MNEM       .UNITS  API CODES   :DESCRIPTION OF MNEMONIC      
depth       .m                  :measured depth (interpolated)
BHR velocity.m/ns               :BHR velocity 2015            
BHR velocity.m/ns               :BHR velocity 2016            
~A depth       BHR_velocity BHR_velocity
# ...
      83.780     0.09233     0.08965
      83.790     0.09233     0.08967
      83.800     0.09232     0.08968
      83.810     0.09232     0.08969
      83.820     0.09228     0.08974
      83.830     0.09224     0.08979
      83.840     0.09222     0.08983
      83.850     0.09220     0.08988
      83.860     0.09224     0.08993
      83.870     0.09227     0.08994
      83.880     0.09228     0.08995
      83.890     0.09229     0.08997
      83.900     0.09230     0.08998
      83.910     0.09232     0.08999
      83.920     0.09237     0.09003
      83.930     0.09242     0.09006
      83.940     0.09249     0.09010
      83.950     0.09257     0.09013
      83.960     0.09261     0.09017
      83.970     0.09265     0.09021
      83.980     0.09270     0.09024
      83.990     0.09274     0.09028
      84.000     0.09277     0.09032
      84.010     0.09279     0.09035
      84.020     0.09285     0.09039
      84.030     0.09291     0.09043
      84.040     0.09289     0.09046
      84.050     0.09288     0.09050
      84.060     0.09287     0.09054
      84.070     0.09286     0.09055
      84.080     0.09288     0.09056
      84.090     0.09291     0.09057
      84.100     0.09296     0.09058
      84.110     0.09301     0.09060
      84.120     0.09299     0.09058
      84.130     0.09297     0.09057
      84.140     0.09297     0.09056
      84.150     0.09298     0.09055
      84.160     0.09299     0.09054
      84.170     0.09300     0.09054
      84.180     0.09303     0.09054
      84.190     0.09307     0.09054
      84.200     0.09303     0.09054
      84.210     0.09298     0.09054
      84.220     0.09300     0.09057
      84.230     0.09301     0.09061
      84.240     0.09302     0.09065
      84.250     0.09303     0.09068
      84.260     0.09300     0.09072
      84.270     0.09297     0.09071
      84.280     0.09291     0.09069
      84.290     0.09286     0.09068
      84.300     0.09286     0.09067
      84.310     0.09286     0.09066
      84.320     0.09285     0.09071
      84.330     0.09283     0.09076
      84.340     0.09279     0.09081
      84.350     0.09274     0.09085
      84.360     0.09272     0.09090
      84.370     0.09270     0.09090
      84.380     0.09270     0.09090
      84.390     0.09270     0.09090
      84.400     0.09266     0.09090
      84.410     0.09263     0.09090
      84.420     0.09259     0.09092
      84.430     0.09255     0.09093
      84.440     0.09257     0.09094
      84.450     0.09260     0.09095
      84.460     0.09260     0.09097
      84.470     0.09261     0.09099
      84.480     0.09258     0.09101
      84.490     0.09255     0.09104
      84.500     0.09254     0.09106
      84.510     0.09254     0.09109
      84.520     0.09252     0.09108
      84.530     0.09251     0.09106
      84.540     0.09245     0.09105
      84.550     0.09239     0.09104
      84.560     0.09235     0.09103
      84.570     0.09232     0.09109
      84.580     0.09228     0.09115
      84.590     0.09224     0.09121
      84.600     0.09221     0.09127
      84.610     0.09218     0.09134
      84.620     0.09215     0.09141
      84.630     0.09211     0.09149
      84.640     0.09210     0.09156
      84.650     0.09210     0.09164
      84.660     0.09209     0.09171
      84.670     0.09208     0.09169
      84.680     0.09207     0.09166
      84.690     0.09205     0.09164
      84.700     0.09206     0.09161
      84.710     0.09207     0.09159
      84.720     0.09205     0.09157
      84.730     0.09204     0.09156
      84.740     0.09201     0.09155
      84.750     0.09198     0.09154
      84.760     0.09199     0.09152
      84.770     0.09199     0.09151
      84.780     0.09202     0.09150
      84.790     0.09204     0.09149
      84.800     0.09206     0.09147
      84.810     0.09208     0.09146
      84.820     0.09212     0.09140
      84.830     0.09216     0.09134
      84.840     0.09218     0.09127
      84.850     0.09221     0.09121
      84.860     0.09224     0.09115
      84.870     0.09227     0.09115
      84.880     0.09229     0.09115
      84.890     0.09230     0.09115
      84.900     0.09232     0.09115
      84.910     0.09233     0.09115
      84.920     0.09237     0.09125
      84.930     0.09242     0.09135
      84.940     0.09245     0.09145
      84.950     0.09248     0.09155
      84.960     0.09249     0.09165
      84.970     0.09251     0.09189
      84.980     0.09252     0.09213
      84.990     0.09254     0.09237
      85.000     0.09256     0.09261
      85.010     0.09258     0.09285
      85.020     0.09259     0.09286
      85.030     0.09260     0.09288
      85.040     0.09265     0.09289
      85.050     0.09271     0.09290
      85.060     0.09277     0.09292
      85.070     0.09283     0.09298
      85.080     0.09294     0.09304
      85.090     0.09306     0.09311
      85.100     0.09316     0.09317
      85.110     0.09326     0.09324
      85.120     0.09338     0.09336
      85.130     0.09349     0.09347
      85.140     0.09364     0.09359
      85.150     0.09379     0.09371
      85.160     0.09394     0.09383
      85.170     0.09408     0.09397
      85.180     0.09424     0.09411
      85.190     0.09440     0.09426
      85.200     0.09458     0.09441
      85.210     0.09475     0.09455
      85.220     0.09492     0.09467
      85.230     0.09508     0.09479
      85.240     0.09522     0.09491
      85.250     0.09536     0.09503
      85.260     0.09546     0.09515
      85.270     0.09555     0.09525
      85.280     0.09561     0.09534
      85.290     0.09568     0.09544
      85.300     0.09575     0.09553
      85.310     0.09583     0.09563
      85.320     0.09591     0.09571
      85.330     0.09599     0.09579
      85.340     0.09606     0.09587
      85.350     0.09613     0.09596
      85.360     0.09626     0.09604
      85.370     0.09639     0.09616
      85.380     0.09650     0.09629
      85.390     0.09661     0.09641
      85.400     0.09668     0.09654
      85.410     0.09674     0.09666
      85.420     0.09681     0.09674
      85.430     0.09687     0.09683
      85.440     0.09697     0.09691
      85.450     0.09707     0.09700
      85.460     0.09711     0.09708
      85.470     0.09716     0.09721
      85.480     0.09721     0.09733
      85.490     0.09726     0.09746
      85.500     0.09735     0.09759
      85.510     0.09744     0.09772
      85.520     0.09753     0.09786
      85.530     0.09762     0.09800
      85.540     0.09765     0.09814
      85.550     0.09769     0.09829
      85.560     0.09776     0.09843
      85.570     0.09783     0.09849
      85.580     0.09789     0.09855
      85.590     0.09795     0.09861
      85.600     0.09800     0.09866
      85.610     0.09805     0.09872
      85.620     0.09810     0.09878
      85.630     0.09815     0.09884
      85.640     0.09821     0.09890
      85.650     0.09826     0.09895
      85.660     0.09832     0.09901
      85.670     0.09838     0.09907
      85.680     0.09845     0.09913
      85.690     0.09851     0.09919
      85.700     0.09860     0.09925
      85.710     0.09868     0.09931
      85.720     0.09878     0.09922
      85.730     0.09888     0.09913
      85.740     0.09898     0.09904
      85.750     0.09907     0.09895
      85.760     0.09920     0.09887
      85.770     0.09934     0.09891
      85.780     0.09947     0.09895
      85.790     0.09959     0.09900
      85.800     0.09969     0.09904
      85.810     0.09978     0.09909
      85.820     0.09995     0.09906
      85.830     0.10011     0.09903
      85.840     0.10025     0.09900
      85.850     0.10039     0.09897
      85.860     0.10046     0.09894
      85.870     0.10052     0.09893
      85.880     0.10061     0.09891
      85.890     0.10070     0.09890
      85.900     0.10080     0.09888
      85.910     0.10091     0.09887
      85.920     0.10092     0.09901
      85.930     0.10093     0.09916
      85.940     0.10096     0.09931
