~VERSION INFORMATION SECTION
VERS.           2.0  :CWLS Log ASCII Standard - 2.0
WRAP.           NO   :One line per depth
#               Created in SeisLab
~WELL INFORMATION SECTION
#MNEM.UNIT  VALUE/NAME               :DESCRIPTION    
STRT.m  10                           :Start Depth    
STOP.m  125                          :Stop Depth     
STEP.m  0.01                         :Step           
NULL.    -999.25                     :Null Value     
WELL.    GDP1                        :Well Name      
CTRY.    Switzerland                 :Country        
CNTY.                                :County         
STAT.    Central Swiss Alps          :State          
API .                                :API number     
UWI .                                :Unique well ID 
LOC .    Grimsel Pass, Switzerland   :Well Location  
FLD .    n/a                         :Field          
COMP.    n/a                         :Company        
SRVC.    University of Lausanne      :Service Company
DATE.    2017                        :Date           
~PARAMETER INFORMATION SECTION
#MNEM .UNITS  VALUE   :DESCRIPTION OF PARAMETER
Casing.n/a    1       :slotted PVC casing      
~CURVE INFORMATION SECTION
#MNEM.UNITS  API CODES   :DESCRIPTION OF MNEMONIC
depth.m                  :measured depth         
NG   .cps                :Natural gamma          
Sp   .mV                 :Self potential         
Temp .DegC               :Temperature            
SPR  .Ohm                :Single point resistance
R8   .Ohm.m              :Normal resistivity     
R16  .Ohm.m              :Single point resistance
R32  .Ohm.m              :Normal resistivity     
R64  .Ohm.m              :Normal resistivity     
~A depth       NG          Sp          Temp        SPR         R8          R16         R32         R64         
# ...
      53.660   281.09826   1105.0000     6.12793    -999.250    6713.757    5230.171   12351.631    4744.442
      53.670   281.48995   1105.0000     6.11572    -999.250    6863.938    5270.914   12437.188    4719.719
      53.680   281.99396   1105.0000     6.10352    -999.250    7022.363    5318.745   12979.458    4694.996
      53.690   282.61469   1105.0000     6.10303    -999.250    7190.868    5374.553   13521.728    4667.719
      53.700   283.35572   1105.0000     6.10254    -999.250    7371.396    5439.236   14277.968    4640.442
      53.710   284.21929   1105.0000     6.12549    -999.250    7565.970    5513.693   15034.209    4626.134
      53.720   285.20580   1105.0000     6.14844    -999.250    7776.679    5598.804   15414.771    4611.826
      53.730   286.31364   1105.0000     6.12940    -999.250    8005.657    5695.421   15795.333    4613.727
      53.740   287.53893   1105.0000     6.11035    -999.250    8255.058    5804.354   15912.567    4615.627
      53.750   288.87537   1105.0000     6.11670    -999.250    8527.028    5926.352   16029.802    4612.163
      53.760   290.31405   1105.0000     6.12305    -999.250    8823.683    6062.090   16396.470    4608.699
      53.770   291.84309   1105.0000     6.13037    -999.250    9147.077    6212.156   16763.138    4601.555
      53.780   293.44714   1105.0000     6.13770    -999.250    9499.178    6377.034   17019.312    4594.410
      53.790   295.10678   1105.0000     6.13868    -999.250    9881.830    6557.091   17275.486    4588.354
      53.800   296.79813   1105.0000     6.13965    -999.250   10296.728    6752.564   16978.766    4582.297
      53.810   298.49294   1105.0000     6.14795    -999.250   10745.390    6963.548   16682.046    4583.129
      53.820   300.15906   1105.0000     6.15625    -999.250   11229.120    7189.987   16500.425    4583.961
      53.830   301.76120   1105.0000     6.15283    -999.250   11748.984    7431.663   16318.804    4572.215
      53.840   303.26196   1105.0000     6.14941    -999.250   12305.784    7688.193   16792.986    4560.469
      53.850   304.62310   1105.0000     6.15234    -999.250   12900.026    7959.020   17267.168    4545.302
      53.860   305.80748   1105.0000     6.15527    -999.250   13531.902    8243.418   18025.188    4530.134
      53.870   306.78134   1105.0000     6.15234    -999.250   14201.269    8540.486   18783.209    4524.217
      53.880   307.51687   1105.0000     6.14941    -999.250   14907.629    8849.154   18829.000    4520.067
      53.890   307.99447   1105.0000     6.16162    -999.250   15650.114    9168.191    5587.016    4515.917
      53.900   308.20433   1105.0000     6.17383    -999.250   16427.483    9496.208    5613.569    4511.767
      53.910   308.14698   1105.0000     6.15332    -999.250   17238.110    9831.678    5630.907    4507.617
      53.920   307.83282   1105.0000     6.13281    -999.250   18079.987   10172.939    5648.246    4503.467
      53.930   307.28106   1105.0000     6.13183    -999.250   18950.726   10518.221    5644.635    4499.317
      53.940   306.51852   1105.0000     6.13086    -999.250   19847.570   10865.656    5641.024    4495.167
      53.950   305.57863   1105.0000     6.14795    -999.250   20767.408   11213.303    5626.724    4491.017
      53.960   304.50046   1105.0000     6.16504    -999.250   21706.793   11559.167    5612.423    4486.868
      53.970   303.32735   1105.0000     6.15723    -999.250   22661.967   11901.226    5603.692    4482.718
      53.980   302.10510   1105.0000     6.14941    -999.250   23628.893   12237.450    5594.961    4478.568
      53.990   300.87989   1105.0000     6.13428    -999.250   24603.284   12565.831    5588.192    4474.418
      54.000   299.69595   1105.0000     6.11914    -999.250   25580.649   12884.404    5581.423    4470.268
      54.010   298.59313   1105.0000     6.13037    -999.250   26556.327   13191.274    5564.375    4466.118
      54.020   297.60491   1105.0000     6.14160    -999.250   27525.538   13484.640    5547.327    4461.968
      54.030   296.75712   1105.0000     6.14746    -999.250   28483.431   13762.818    5527.964    4457.818
      54.040   296.06750   1105.0000     6.15332    -999.250   29425.132   14024.260    5508.602    4453.668
      54.050   295.54570   1105.0000     6.14893    -999.250   30345.797   14267.580    5498.230    4449.518
      54.060   295.19391   1105.0000     6.14453    -999.250   31240.666   14491.564    5487.858    4445.368
      54.070   295.00780   1105.0000     6.13427    -999.250   32105.113   14695.192    5486.190    4441.218
      54.080   294.97782   1105.0000     6.12402    -999.250   32934.701   14877.646    5484.522    4437.068
      54.090   295.09069   1105.0000     6.12500    -999.250   33725.230   15038.319    5480.241    4432.918
      54.100   295.33086   1105.0000     6.12598    -999.250   34472.786   15176.825    5475.961    4428.768
      54.110   295.68189   1105.0000     6.12940    -999.250   35173.788   15292.996    5478.376    4424.618
      54.120   296.12752   1105.0000     6.13281    -999.250   35825.029   15386.887    5480.791    4420.469
      54.130   296.65242   1105.0000     6.12500    -999.250   36423.712   15458.766    5509.891    4416.319
      54.140   297.24254   1105.0000     6.11719    -999.250   36967.486   15509.113    5538.991    4412.169
      54.150   297.88524   1105.0000     6.12060    -999.250   37454.473   15538.603    5621.472    4408.019
      54.160   298.56927   1105.0000     6.12402    -999.250   37883.290   15548.094    5703.953    4403.869
      54.170   299.28460   1105.0000     6.12060    -999.250   38253.065   15538.617    5856.500    4399.719
      54.180   300.02215   1105.0000     6.11719    -999.250   38563.447   15511.347    6009.048    4395.569
      54.190   300.77360   1105.0000     6.12060    -999.250   14864.421   15467.591    6198.520    4391.419
      54.200   301.53127   1105.0000     6.12402    -999.250   15072.405   15408.761    6387.993    4387.269
      54.210   302.28843   1105.0000     6.11914    -999.250   15241.687   15336.353    6564.369    4383.119
      54.220   303.03987   1105.0000     6.11426    -999.250   15410.969   15251.921    6740.744    4378.969
      54.230   303.78277   1105.0000     6.11084    -999.250   15499.905   15157.056    6890.668    4374.819
      54.240   304.51757   1105.0000     6.10742    -999.250   15588.842   15053.355    7040.591    4370.669
      54.250   305.24858   1105.0000     6.11231    -999.250   15603.742   14942.407    7144.946    4366.519
      54.260   305.98408   1105.0000     6.11719    -999.250   15618.643   14825.759    7249.302    4362.369
      54.270   306.73605   1105.0000     6.11719    -999.250   15582.998   14704.903    7320.180    4358.220
      54.280   307.51951   1105.0000     6.11719    -999.250   15547.354   14581.253    7391.059    4354.070
      54.290   308.35196   1105.0000     6.11035    -999.250   15458.494   14456.126    7447.873    4349.920
      54.300   309.25229   1105.0000     6.10352    -999.250   15369.635   14330.728    7504.688    4345.770
      54.310   310.23921   1105.0000     6.10206    -999.250   15218.891   14206.140    7552.477    4341.620
      54.320   311.32902   1105.0000     6.10059    -999.250   15068.148   14083.305    7600.266    4337.470
      54.330   312.53314   1105.0000     6.09961    -999.250   14885.746   13963.023    7629.586    4333.320
      54.340   313.85602   1105.0000     6.09863    -999.250   14703.344   13845.943    7658.907    4329.170
      54.350   315.29380   1105.0000     6.10791    -999.250   14517.498   13732.561    7670.649    4325.020
      54.360   316.83386   1105.0000     6.11719    -999.250   14331.652   13623.220    7682.391    4320.870
      54.370   318.45513   1105.0000     6.11670    -999.250   14138.801   13518.108    7682.751    4316.720
      54.380   320.12886   1105.0000     6.11621    -999.250   13945.949   13417.267    7683.111    4312.570
      54.390   321.81961   1105.0000     6.10986    -999.250   13740.172   13320.598    7650.408    4308.420
