~VERSION INFORMATION SECTION
VERS.           2.0  :CWLS Log ASCII Standard - 2.0
WRAP.           NO   :One line per depth
#               Created in SeisLab
~WELL INFORMATION SECTION
#MNEM.UNIT  VALUE/NAME               :DESCRIPTION    
STRT.m  47.59                        :Start Depth    
STOP.m  123.23                       :Stop Depth     
STEP.m  0.02                         :Step           
NULL.    -999.25                     :Null Value     
WELL.    GDP1                        :Well Name      
CTRY.    Switzerland                 :Country        
CNTY.                                :County         
STAT.    Central Swiss Alps          :State          
API .                                :API number     
UWI .                                :Unique well ID 
LOC .    Grimsel Pass, Switzerland   :Well Location  
FLD .    n/a                         :Field          
COMP.    n/a                         :Company        
SRVC.    University of Lausanne      :Service Company
DATE.    2017                        :Date           
~PARAMETER INFORMATION SECTION
#MNEM .UNITS  VALUE   :DESCRIPTION OF PARAMETER
Casing.n/a    1       :slotted PVC casing      
~CURVE INFORMATION SECTION
#MNEM.UNITS  API CODES   :DESCRIPTION OF MNEMONIC
depth.m                  :measured depth         
NG   .cps                :Natural gamma          
Sp   .mV                 :Self potential         
Temp .DegC               :Temperature            
SPR  .Ohm                :Single point resistance
R8   .Ohm.m              :Normal resistivity     
R16  .Ohm.m              :Single point resistance
R32  .Ohm.m              :Normal resistivity     
R64  .Ohm.m              :Normal resistivity     
~A depth       NG          Sp          Temp        SPR         R8          R16         R32         R64         
# ...
      68.310   272.67200   1193.2500     6.30664      7571.0      2226.5     1896.16     1644.90     2130.82
      68.330   280.84400   1181.5000     6.29297      7622.1      2229.4     1886.29     1621.98     2129.12
      68.350   257.81300   1166.8800     6.33008      7643.9      2230.8     1875.72     1611.12     2146.89
      68.370   270.71900   1170.2500     6.29785      7611.7      2227.4     1860.11     1614.56     2137.70
      68.390   239.39800   1176.3800     6.31152      7568.5      2217.9     1835.74     1616.06     2110.67
      68.410   252.73400   1186.7500     6.31348      7534.2      2204.8     1809.73     1612.85     2111.63
      68.430   248.95300   1198.3800     6.32715      7531.2      2186.0     1773.05     1620.22     2127.51
      68.450   249.04700   1205.8800     6.29980      7533.2      2158.3     1723.69     1634.14     2118.73
      68.470   252.85900   1213.0000     6.29980      7453.9      2123.3     1668.85     1642.02     2100.42
      68.490   268.53100   1222.1300     6.31348      7362.9      2079.9     1610.50     1641.22     2116.29
      68.510   260.15600   1231.8800     6.32227      7264.9      2030.9     1548.20     1647.47     2127.02
      68.530   233.78100   1234.7500     6.31055      7079.1      1969.2     1491.52     1655.20     2148.85
      68.550   241.27300   1236.1300     6.29004      6857.5      1893.0     1449.97     1653.71     2140.92
      68.570   263.17200   1230.8800     6.31543      6700.4      1804.6     1424.62     1654.48     2154.47
      68.590   278.82800   1224.2500     6.29004      6601.1      1705.7     1408.73     1661.66     2172.20
      68.610   264.82800   1236.5000     6.33594      6479.0      1598.1     1397.06     1668.56     2205.11
      68.630   278.89100   1252.2500     6.29980      6312.7      1496.0     1395.33     1659.69     2211.97
      68.650   309.21900   1252.3800     6.30371      6130.5      1412.9     1400.38     1646.45     2242.63
      68.670   300.39100   1250.3800     6.30859      5934.5      1354.5     1405.30     1647.04     2280.64
      68.690   282.53100   1264.0000     6.32031      5709.2      1316.7     1407.47     1643.81     2265.40
      68.710   275.92200   1280.6300     6.32227      5455.8      1292.0     1412.73     1629.17     2273.69
      68.730   259.64100   1279.3800     6.31152      5206.8      1280.3     1418.95     1612.65     2262.30
      68.750   299.50000   1275.1300     6.31152      5012.7      1275.0     1418.98     1604.06     2261.45
      68.770   275.37500   1280.8800     6.32520      4914.3      1271.4     1420.00     1607.00     2231.73
      68.790   316.43800   1288.1300     6.29688      4919.6      1267.8     1423.57     1595.99     2222.00
      68.810   325.89100   1289.6300     6.32227      4992.0      1268.5     1426.23     1577.67     2196.31
      68.830   294.57800   1290.5000     6.31348      5095.4      1272.5     1419.23     1575.61     2203.25
      68.850   282.78100   1285.3800     6.31641      5206.1      1277.9     1407.40     1580.03     2176.60
      68.870   294.01600   1279.7500     6.32715      5326.9      1290.0     1398.99     1574.27     2164.46
      68.890   240.71100   1267.2500     6.31641      5451.5      1311.8     1387.66     1566.05     2154.48
      68.910   269.73400   1254.0000     6.29980      5568.5      1342.8     1371.77     1573.60     2120.33
      68.930   267.23400   1258.3800     6.33203      5668.8      1375.7     1355.29     1575.92     2038.10
      68.950   262.31300   1265.3800     6.32324      5749.0      1405.6     1344.60     1583.33     1856.23
      68.970   300.57800   1251.2500     6.33398      5808.4      1430.8     1342.09     1576.45     1736.92
      68.990   290.81300   1234.5000     6.32324      5854.4      1445.5     1334.77     1584.24     1553.17
      69.010   302.23400   1217.6300     6.31152      5894.9      1449.7     1329.09     1593.26     1146.71
      69.030   301.01600   1201.2500     6.32520      5934.8      1447.3     1338.01     1611.40     -181.69
      69.050   314.31300   1185.2500     6.31641      5962.4      1442.8     1353.87     1617.54   -34891.50
      69.070   305.56300   1170.2500     6.30371      5929.8      1440.5     1366.50     1633.29     5943.68
      69.090   299.18800   1153.7500     6.31543      5834.3      1435.2     1377.81     1652.32     4269.58
      69.110   244.45300   1137.5000     6.33008      5730.4      1431.8     1396.02     1639.64     3671.55
      69.130   258.81300   1127.5000     6.31641      5656.3      1439.3     1405.79     1638.36     3619.67
      69.150   311.82800   1119.0000     6.33203      5620.6      1452.9     1414.15     1626.15     4020.62
      69.170   319.34400   1111.6300     6.31055      5601.7      1465.0     1415.03     1614.62     5200.75
      69.190   280.10900   1104.6300     6.34570      5577.6      1475.9     1425.32     1586.00    35794.00
      69.210   288.03100   1120.2500     6.32910      5571.1      1491.2     1435.67     1569.48      296.63
      69.230   307.14100   1139.2500     6.33887      5606.9      1504.7     1449.55     1545.74     1339.25
      69.250   294.31300   1159.6300     6.30859      5670.9      1519.9     1453.46     1540.97     1581.71
      69.270   300.28100   1180.0000     6.34375      5756.2      1530.3     1458.68     1518.88     1658.62
      69.290   316.89100   1202.3800     6.34082      5848.2      1545.6     1460.85     1505.60     1692.04
      69.310   323.39100   1224.7500     6.33203      5916.9      1558.5     1441.59     1496.02     1716.07
      69.330   300.10900   1248.5000     6.34082      5915.0      1567.9     1430.28     1476.87     1724.64
      69.350   286.04700   1272.6300     6.35059      5850.5      1564.8     1411.77     1440.18     1722.18
      69.370   283.90600   1295.0000     6.34766      5784.4      1556.5     1390.99     1365.49     1713.61
      69.390   285.00000   1317.6300     6.36816      5744.9      1539.0     1360.04     1342.04     1719.91
      69.410   289.96900   1328.1300     6.33594      5725.9      1499.2     1338.48     1320.76     1716.62
      69.430   304.15600   1336.6300     6.33203      5724.6      1455.0     1316.35     1310.69     1687.70
      69.450   288.59400   1349.8800     6.37012      5735.9      1397.7     1309.57     1305.02     1666.07
      69.470   299.73400   1363.8800     6.33887      5759.9      1335.2     1296.15     1494.03     1740.55
      69.490   297.79700   1354.1300     6.33008      5761.6      1269.2     1289.33     1249.15     1887.92
      69.510   278.23400   1339.2500     6.34277      5719.4      1217.2     1284.68     1342.60     1954.23
      69.530   312.59400   1335.8800     6.34570      5661.8      1176.6     1274.96     1456.83     1976.27
      69.550   353.45300   1336.2500     6.36621      5565.3      1156.5     1263.22     1540.25     1991.34
      69.570   306.78100   1350.6300     6.34766      5398.2      1140.7     1243.54     1489.57     1982.86
      69.590   310.15600   1366.1300     6.36328      5177.8      1131.9     1274.53     1370.32     1972.73
      69.610   266.78100   1368.8800     6.36133      4977.5      1124.6     1354.29      848.00     1967.86
      69.630   312.89100   1371.2500     6.36621      4842.5      1115.0     1593.87     1317.04     1962.96
      69.650   248.38300   1378.5000     6.34961      4789.0      1112.2     2480.03     1302.49     1948.92
      69.670   302.45300   1387.5000     6.35645      4812.0      1120.5    26431.00     1301.37     1940.89
      69.690   303.37500   1375.2500     6.37988      4880.9      1182.2    -1801.38     1302.51     1945.19
      69.710   280.98400   1359.6300     6.37500      4940.2      1321.8     -707.12     1306.51     1951.34
      69.730   266.51600   1298.0000     6.35742      4993.1      1712.5     -401.39     1316.72     1951.60
      69.750   290.42200   1228.6300     6.36816      5163.9      3157.2     -349.37     1323.41     1942.53
      69.770   247.22700   1146.5000     6.37012      5711.0     44409.7     -553.58     1325.93     1948.95
