~VERSION INFORMATION SECTION
VERS.           2.0  :CWLS Log ASCII Standard - 2.0
WRAP.           NO   :One line per depth
#               Created in SeisLab
~WELL INFORMATION SECTION
#MNEM.UNIT  VALUE/NAME               :DESCRIPTION    
STRT.m  47.59                        :Start Depth    
STOP.m  123.23                       :Stop Depth     
STEP.m  0.02                         :Step           
NULL.    -999.25                     :Null Value     
WELL.    GDP1                        :Well Name      
CTRY.    Switzerland                 :Country        
CNTY.                                :County         
STAT.    Central Swiss Alps          :State          
API .                                :API number     
UWI .                                :Unique well ID 
LOC .    Grimsel Pass, Switzerland   :Well Location  
FLD .    n/a                         :Field          
COMP.    n/a                         :Company        
SRVC.    University of Lausanne      :Service Company
DATE.    2017                        :Date           
~PARAMETER INFORMATION SECTION
#MNEM .UNITS  VALUE   :DESCRIPTION OF PARAMETER
Casing.n/a    1       :slotted PVC casing      
~CURVE INFORMATION SECTION
#MNEM.UNITS  API CODES   :DESCRIPTION OF MNEMONIC
depth.m                  :measured depth         
NG   .cps                :Natural gamma          
Sp   .mV                 :Self potential         
Temp .DegC               :Temperature            
SPR  .Ohm                :Single point resistance
R8   .Ohm.m              :Normal resistivity     
R16  .Ohm.m              :Single point resistance
R32  .Ohm.m              :Normal resistivity     
R64  .Ohm.m              :Normal resistivity     
~A depth       NG          Sp          Temp        SPR         R8          R16         R32         R64         
# ...
      63.870   279.75000    803.6250     6.20313     -3149.7     -5267.4     4143.76     1845.66     2605.90
      63.890   274.85900    768.3750     6.18750     -9097.9     -7231.7     2469.85     1848.08     2581.11
      63.910   277.14100    740.6250     6.19238     84743.2    -12069.1     2069.04     1846.90     2491.20
      63.930   294.06300    732.7500     6.17578     12758.8    -27543.6     1924.46     1846.29     2447.24
      63.950   256.31300    727.5000     6.19434    -30977.8   -547819.0     1834.17     1851.59     2437.59
      63.970   274.39100    727.8750     6.15625    -58738.9     29547.2     1767.32     1858.98     2387.59
      63.990   271.50000    729.3750     6.17676    -60651.0     14111.1     1722.55     1849.36     2363.13
      64.010   254.76600    763.6250     6.19434    -67806.6      9358.5     1689.46     1830.77     2371.56
      64.030   306.31300    802.6250     6.18262    -97466.6      6949.6     1681.31     1829.47     2400.92
      64.050   222.37500    879.0000     6.16895  -1260000.0      5327.4     1698.02     1823.71     2411.74
      64.070   258.60900    961.6250     6.18750     49289.7      4141.3     1721.21     1817.94     2463.61
      64.090   245.04700   1049.2500     6.19629     18717.0      3281.5     1742.41     1815.70     2543.26
      64.110   235.23400   1138.0000     6.19043     10869.3      2632.2     1749.88     1828.15     2570.67
      64.130   297.12500   1181.8800     6.19043      8032.3      2162.2     1744.16     1839.24     2573.78
      64.150   247.38300   1218.1300     6.19922      6919.0      1837.0     1729.18     1840.63     2557.84
      64.170   271.70300   1238.1300     6.21094      6411.7      1627.7     1709.64     1849.18     2564.15
      64.190   309.39100   1256.0000     6.19922      6090.3      1496.2     1677.24     1867.50     2505.03
      64.210   287.81300   1257.1300     6.19922      5800.5      1418.5     1637.72     1893.67     2433.83
      64.230   277.17200   1255.7500     6.19629      5523.1      1380.9     1604.69     1900.80     2401.03
      64.250   265.34400   1234.1300     6.21484      5317.7      1371.2     1569.22     1900.71     2386.16
      64.270   244.39800   1209.0000     6.20605      5261.5      1373.4     1535.19     1903.88     2374.95
      64.290   239.33600   1216.2500     6.18066      5363.0      1373.8     1506.21     1907.14     2350.66
      64.310   263.21900   1228.8800     6.19043      5571.5      1368.5     1493.61     1898.42     2319.04
      64.330   242.90600   1228.3800     6.20410      5817.8      1363.2     1489.38     1888.13     2305.24
      64.350   251.69500   1225.3800     6.19043      6050.9      1354.7     1490.62     1893.38     2308.18
      64.370   248.85200   1233.2500     6.18359      6316.7      1354.2     1501.70     1909.54     2302.78
      64.390   269.21900   1243.2500     6.19727      6599.3      1364.8     1522.44     1911.07     2310.23
      64.410   254.24200   1254.2500     6.20801      6675.8      1388.7     1550.73     1906.54     2337.66
      64.430   269.89100   1265.2500     6.18945      6509.6      1418.0     1567.50     1921.16     2367.42
      64.450   252.63300   1279.2500     6.18945      6275.9      1449.6     1577.10     1939.42     2374.76
      64.470   285.14100   1294.3800     6.20313      6060.1      1486.8     1584.18     1945.76     2378.60
      64.490   238.04700   1308.5000     6.21680      5887.7      1529.6     1588.87     1946.39     2393.99
      64.510   298.26600   1321.8800     6.21094      5745.8      1578.8     1586.21     1957.22     2413.84
      64.530   296.42200   1314.0000     6.19727      5630.7      1620.6     1583.02     1970.54     2428.88
      64.550   259.68800   1304.5000     6.18750      5584.1      1650.5     1589.18     1973.05     2431.92
      64.570   240.12500   1320.5000     6.20801      5621.1      1664.1     1600.77     1965.61     2459.98
      64.590   227.97700   1340.7500     6.20410      5736.4      1659.7     1604.76     1968.49     2499.42
      64.610   281.35900   1341.8800     6.20117      5909.7      1635.6     1604.27     1966.64     2541.00
      64.630   247.78100   1339.8800     6.20996      6166.9      1602.6     1615.38     1950.61     2572.09
      64.650   247.95300   1341.8800     6.21777      6392.1      1577.4     1629.52     1945.72     2631.37
      64.670   257.32800   1344.6300     6.19727      6356.0      1562.3     1637.04     1957.01     2715.12
      64.690   247.93000   1349.0000     6.18262      6125.2      1550.0     1637.85     1954.18     2783.06
      64.710   253.49200   1354.7500     6.18359      5865.4      1541.0     1639.94     1940.39     2758.73
      64.730   275.14100   1372.5000     6.20996      5626.5      1542.2     1639.67     1930.40     2630.65
      64.750   272.10900   1392.6300     6.19629      5432.2      1543.6     1630.07     1934.49     2568.24
      64.770   251.44500   1397.5000     6.19922      5312.3      1539.0     1615.00     1939.99     2549.78
      64.790   292.04700   1400.6300     6.21680      5258.2      1529.4     1604.10     1942.27     2542.93
      64.810   267.39100   1398.5000     6.22168      5256.2      1521.2     1590.82     1944.68     2520.69
      64.830   261.84400   1395.5000     6.22949      5305.1      1515.7     1571.57     1956.84     2547.74
      64.850   282.79700   1397.1300     6.21094      5397.9      1507.4     1559.10     1966.94     2522.46
      64.870   301.60900   1399.3800     6.21289      5543.8      1497.6     1555.25     1963.53     2496.40
      64.890   263.56300   1414.3800     6.20117      5732.3      1490.3     1542.93     1958.52     2461.09
      64.910   271.14100   1431.6300     6.22656      5918.6      1479.9     1524.31     1959.73     2416.40
      64.930   268.48400   1444.7500     6.22461      6078.8      1465.8     1511.83     1963.62     2383.13
      64.950   252.10900   1457.2500     6.21094      6203.2      1460.7     1512.15     1962.45     2317.33
      64.970   268.04700   1435.7500     6.22168      6237.8      1467.2     1516.87     1957.45     2276.66
      64.990   266.37500   1408.1300     6.23633      6095.3      1467.2     1522.89     1967.52     2190.87
      65.010   218.21100   1409.6300     6.19043      5863.5      1454.0     1528.31     1979.47     2089.56
      65.030   270.20300   1415.6300     6.22168      5668.2      1438.7     1536.43     1994.55     1726.23
      65.050   231.60200   1425.2500     6.23340      5531.4      1431.4     1543.94     2003.10      453.63
      65.070   239.58600   1435.3800     6.22461      5451.6      1426.2     1547.35     2025.95   -15373.60
      65.090   257.01600   1438.0000     6.23633      5351.2      1420.3     1554.42     2042.39     6652.36
      65.110   258.79700   1439.2500     6.22461      5182.6      1410.7     1567.55     2050.03     4698.50
      65.130   240.46900   1422.6300     6.23340      5000.9      1398.4     1578.11     2043.55     4109.45
      65.150   230.97700   1402.6300     6.24219      4865.6      1383.5     1586.62     1993.33     3879.95
      65.170   253.07800   1406.1300     6.21973      4778.1      1366.4     1594.44     1976.86     4257.74
      65.190   249.08600   1413.7500     6.21289      4729.7      1352.3     1605.95     1975.34     5104.67
      65.210   230.46900   1396.3800     6.23145      4712.9      1341.9     1615.62     1975.31    14839.90
      65.230   261.20300   1374.7500     6.22461      4718.9      1329.2     1626.24     1962.42      877.44
      65.250   246.12500   1394.1300     6.22656      4727.1      1310.7     1632.75     1977.35     1906.44
      65.270   254.48400   1420.3800     6.25684      4721.2      1290.2     1648.44     1960.56     2085.56
      65.290   219.82000   1413.6300     6.25879      4712.6      1279.2     1661.04     1943.63     2161.46
      65.310   256.90600   1401.6300     6.24023      4715.2      1276.2     1669.21     1922.74     2209.90
      65.330   255.97700   1419.8800     6.22949      4719.1      1280.4     1672.54     1897.42     2197.83
