~VERSION INFORMATION SECTION
VERS.           2.0  :CWLS Log ASCII Standard - 2.0
WRAP.           NO   :One line per depth
#               Created in SeisLab
~WELL INFORMATION SECTION
#MNEM.UNIT  VALUE/NAME               :DESCRIPTION    
STRT.m  10                           :Start Depth    
STOP.m  124                          :Stop Depth     
STEP.m  0.01                         :Step           
NULL.    -999.25                     :Null Value     
WELL.    GDP1                        :Well Name      
CTRY.    Switzerland                 :Country        
CNTY.                                :County         
STAT.    Central Swiss Alps          :State          
API .                                :API number     
UWI .                                :Unique well ID 
LOC .    Grimsel pass, Switzerland   :Well Location  
FLD .    n/a                         :Field          
COMP.    n/a                         :Company        
SRVC.    University of Lausanne      :Service Company
DATE.    2015                        :Date           
~PARAMETER INFORMATION SECTION
#MNEM .UNITS    VALUE   :DESCRIPTION OF PARAMETER
Casing.n/a      0       :open hole               
Mud   .Polymer  1       :Mud type                
~CURVE INFORMATION SECTION
#MNEM.UNITS  API CODES   :DESCRIPTION OF MNEMONIC      
depth.m                  :measured depth (interpolated)
Cal  .mm                 :Caliper                      
NN   .cps                :Neutron-Neutron              
GG   .cps                :Gamma-Gamma                  
~A depth       Cal         NN          GG          
# ...
      39.520   102.70720    469.6887   1175.9805
      39.530   102.70810    477.9954   1174.9630
      39.540   102.70835    478.8474   1165.5750
      39.550   102.70860    479.6995   1156.1870
      39.560   102.70985    477.5852   1163.2125
      39.570   102.71110    475.4709   1170.2380
      39.580   102.71430    469.3637   1174.5615
      39.590   102.71750    463.2565   1178.8850
      39.600   102.71920    454.0111   1164.1950
      39.610   102.72090    444.7656   1149.5050
      39.620   102.72295    434.9706   1174.7305
      39.630   102.72500    425.1757   1199.9560
      39.640   102.72510    428.0775   1224.8235
      39.650   102.72520    430.9794   1249.6910
      39.660   102.72580    443.0518   1244.2515
      39.670   102.72640    455.1243   1238.8120
      39.680   102.72085    456.8904   1249.6540
      39.690   102.71530    458.6564   1260.4960
      39.700   102.70125    469.4917   1268.4795
      39.710   102.68720    480.3270   1276.4630
      39.720   102.68700    496.1386   1265.0900
      39.730   102.68680    511.9502   1253.7170
      39.740   102.68785    497.1599   1262.6905
      39.750   102.68890    482.3696   1271.6640
      39.760   102.68890    481.0505   1285.0580
      39.770   102.68890    479.7314   1298.4520
      39.780   102.68945    487.9208   1308.3490
      39.790   102.69000    496.1102   1318.2460
      39.800   102.68980    490.0928   1306.7995
      39.810   102.68960    484.0753   1295.3530
      39.820   102.68990    476.7778   1286.2465
      39.830   102.69020    469.4803   1277.1400
      39.840   102.68990    461.5919   1289.7990
      39.850   102.68960    453.7035   1302.4580
      39.860   102.68995    451.8046   1317.3015
      39.870   102.69030    449.9056   1332.1450
      39.880   102.69050    454.5829   1337.3030
      39.890   102.69070    459.2603   1342.4610
      39.900   102.69225    469.0736   1320.9670
      39.910   102.69380    478.8868   1299.4730
      39.920   102.69375    489.1793   1311.1765
      39.930   102.69370    499.4718   1322.8800
      39.940   102.69340    490.7056   1336.2880
      39.950   102.69310    481.9394   1349.6960
      39.960   102.69325    460.5383   1343.1670
      39.970   102.69340    439.1373   1336.6380
      39.980   102.69405    450.0422   1325.0395
      39.990   102.69470    460.9470   1313.4410
      40.000   102.69390    460.8142   1306.1105
      40.010   102.69310    460.6813   1298.7800
      40.020   102.69410    452.6086   1306.2300
      40.030   102.69510    444.5359   1313.6800
      40.040   102.69440    445.8862   1337.5290
      40.050   102.69370    447.2365   1361.3780
      40.060   102.69360    447.9985   1373.0050
      40.070   102.69350    448.7605   1384.6320
      40.080   102.69315    449.4452   1352.6005
      40.090   102.69280    450.1299   1320.5690
      40.100   102.69255    456.4429   1326.6695
      40.110   102.69230    462.7558   1332.7700
      40.120   102.69200    462.8016   1346.9900
      40.130   102.69170    462.8473   1361.2100
      40.140   102.69160    459.2420   1368.4545
      40.150   102.69150    455.6367   1375.6990
      40.160   102.69190    470.2261   1365.3960
      40.170   102.69230    484.8156   1355.0930
      40.180   102.69150    493.2056   1344.3930
      40.190   102.69070    501.5955   1333.6930
      40.200   102.69085    503.9658   1334.8570
      40.210   102.69100    506.3360   1336.0210
      40.220   102.69205    490.7720   1335.3565
      40.230   102.69310    475.2080   1334.6920
      40.240   102.69310    469.1550   1330.5685
      40.250   102.69310    463.1020   1326.4450
      40.260   102.69225    464.1399   1314.7195
      40.270   102.69140    465.1778   1302.9940
      40.280   102.69185    461.9064   1308.2945
      40.290   102.69230    458.6350   1313.5950
      40.300   102.69270    458.0716   1317.4285
      40.310   102.69310    457.5081   1321.2620
      40.320   102.69310    459.4759   1308.8130
      40.330   102.69310    461.4436   1296.3640
      40.340   102.69465    469.8453   1291.0855
      40.350   102.69620    478.2469   1285.8070
      40.360   102.69635    476.4073   1292.2615
      40.370   102.69650    474.5678   1298.7160
      40.380   102.69685    465.4759   1330.2765
      40.390   102.69720    456.3839   1361.8370
      40.400   102.69635    457.7392   1343.4115
      40.410   102.69550    459.0944   1324.9860
      40.420   102.69535    461.4953   1309.4385
      40.430   102.69520    463.8962   1293.8910
      40.440   102.69620    466.8486   1322.5135
      40.450   102.69720    469.8011   1351.1360
      40.460   102.69780    468.8947   1351.7490
      40.470   102.69840    467.9882   1352.3620
      40.480   102.69850    471.8784   1342.0745
      40.490   102.69860    475.7685   1331.7870
      40.500   102.69825    483.1015   1313.8695
      40.510   102.69790    490.4345   1295.9520
      40.520   102.69895    493.5883   1306.5585
      40.530   102.70000    496.7422   1317.1650
      40.540   102.70070    491.8383   1331.5410
      40.550   102.70140    486.9344   1345.9170
      40.560   102.70210    476.0818   1349.0950
      40.570   102.70280    465.2293   1352.2730
      40.580   102.70350    458.9854   1342.5795
      40.590   102.70420    452.7414   1332.8860
      40.600   102.70280    460.8769   1316.0660
      40.610   102.70140    469.0125   1299.2460
      40.620   102.70175    486.5024   1273.4585
      40.630   102.70210    503.9923   1247.6710
      40.640   102.70210    494.6626   1258.5365
      40.650   102.70210    485.3329   1269.4020
      40.660   102.70230    485.0955   1282.6575
      40.670   102.70250    484.8581   1295.9130
      40.680   102.70300    490.6587   1288.4140
      40.690   102.70350    496.4594   1280.9150
      40.700   102.70415    487.0498   1284.4325
      40.710   102.70480    477.6402   1287.9500
      40.720   102.70505    473.4318   1298.2555
      40.730   102.70530    469.2234   1308.5610
      40.740   102.70580    469.1796   1328.3435
      40.750   102.70630    469.1358   1348.1260
      40.760   102.70630    470.9506   1322.5290
      40.770   102.70630    472.7654   1296.9320
      40.780   102.70615    466.6707   1267.5775
      40.790   102.70600    460.5761   1238.2230
      40.800   102.70715    448.8657   1232.4940
      40.810   102.70830    437.1552   1226.7650
      40.820   102.70800    433.1876   1213.7355
      40.830   102.70770    429.2201   1200.7060
      40.840   102.70765    438.8955   1199.3190
      40.850   102.70760    448.5709   1197.9320
      40.860   102.71005    466.3438   1232.0200
      40.870   102.71250    484.1167   1266.1080
      40.880   102.72295    464.6896   1256.7090
      40.890   102.73340    445.2624   1247.3100
      40.900   102.75005    437.8307   1222.8595
      40.910   102.76670    430.3991   1198.4090
      40.920   102.77460    432.9162   1166.9550
      40.930   102.78250    435.4333   1135.5010
      40.940   102.78470    447.3583   1112.5120
      40.950   102.78690    459.2833   1089.5230
      40.960   102.78900    462.3913   1073.7690
      40.970   102.79110    465.4992   1058.0150
      40.980   102.79370    461.1554   1054.7505
      40.990   102.79630    456.8116   1051.4860
      41.000   102.79960    443.4207   1035.3380
      41.010   102.80290    430.0297   1019.1900
      41.020   102.82200    434.2839    999.0665
      41.030   102.84110    438.5381    978.9430
      41.040   102.87110    455.2537    958.0016
      41.050   102.90110    471.9693    937.0602
      41.060   102.95170    470.3911    908.8513
      41.070   103.00230    468.8130    880.6425
      41.080   103.09755    468.0468    857.4325
      41.090   103.19280    467.2806    834.2224
      41.100   103.23240    467.6643    829.2569
      41.110   103.27200    468.0479    824.2914
      41.120   103.33925    476.1595    819.6715
      41.130   103.40650    484.2710    815.0517
      41.140   103.72465    493.8413    806.3943
      41.150   104.04280    503.4115    797.7369
