~VERSION INFORMATION SECTION
VERS.           2.0  :CWLS Log ASCII Standard - 2.0
WRAP.           NO   :One line per depth
#               Created in SeisLab
~WELL INFORMATION SECTION
#MNEM.UNIT  VALUE/NAME               :DESCRIPTION    
STRT.m  24.75                        :Start Depth    
STOP.m  125.11                       :Stop Depth     
STEP.m  0.02                         :Step           
NULL.    -999.25                     :Null Value     
WELL.    GDP1                        :Well Name      
CTRY.    Switzerland                 :Country        
CNTY.                                :County         
STAT.    Central Swiss Alps          :State          
API .                                :API number     
UWI .                                :Unique well ID 
LOC .    Grimsel Pass, Switzerland   :Well Location  
FLD .    n/a                         :Field          
COMP.    n/a                         :Company        
SRVC.    University of Lausanne      :Service Company
DATE.    2015                        :Date           
~PARAMETER INFORMATION SECTION
#MNEM .UNITS    VALUE   :DESCRIPTION OF PARAMETER
Casing.n/a      0       :open hole               
Mud   .Polymer  1       :Mud type                
~CURVE INFORMATION SECTION
#MNEM.UNITS  API CODES   :DESCRIPTION OF MNEMONIC
depth.m                  :measured depth         
NG   .cps                :Natural gamma          
Sp   .mV                 :Self potential         
Temp .DegC               :Temperature            
SPR  .Ohm                :Single point resistance
R8   .Ohm.m              :Normal resistivity     
R16  .Ohm.m              :Single point resistance
R32  .Ohm.m              :Normal resistivity     
R64  .Ohm.m              :Normal resistivity     
~A depth       NG          Sp          Temp        SPR         R8          R16         R32         R64         
# ...
      72.110   3257.5600    555.6250    10.68550    2405.530     470.156     581.813     813.642    1537.300
      72.130   2557.4500    530.5000    10.67190    2538.270     446.927     614.282     826.081    1609.630
      72.150   3107.8600    515.8750    10.66410    2579.600     404.223     677.613     741.824    1658.640
      72.170   3237.0300    516.7500    10.64260    2544.290     367.286     679.512     720.911    1654.060
      72.190   3196.7500    507.7500    10.67190    2426.560     368.867     631.457     822.218    1627.050
      72.210   2635.6900    482.0000    10.68950    2211.800     384.095     632.929     981.066    1510.230
      72.230   3276.5400    471.0000    10.73240    1890.270     409.446     609.356     970.015    1496.750
      72.250   2848.7300    486.1250    10.62700    1620.630     456.935     605.017     838.611    1574.520
      72.270   3251.5600    501.3750    10.67580    1491.200     462.787     637.774     883.630    1562.150
      72.290   3731.2800    518.7500    10.69530    1459.310     446.640     591.980     966.674    1366.050
      72.310   2496.9300    525.3750    10.70310    1488.160     453.297     562.814     952.185    1106.900
      72.330   2405.3200    516.8750    10.69730    1546.320     443.145     567.720     964.185    1064.220
      72.350   2706.7700    501.2500    10.70900    1624.220     442.020     550.171     913.589    1265.440
      72.370   2747.8300    471.7500    10.69530    1677.580     445.463     538.735     856.229    1448.400
      72.390   2769.1300    463.0000    10.69140    1727.070     404.054     602.207     912.276    1413.030
      72.410   3139.2300    487.0000    10.70900    1828.270     379.625     701.123     993.408    1250.870
      72.430   2979.8400    511.6250    10.71480    2001.840     377.490     692.590    1004.490    1109.210
      72.450   3035.6200    538.6250    10.70900    2247.170     360.383     600.278     959.948    1131.490
      72.470   2656.8000    542.2500    10.70120    2454.940     355.216     601.472     953.611    1365.010
      72.490   3552.7100    507.7500    10.69140    2454.130     388.530     647.685     922.393    1620.090
      72.510   2830.7200    493.3750    10.71290    2269.290     438.343     633.187     842.983    1650.160
      72.530   3444.6500    512.6250    10.64450    2113.510     429.050     651.770     822.402    1516.110
      72.550   2577.7800    523.8750    10.69340    2069.540     388.874     644.215     822.001    1313.140
      72.570   3064.2800   -999.0000    10.71090    2108.300     409.269     617.796     800.716    1133.100
      72.590   2840.0100    523.8750    10.72660    2197.130     441.677     654.071     845.580    1076.410
      72.610   2062.0400    525.6250    10.69920    2253.050     444.300     683.115     926.544    1057.870
      72.630   2181.9300    529.6250    10.67190    2193.630     457.965     660.624     948.007    1162.550
      72.650   2970.5400    532.8750    10.70510    2098.410     452.041     634.485     938.731    1388.250
      72.670   1998.2300    536.8750    10.68160    2081.470     436.005     644.072     926.923    1393.800
      72.690   2202.9400    536.8750    10.69140    2101.710     449.337     630.036     868.521    1317.060
      72.710   2185.5100    531.6250    10.69920    2063.180     460.341     606.053     844.601    1313.490
      72.730   2926.7800    521.6250    10.70900    1991.300     446.153     609.666     891.800    1153.190
      72.750   2037.2500    502.1250    10.72270    1893.350     426.597     595.284     899.032    1165.860
      72.770   2403.3900    494.6250    10.70310    1776.120     425.079     574.998     909.068    1265.010
      72.790   2314.7800    504.8750    10.68550    1635.440     416.989     595.282     954.949    1111.370
      72.810   2839.8200    501.2500    10.73830    1496.760     403.569     644.444     984.745    1125.770
      72.830   2322.3400    475.2500    10.71480    1386.040     406.974     665.734     949.574    1149.880
      72.850   2631.2400    467.2500    10.73240    1298.190     404.480     659.479     905.326     987.322
      72.870   1729.4200    486.0000    10.70900    1250.120     396.655     651.165     890.618     933.853
      72.890   2503.7100    489.5000    10.72070    1223.330     408.999     624.078     910.532    1115.750
      72.910   2294.9300    470.5000    10.69340    1199.730     431.985     615.201     955.129    1381.430
      72.930   2935.3000    460.3750    10.70900    1189.340     438.064     634.259     933.773    1362.410
      72.950   2627.5600    463.6250    10.69530    1206.700     434.167     640.558     883.929    1146.160
      72.970   2266.8500    463.6250    10.70510    1242.030     429.384     660.412     821.055    1205.750
      72.990   2816.9700    457.7500    10.72070    1284.750     410.577     697.214     832.479    1324.220
      73.010   2431.6600    459.6250    10.70900    1298.030     400.322     707.022     925.773    1306.580
      73.030   3010.8300    475.6250    10.69140    1260.140     409.468     675.417     953.684    1330.870
      73.050   2938.9800    480.0000    10.71480    1233.630     410.997     648.318     956.725    1226.950
      73.070   2323.2100    465.3750    10.68160    1230.960     421.132     641.880     984.107    1114.480
      73.090   -999.0000    467.5000    10.71290    1199.770     442.929     648.326     956.779    1263.940
      73.110   1925.9000    496.7500    10.68160    1145.710     451.151     657.272     855.336    1433.470
      73.130   2684.6900    504.5000    10.70700    1118.370     437.974     646.929     848.653    1465.480
      73.150   2167.2100    477.2500    10.64650    1124.870     425.894     625.868     953.034    1408.810
      73.170   2546.1200    468.7500    10.71090    1135.260     423.319     580.581     953.382    1391.190
      73.190   1735.1300    492.1250    10.71090    1148.190     427.354     573.849     916.224    1307.720
      73.210   2366.3900    494.8750    10.67580    1171.440     435.271     626.495     951.880    1137.520
      73.230   1751.5000    461.2500    10.72460    1196.240     428.318     651.899     905.704    1073.230
      73.250   2502.5400    453.1250    10.67190    1226.860     412.324     657.115     787.787    1045.510
      73.270   2332.0200    488.1250    10.66990    1279.150     383.037     673.899     767.021    1028.460
      73.290   2305.2000    496.1250    10.70310    1352.980     375.161     659.690     826.259    1094.030
      73.310   2975.1900    460.3750    10.66020    1442.110     400.278     600.672     905.962    1229.120
      73.330   2690.3100    443.0000    10.69920    1491.900     409.006     591.116    1005.810    1248.690
      73.350   2026.5100    451.2500    10.67190    1462.420     409.482     645.650     980.665    1232.210
      73.370   2779.9700    469.2500    10.66800    1399.420     419.483     649.570     865.097    1249.770
      73.390   2206.1300    507.6250    10.72070    1332.970     414.131     623.644     822.907    1140.400
      73.410   2762.3500    527.3750    10.66210    1292.480     385.673     634.182     819.538    1099.900
      73.430   2950.4000    518.0000    10.66210    1308.480     383.488     602.317     879.482    1178.210
      73.450   2489.5700    504.3750    10.69530    1333.330     419.662     534.086     874.022    1188.360
      73.470   2417.4300    484.0000    10.71290    1318.850     428.024     529.038     757.166    1192.690
      73.490   2089.0600    470.3750    10.66210    1306.190     414.615     573.953     779.273    1260.490
      73.510   2053.7200    466.3750    10.69730    1287.340     420.697     620.606     943.629    1348.190
      73.530   2781.3300    468.7500    10.65040    1259.130     407.623     667.654    1074.830    1298.660
      73.550   2944.7900    482.2500    10.66600    1250.310     375.215     660.234    1106.780    1202.870
      73.570   2986.6200    492.6250    10.66210    1238.050     375.507     589.882    1059.630    1166.650
