~VERSION INFORMATION SECTION
VERS.           2.0  :CWLS Log ASCII Standard - 2.0
WRAP.           NO   :One line per depth
#               Created in SeisLab
~WELL INFORMATION SECTION
#MNEM.UNIT  VALUE/NAME               :DESCRIPTION    
STRT.m  10                           :Start Depth    
STOP.m  124                          :Stop Depth     
STEP.m  0.01                         :Step           
NULL.    -999.25                     :Null Value     
WELL.    GDP1                        :Well Name      
CTRY.    Switzerland                 :Country        
CNTY.                                :County         
STAT.    Central Swiss Alps          :State          
API .                                :API number     
UWI .                                :Unique well ID 
LOC .    Grimsel pass, Switzerland   :Well Location  
FLD .    n/a                         :Field          
COMP.    n/a                         :Company        
SRVC.    University of Lausanne      :Service Company
DATE.    2015/2016                   :Date           
~PARAMETER INFORMATION SECTION
#MNEM .UNITS  VALUE   :DESCRIPTION OF PARAMETER
Casing.n/a    0       :open hole/cased hole    
~CURVE INFORMATION SECTION
#MNEM       .UNITS  API CODES   :DESCRIPTION OF MNEMONIC      
depth       .m                  :measured depth (interpolated)
BHR velocity.m/ns               :BHR velocity 2015            
BHR velocity.m/ns               :BHR velocity 2016            
~A depth       BHR_velocity BHR_velocity
# ...
      75.100     0.10497     0.10708
      75.110     0.10497     0.10706
      75.120     0.10498     0.10698
      75.130     0.10499     0.10689
      75.140     0.10501     0.10681
      75.150     0.10503     0.10672
      75.160     0.10506     0.10664
      75.170     0.10509     0.10671
      75.180     0.10508     0.10678
      75.190     0.10507     0.10684
      75.200     0.10515     0.10691
      75.210     0.10524     0.10698
      75.220     0.10526     0.10698
      75.230     0.10528     0.10698
      75.240     0.10525     0.10698
      75.250     0.10522     0.10698
      75.260     0.10522     0.10698
      75.270     0.10522     0.10693
      75.280     0.10525     0.10688
      75.290     0.10528     0.10683
      75.300     0.10519     0.10678
      75.310     0.10511     0.10672
      75.320     0.10512     0.10671
      75.330     0.10513     0.10669
      75.340     0.10510     0.10667
      75.350     0.10507     0.10666
      75.360     0.10502     0.10664
      75.370     0.10497     0.10664
      75.380     0.10495     0.10664
      75.390     0.10494     0.10664
      75.400     0.10487     0.10664
      75.410     0.10480     0.10664
      75.420     0.10475     0.10672
      75.430     0.10469     0.10681
      75.440     0.10468     0.10689
      75.450     0.10467     0.10698
      75.460     0.10463     0.10706
      75.470     0.10460     0.10701
      75.480     0.10454     0.10696
      75.490     0.10448     0.10691
      75.500     0.10444     0.10686
      75.510     0.10439     0.10681
      75.520     0.10435     0.10681
      75.530     0.10431     0.10681
      75.540     0.10425     0.10681
      75.550     0.10418     0.10681
      75.560     0.10420     0.10681
      75.570     0.10422     0.10678
      75.580     0.10419     0.10674
      75.590     0.10416     0.10671
      75.600     0.10428     0.10667
      75.610     0.10439     0.10664
      75.620     0.10441     0.10666
      75.630     0.10443     0.10667
      75.640     0.10459     0.10669
      75.650     0.10475     0.10671
      75.660     0.10475     0.10672
      75.670     0.10475     0.10681
      75.680     0.10483     0.10689
      75.690     0.10492     0.10698
      75.700     0.10495     0.10706
      75.710     0.10499     0.10715
      75.720     0.10506     0.10715
      75.730     0.10513     0.10715
      75.740     0.10514     0.10715
      75.750     0.10514     0.10715
      75.760     0.10521     0.10715
      75.770     0.10528     0.10720
      75.780     0.10529     0.10725
      75.790     0.10530     0.10730
      75.800     0.10529     0.10736
      75.810     0.10528     0.10741
      75.820     0.10536     0.10748
      75.830     0.10545     0.10754
      75.840     0.10542     0.10761
      75.850     0.10539     0.10768
      75.860     0.10541     0.10775
      75.870     0.10543     0.10784
      75.880     0.10541     0.10792
      75.890     0.10539     0.10801
      75.900     0.10536     0.10810
      75.910     0.10534     0.10819
      75.920     0.10522     0.10824
      75.930     0.10511     0.10829
      75.940     0.10511     0.10834
      75.950     0.10511     0.10840
      75.960     0.10507     0.10845
      75.970     0.10503     0.10827
      75.980     0.10503     0.10810
      75.990     0.10503     0.10792
      76.000     0.10506     0.10775
      76.010     0.10509     0.10758
      76.020     0.10509     0.10763
      76.030     0.10509     0.10768
      76.040     0.10500     0.10773
      76.050     0.10492     0.10779
      76.060     0.10488     0.10784
      76.070     0.10484     0.10789
      76.080     0.10478     0.10794
      76.090     0.10473     0.10799
      76.100     0.10463     0.10805
      76.110     0.10454     0.10810
      76.120     0.10455     0.10798
      76.130     0.10456     0.10786
      76.140     0.10450     0.10773
      76.150     0.10445     0.10761
      76.160     0.10439     0.10749
      76.170     0.10433     0.10737
      76.180     0.10437     0.10725
      76.190     0.10441     0.10713
      76.200     0.10435     0.10701
      76.210     0.10430     0.10689
      76.220     0.10415     0.10688
      76.230     0.10400     0.10686
      76.240     0.10396     0.10684
      76.250     0.10392     0.10683
      76.260     0.10381     0.10681
      76.270     0.10370     0.10678
      76.280     0.10348     0.10674
      76.290     0.10326     0.10671
      76.300     0.10320     0.10667
      76.310     0.10315     0.10664
      76.320     0.10304     0.10655
      76.330     0.10293     0.10647
      76.340     0.10285     0.10639
      76.350     0.10276     0.10630
      76.360     0.10269     0.10622
      76.370     0.10262     0.10608
      76.380     0.10260     0.10595
      76.390     0.10258     0.10582
      76.400     0.10247     0.10568
      76.410     0.10237     0.10555
      76.420     0.10241     0.10553
      76.430     0.10246     0.10552
      76.440     0.10242     0.10550
      76.450     0.10238     0.10548
      76.460     0.10238     0.10547
      76.470     0.10237     0.10547
      76.480     0.10236     0.10547
      76.490     0.10235     0.10547
      76.500     0.10236     0.10547
      76.510     0.10237     0.10547
      76.520     0.10227     0.10547
      76.530     0.10217     0.10547
      76.540     0.10212     0.10547
      76.550     0.10208     0.10547
      76.560     0.10204     0.10547
      76.570     0.10201     0.10540
      76.580     0.10184     0.10533
      76.590     0.10167     0.10527
      76.600     0.10152     0.10520
      76.610     0.10137     0.10514
      76.620     0.10128     0.10504
      76.630     0.10119     0.10494
      76.640     0.10101     0.10484
      76.650     0.10082     0.10474
      76.660     0.10066     0.10465
      76.670     0.10049     0.10453
      76.680     0.10043     0.10442
      76.690     0.10037     0.10430
      76.700     0.10024     0.10419
      76.710     0.10011     0.10408
      76.720     0.09995     0.10398
      76.730     0.09978     0.10388
      76.740     0.09970     0.10379
      76.750     0.09961     0.10369
      76.760     0.09947     0.10360
      76.770     0.09932     0.10342
      76.780     0.09919     0.10325
      76.790     0.09907     0.10307
      76.800     0.09898     0.10290
      76.810     0.09890     0.10272
      76.820     0.09878     0.10260
      76.830     0.09866     0.10247
      76.840     0.09859     0.10235
      76.850     0.09851     0.10222
      76.860     0.09845     0.10210
      76.870     0.09838     0.10193
      76.880     0.09831     0.10176
      76.890     0.09823     0.10159
      76.900     0.09815     0.10142
      76.910     0.09806     0.10125
      76.920     0.09801     0.10113
      76.930     0.09795     0.10101
      76.940     0.09788     0.10089
      76.950     0.09782     0.10077
      76.960     0.09774     0.10065
      76.970     0.09767     0.10046
      76.980     0.09763     0.10028
      76.990     0.09759     0.10011
      77.000     0.09753     0.09993
      77.010     0.09747     0.09975
      77.020     0.09742     0.09969
      77.030     0.09737     0.09963
      77.040     0.09736     0.09957
      77.050     0.09734     0.09951
      77.060     0.09730     0.09945
      77.070     0.09726     0.09939
      77.080     0.09720     0.09934
      77.090     0.09713     0.09928
      77.100     0.09717     0.09922
      77.110     0.09721     0.09916
      77.120     0.09717     0.09910
      77.130     0.09713     0.09904
      77.140     0.09707     0.09898
      77.150     0.09702     0.09893
      77.160     0.09703     0.09887
      77.170     0.09705     0.09879
      77.180     0.09703     0.09872
      77.190     0.09700     0.09865
      77.200     0.09693     0.09858
      77.210     0.09686     0.09850
      77.220     0.09686     0.09843
      77.230     0.09687     0.09836
      77.240     0.09678     0.09829
      77.250     0.09669     0.09822
      77.260     0.09661     0.09814
