~VERSION INFORMATION SECTION
VERS.           2.0  :CWLS Log ASCII Standard - 2.0
WRAP.           NO   :One line per depth
#               Created in SeisLab
~WELL INFORMATION SECTION
#MNEM.UNIT  VALUE/NAME               :DESCRIPTION    
STRT.m  10                           :Start Depth    
STOP.m  125                          :Stop Depth     
STEP.m  0.01                         :Step           
NULL.    -999.25                     :Null Value     
WELL.    GDP1                        :Well Name      
CTRY.    Switzerland                 :Country        
CNTY.                                :County         
STAT.    Central Swiss Alps          :State          
API .                                :API number     
UWI .                                :Unique well ID 
LOC .    Grimsel Pass, Switzerland   :Well Location  
FLD .    n/a                         :Field          
COMP.    n/a                         :Company        
SRVC.    University of Lausanne      :Service Company
DATE.    2017                        :Date           
~PARAMETER INFORMATION SECTION
#MNEM .UNITS  VALUE   :DESCRIPTION OF PARAMETER
Casing.n/a    1       :slotted PVC casing      
~CURVE INFORMATION SECTION
#MNEM.UNITS  API CODES   :DESCRIPTION OF MNEMONIC
depth.m                  :measured depth         
NG   .cps                :Natural gamma          
Sp   .mV                 :Self potential         
Temp .DegC               :Temperature            
SPR  .Ohm                :Single point resistance
R8   .Ohm.m              :Normal resistivity     
R16  .Ohm.m              :Single point resistance
R32  .Ohm.m              :Normal resistivity     
R64  .Ohm.m              :Normal resistivity     
~A depth       NG          Sp          Temp        SPR         R8          R16         R32         R64         
# ...
     106.940   314.29873    944.0462     7.53711    -999.250    2877.589    2998.695    3189.453    4511.242
     106.950   313.71922    943.1483     7.53906    -999.250    2822.451    2983.323    3275.235    4697.116
     106.960   313.02970    942.2746     7.54102    -999.250    2767.312    2967.950    3261.015    4337.812
     106.970   312.24334    941.4418     7.54004    -999.250    2714.225    3054.738    3246.795    3978.508
     106.980   311.37550    940.6655     7.53906    -999.250    2661.138    3026.948    3144.002    3342.780
     106.990   310.44267    939.9605     7.54004    -999.250    2619.901    2998.951    3041.210    2707.051
     107.000   309.46145    939.3404     7.54102    -999.250    2578.664    2970.676    3028.515    2541.075
     107.010   308.44739    938.8177     7.54004    -999.250    2542.412    2942.071    3015.820    2542.101
     107.020   307.41372    938.4036     7.53906    -999.250    2506.160    2913.105    3057.969    2543.127
     107.030   306.37042    938.1089     7.53418    -999.250    2474.084    2883.770    3100.119    2544.153
     107.040   305.32362    937.9433     7.52930    -999.250    2442.008    2854.077    3081.994    2545.178
     107.050   304.27575    937.9159     7.53174    -999.250    2415.284    2824.056    3063.869    2653.201
     107.060   303.22610    938.0343     7.53418    -999.250    2388.561    2793.760    3036.882    3413.216
     107.070   302.17184    938.3046     7.54346    -999.250    2356.253    2763.253    3009.894    4173.231
     107.080   301.10938    938.7312     7.55273    -999.250    2323.944    2732.619    2996.444    4224.956
     107.090   300.03626    939.3165     7.55371    -999.250    2296.257    2701.954    2982.995    4276.681
     107.100   298.95302    940.0617     7.55469    -999.250    2268.570    2671.363    2998.219    3983.371
     107.110   297.86468    940.9661     7.53174    -999.250    2236.470    2640.964    3013.444    3690.061
     107.120   296.78149    942.0281     7.50879    -999.250    2204.371    2610.878    3092.681    3229.088
     107.130   295.71886    943.2440     7.52148    -999.250    2170.956    2581.233    3171.919    2768.114
     107.140   294.69649    944.6079     7.53418    -999.250    2137.541    2552.157    3250.982    2555.435
     107.150   293.73680    946.1111     7.55030    -999.250    2100.534    2523.778    3330.045    2556.461
     107.160   292.86300    947.7409     7.56641    -999.250    2063.527    2496.224    3360.360    2563.632
     107.170   292.09691    949.4803     7.54932    -999.250    2027.403    2469.615    3390.674    2568.366
     107.180   291.45670    951.3079     7.53223    -999.250    1991.279    2444.066    3397.524    2573.099
     107.190   290.95488    953.1981     7.52198    -999.250    1953.057    2419.685    3404.373    2577.708
     107.200   290.59666    955.1220     7.51172    -999.250    1914.835    2396.569    3405.468    2582.318
     107.210   290.37898    957.0485     7.52539    -999.250    1884.969    2374.805    3406.562    2584.381
     107.220   290.29059    958.9461     7.53906    -999.250    1855.103    2354.467    3428.204    2586.443
     107.230   290.31305    960.7843     7.54492    -999.250    1833.511    2335.617    3449.845    2592.937
     107.240   290.42241    962.5354     7.55078    -999.250    1811.919    2318.303    3414.564    2599.432
     107.250   290.59126    964.1751     7.53906    -999.250    2070.995    2302.560    3379.282    2604.192
     107.260   290.79066    965.6836     7.52734    -999.250    2049.131    2288.409    3297.036    2608.952
     107.270   290.99213    967.0459     7.53662    -999.250    2027.482    2275.858    3214.791    2608.848
     107.280   291.16920    968.2515     7.54590    -999.250    2006.128    2264.901    3241.842    2608.743
     107.290   291.29883    969.2946     7.54688    -999.250    1985.147    2255.521    3268.894    2608.287
     107.300   291.36219    970.1740     7.54785    -999.250    1964.625    2247.686    3336.130    2607.830
     107.310   291.34495    970.8929     7.54444    -999.250    1944.643    2241.356    3403.366    2612.726
     107.320   291.23754    971.4583     7.54102    -999.250    1925.286    2236.481    3388.570    2617.622
     107.330   291.03538    971.8806     7.55030    -999.250    1906.634    2233.003    3373.773    2628.361
     107.340   290.73948    972.1729     7.55957    -999.250    1888.768    2230.854    3365.877    2639.101
     107.350   290.35675    972.3501     7.54687    -999.250    1871.764    2229.963    3357.982    2642.472
     107.360   289.90007    972.4285     7.53418    -999.250    1855.694    2230.254    3413.061    2645.843
     107.370   289.38778    972.4246     7.53809    -999.250    1840.629    2231.648    3468.141    2648.389
     107.380   288.84277    972.3548     7.54199    -999.250    1826.636    2234.064    3487.886    2650.936
     107.390   288.29127    972.2351     7.54541    -999.250    1813.778    2237.420    3507.631    2653.196
     107.400   287.76166    972.0800     7.54883    -999.250    1802.115    2241.637    3511.396    2655.456
     107.410   287.28360    971.9030     7.54151    -999.250    1791.706    2246.637    3515.161    2659.385
     107.420   286.88706    971.7158     7.53418    -999.250    1782.606    2252.345    3554.570    2663.313
     107.430   286.60141    971.5288     7.53222    -999.250    1774.869    2258.690    3593.980    2670.778
     107.440   286.45419    971.3502     7.53027    -999.250    1768.549    2265.607    3608.035    2678.244
     107.450   286.46987    971.1870     7.54052    -999.250    1763.698    2273.034    3622.091    2681.452
     107.460   286.66837    971.0440     7.55078    -999.250    1760.367    2280.919    3623.468    2684.661
     107.470   287.06345    970.9251     7.54346    -999.250    1758.610    2289.212    3624.845    2682.296
     107.480   287.66119    970.8322     7.53613    -999.250    1758.477    2297.872    3638.456    2679.931
     107.490   288.45893    970.7664     7.54883    -999.250    1760.024    2306.864    3652.067    2678.604
     107.500   289.44482    970.7275     7.56152    -999.250    1763.302    2316.158    3713.664    2677.277
     107.510   290.59828    970.7144     7.54541    -999.250    1768.368    2325.732    3775.261    2672.296
     107.520   291.89104    970.7253     7.52930    -999.250    1775.274    2335.566    3850.063    2667.315
     107.530   293.28856    970.7578     7.54590    -999.250    1784.077    2345.649    3924.865    2666.188
     107.540   294.75145    970.8091     7.56250    -999.250    1794.830    2355.972    3851.041    2665.062
     107.550   296.23666    970.8760     7.54590    -999.250    1807.585    2366.530    3777.216    2667.171
     107.560   297.69894    970.9553     7.52930    -999.250    1822.395    2377.321    3660.293    2669.281
     107.570   299.09285    971.0437     7.54200    -999.250    1839.306    2388.345    2387.516    2671.734
     107.580   300.37545    971.1378     7.55469    -999.250    1858.363    2399.603    2391.487    2674.188
     107.590   301.50902    971.2346     7.54590    -999.250    1879.603    2411.097    2393.971    2680.411
     107.600   302.46334    971.3311     7.53711    -999.250    1903.060    2422.827    2396.456    2686.635
     107.610   303.21713    971.4246     7.54931    -999.250    1928.756    2434.794    2399.254    2695.014
     107.620   303.75845    971.5130     7.56152    -999.250    1956.706    2446.995    2402.052    2703.393
     107.630   304.08448    971.5941     7.55957    -999.250    1986.914    2459.425    2402.126    2715.754
     107.640   304.20050    971.6665     7.55762    -999.250    2019.371    2472.077    2402.199    2728.115
     107.650   304.11868    971.7292     7.56641    -999.250    2054.054    2484.939    2404.429    2733.669
     107.660   303.85657    971.7816     7.57520    -999.250    2090.927    2497.995    2406.658    2734.443
     107.670   303.43587    971.8236     7.56739    -999.250    2129.935    2511.225    2406.940    2735.216
