~VERSION INFORMATION SECTION
VERS.           2.0  :CWLS Log ASCII Standard - 2.0
WRAP.           NO   :One line per depth
#               Created in SeisLab
~WELL INFORMATION SECTION
#MNEM.UNIT  VALUE/NAME               :DESCRIPTION    
STRT.m  10                           :Start Depth    
STOP.m  124                          :Stop Depth     
STEP.m  0.01                         :Step           
NULL.    -999.25                     :Null Value     
WELL.    GDP1                        :Well Name      
CTRY.    Switzerland                 :Country        
CNTY.                                :County         
STAT.    Central Swiss Alps          :State          
API .                                :API number     
UWI .                                :Unique well ID 
LOC .    Grimsel pass, Switzerland   :Well Location  
FLD .    n/a                         :Field          
COMP.    n/a                         :Company        
SRVC.    University of Lausanne      :Service Company
DATE.    2015/2016                   :Date           
~PARAMETER INFORMATION SECTION
#MNEM .UNITS  VALUE   :DESCRIPTION OF PARAMETER
Casing.n/a    0       :open hole/cased hole    
~CURVE INFORMATION SECTION
#MNEM       .UNITS  API CODES   :DESCRIPTION OF MNEMONIC      
depth       .m                  :measured depth (interpolated)
BHR velocity.m/ns               :BHR velocity 2015            
BHR velocity.m/ns               :BHR velocity 2016            
~A depth       BHR_velocity BHR_velocity
# ...
      27.360     0.11598     0.12408
      27.370     0.11602     0.12410
      27.380     0.11603     0.12412
      27.390     0.11604     0.12415
      27.400     0.11600     0.12417
      27.410     0.11595     0.12419
      27.420     0.11593     0.12415
      27.430     0.11590     0.12410
      27.440     0.11588     0.12406
      27.450     0.11586     0.12401
      27.460     0.11581     0.12396
      27.470     0.11576     0.12396
      27.480     0.11572     0.12396
      27.490     0.11567     0.12396
      27.500     0.11567     0.12396
      27.510     0.11567     0.12396
      27.520     0.11567     0.12401
      27.530     0.11567     0.12406
      27.540     0.11563     0.12410
      27.550     0.11558     0.12415
      27.560     0.11556     0.12419
      27.570     0.11553     0.12426
      27.580     0.11555     0.12433
      27.590     0.11556     0.12440
      27.600     0.11553     0.12447
      27.610     0.11551     0.12454
      27.620     0.11551     0.12454
      27.630     0.11551     0.12454
      27.640     0.11552     0.12454
      27.650     0.11553     0.12454
      27.660     0.11553     0.12454
      27.670     0.11553     0.12458
      27.680     0.11551     0.12463
      27.690     0.11549     0.12468
      27.700     0.11549     0.12472
      27.710     0.11549     0.12477
      27.720     0.11547     0.12482
      27.730     0.11544     0.12486
      27.740     0.11543     0.12491
      27.750     0.11542     0.12496
      27.760     0.11542     0.12500
      27.770     0.11542     0.12500
      27.780     0.11540     0.12500
      27.790     0.11537     0.12500
      27.800     0.11537     0.12500
      27.810     0.11537     0.12500
      27.820     0.11540     0.12503
      27.830     0.11542     0.12505
      27.840     0.11542     0.12507
      27.850     0.11542     0.12510
      27.860     0.11543     0.12512
      27.870     0.11544     0.12519
      27.880     0.11547     0.12526
      27.890     0.11549     0.12533
      27.900     0.11550     0.12540
      27.910     0.11551     0.12547
      27.920     0.11549     0.12547
      27.930     0.11547     0.12547
      27.940     0.11547     0.12547
      27.950     0.11547     0.12547
      27.960     0.11548     0.12547
      27.970     0.11549     0.12549
      27.980     0.11552     0.12552
      27.990     0.11556     0.12554
      28.000     0.11557     0.12556
      28.010     0.11558     0.12559
      28.020     0.11560     0.12566
      28.030     0.11563     0.12573
      28.040     0.11564     0.12580
      28.050     0.11565     0.12587
      28.060     0.11566     0.12594
      28.070     0.11567     0.12599
      28.080     0.11566     0.12603
      28.090     0.11565     0.12608
      28.100     0.11565     0.12613
      28.110     0.11565     0.12618
      28.120     0.11563     0.12603
      28.130     0.11560     0.12589
      28.140     0.11558     0.12575
      28.150     0.11556     0.12561
      28.160     0.11551     0.12547
      28.170     0.11547     0.12570
      28.180     0.11544     0.12594
      28.190     0.11542     0.12618
      28.200     0.11539     0.12641
      28.210     0.11535     0.12665
      28.220     0.11534     0.12677
      28.230     0.11533     0.12689
      28.240     0.11534     0.12701
      28.250     0.11535     0.12713
      28.260     0.11533     0.12725
      28.270     0.11531     0.12745
      28.280     0.11528     0.12764
      28.290     0.11526     0.12783
      28.300     0.11526     0.12803
      28.310     0.11526     0.12822
      28.320     0.11526     0.12830
      28.330     0.11526     0.12837
      28.340     0.11526     0.12845
      28.350     0.11526     0.12852
      28.360     0.11528     0.12859
      28.370     0.11531     0.12864
      28.380     0.11536     0.12869
      28.390     0.11542     0.12874
      28.400     0.11545     0.12879
      28.410     0.11549     0.12884
      28.420     0.11553     0.12901
      28.430     0.11558     0.12919
      28.440     0.11560     0.12936
      28.450     0.11563     0.12954
      28.460     0.11568     0.12971
      28.470     0.11574     0.12984
      28.480     0.11573     0.12996
      28.490     0.11572     0.13009
      28.500     0.11574     0.13021
      28.510     0.11576     0.13034
      28.520     0.11576     0.13057
      28.530     0.11576     0.13080
      28.540     0.11579     0.13103
      28.550     0.11581     0.13126
      28.560     0.11582     0.13149
      28.570     0.11583     0.13159
      28.580     0.11587     0.13170
      28.590     0.11590     0.13180
      28.600     0.11593     0.13190
      28.610     0.11595     0.13201
      28.620     0.11600     0.13211
      28.630     0.11604     0.13221
      28.640     0.11607     0.13232
      28.650     0.11609     0.13242
      28.660     0.11610     0.13253
      28.670     0.11611     0.13263
      28.680     0.11616     0.13274
      28.690     0.11620     0.13284
      28.700     0.11624     0.13295
      28.710     0.11627     0.13305
      28.720     0.11630     0.13297
      28.730     0.11632     0.13289
      28.740     0.11637     0.13282
      28.750     0.11641     0.13274
      28.760     0.11646     0.13266
      28.770     0.11651     0.13263
      28.780     0.11653     0.13261
      28.790     0.11655     0.13258
      28.800     0.11658     0.13255
      28.810     0.11660     0.13253
      28.820     0.11664     0.13253
      28.830     0.11667     0.13253
      28.840     0.11669     0.13253
      28.850     0.11672     0.13253
      28.860     0.11675     0.13253
      28.870     0.11679     0.13261
      28.880     0.11684     0.13268
      28.890     0.11688     0.13276
      28.900     0.11693     0.13284
      28.910     0.11698     0.13292
      28.920     0.11700     0.13284
      28.930     0.11702     0.13276
      28.940     0.11705     0.13268
      28.950     0.11707     0.13261
      28.960     0.11713     0.13253
      28.970     0.11719     0.13250
      28.980     0.11721     0.13247
      28.990     0.11724     0.13245
      29.000     0.11726     0.13242
      29.010     0.11728     0.13240
      29.020     0.11732     0.13227
      29.030     0.11735     0.13214
      29.040     0.11741     0.13201
      29.050     0.11747     0.13188
      29.060     0.11752     0.13175
      29.070     0.11757     0.13172
      29.080     0.11764     0.13170
      29.090     0.11771     0.13167
      29.100     0.11776     0.13164
      29.110     0.11781     0.13162
      29.120     0.11788     0.13162
      29.130     0.11795     0.13162
      29.140     0.11801     0.13162
      29.150     0.11807     0.13162
      29.160     0.11811     0.13162
      29.170     0.11814     0.13159
      29.180     0.11817     0.13157
      29.190     0.11819     0.13154
      29.200     0.11826     0.13151
      29.210     0.11833     0.13149
      29.220     0.11839     0.13136
      29.230     0.11846     0.13123
      29.240     0.11852     0.13110
      29.250     0.11858     0.13098
      29.260     0.11864     0.13085
      29.270     0.11870     0.13077
      29.280     0.11876     0.13070
      29.290     0.11882     0.13062
      29.300     0.11883     0.13054
      29.310     0.11884     0.13047
      29.320     0.11885     0.13019
      29.330     0.11887     0.12991
      29.340     0.11889     0.12964
      29.350     0.11892     0.12936
      29.360     0.11893     0.12909
      29.370     0.11894     0.12896
      29.380     0.11893     0.12884
      29.390     0.11892     0.12872
      29.400     0.11893     0.12859
      29.410     0.11894     0.12847
      29.420     0.11895     0.12825
      29.430     0.11896     0.12803
      29.440     0.11892     0.12781
      29.450     0.11887     0.12759
      29.460     0.11884     0.12737
      29.470     0.11882     0.12730
      29.480     0.11881     0.12723
      29.490     0.11879     0.12716
      29.500     0.11879     0.12708
      29.510     0.11879     0.12701
      29.520     0.11878     0.12713
