~VERSION INFORMATION SECTION
VERS.           2.0  :CWLS Log ASCII Standard - 2.0
WRAP.           NO   :One line per depth
#               Created in SeisLab
~WELL INFORMATION SECTION
#MNEM.UNIT  VALUE/NAME               :DESCRIPTION    
STRT.m  10                           :Start Depth    
STOP.m  125                          :Stop Depth     
STEP.m  0.01                         :Step           
NULL.    -999.25                     :Null Value     
WELL.    GDP1                        :Well Name      
CTRY.    Switzerland                 :Country        
CNTY.                                :County         
STAT.    Central Swiss Alps          :State          
API .                                :API number     
UWI .                                :Unique well ID 
LOC .    Grimsel Pass, Switzerland   :Well Location  
FLD .    n/a                         :Field          
COMP.    n/a                         :Company        
SRVC.    University of Lausanne      :Service Company
DATE.    2015                        :Date           
~PARAMETER INFORMATION SECTION
#MNEM .UNITS    VALUE   :DESCRIPTION OF PARAMETER
Casing.n/a      0       :open hole               
Mud   .Polymer  1       :Mud type                
~CURVE INFORMATION SECTION
#MNEM.UNITS  API CODES   :DESCRIPTION OF MNEMONIC
depth.m                  :measured depth         
NG   .cps                :Natural gamma          
Sp   .mV                 :Self potential         
Temp .DegC               :Temperature            
SPR  .Ohm                :Single point resistance
R8   .Ohm.m              :Normal resistivity     
R16  .Ohm.m              :Single point resistance
R32  .Ohm.m              :Normal resistivity     
R64  .Ohm.m              :Normal resistivity     
~A depth       NG          Sp          Temp        SPR         R8          R16         R32         R64         
# ...
      63.280   258.10828    590.2679    10.78905    6006.092    2035.562    1821.048    1755.709    2226.018
      63.290   257.10440    591.0268    10.78710    6034.810    2031.070    1806.391    1746.372    2225.798
      63.300   256.10048    591.7350    10.78515    6059.500    2025.592    1791.683    1737.381    2225.511
      63.310   255.11901    592.4012    10.78320    6080.061    2019.129    1776.968    1728.747    2225.168
      63.320   254.18114    593.0322    10.78565    6096.418    2011.683    1762.291    1720.477    2224.781
      63.330   253.30627    593.6317    10.78810    6108.525    2003.264    1747.693    1712.572    2224.361
      63.340   252.51168    594.2000    10.79055    6116.365    1993.887    1733.214    1705.034    2223.919
      63.350   251.81231    594.7335    10.79300    6119.948    1983.571    1718.893    1697.856    2223.467
      63.360   251.22053    595.2245    10.79105    6119.316    1972.342    1704.763    1691.033    2223.015
      63.370   250.74606    595.6612    10.78910    6114.536    1960.229    1690.859    1684.552    2222.573
      63.380   250.39589    596.0267    10.80375    6105.703    1947.269    1677.208    1678.400    2222.151
      63.390   250.17429    596.2997    10.81840    6092.941    1933.501    1663.838    1672.559    2221.755
      63.400   250.08285    596.4541    10.83110    6076.400    1918.969    1650.772    1667.012    2221.393
      63.410   250.12065    596.4592    10.84380    6056.254    1903.721    1638.030    1661.734    2221.068
      63.420   250.28440    596.2806    10.83400    6032.701    1887.809    1625.627    1656.704    2220.783
      63.430   250.56865    595.8804    10.82420    6005.963    1871.289    1613.576    1651.895    2220.540
      63.440   250.96606    595.2198    10.81250    5976.283    1854.219    1601.886    1647.280    2220.337
      63.450   251.46764    594.2597    10.80080    5943.922    1836.659    1590.563    1642.832    2220.171
      63.460   252.06310    592.9640    10.80275    5909.159    1818.672    1579.608    1638.521    2220.037
      63.470   252.74110    591.3018    10.80470    5872.291    1800.320    1569.018    1634.319    2219.926
      63.480   253.48960    589.2499    10.76855    5833.624    1781.669    1558.790    1630.196    2219.830
      63.490   254.29616    586.7952    10.73240    5793.479    1762.783    1548.913    1626.124    2219.736
      63.500   255.14829    583.9372    10.73240    5752.183    1743.726    1539.376    1622.075    2219.631
      63.510   256.03367    580.6890    10.73240    5710.071    1724.561    1530.163    1618.020    2219.499
      63.520   256.94054    577.0785    10.74510    5667.480    1705.351    1521.257    1613.935    2219.322
      63.530   257.85787    573.1475    10.75780    5624.750    1686.155    1512.638    1609.794    2219.083
      63.540   258.77568    568.9514    10.75490    5582.219    1667.030    1504.282    1605.575    2218.761
      63.550   259.68520    564.5566    10.75200    5540.219    1648.032    1496.164    1601.257    2218.334
      63.560   260.57910    560.0384    10.75395    5499.077    1629.211    1488.259    1596.821    2217.783
      63.570   261.45160    555.4772    10.75590    5459.111    1610.616    1480.537    1592.250    2217.083
      63.580   262.29857    550.9560    10.76075    5420.626    1592.289    1472.971    1587.532    2216.213
      63.590   263.11751    546.5569    10.76560    5383.912    1574.272    1465.529    1582.654    2215.152
      63.600   263.90752    542.3583    10.77830    5349.245    1556.598    1458.183    1577.608    2213.877
      63.610   264.66916    538.4323    10.79100    5316.879    1539.298    1450.902    1572.387    2212.368
      63.620   265.40427    534.8427    10.75585    5287.049    1522.398    1443.657    1566.989    2210.606
      63.630   266.11574    531.6439    10.72070    5259.967    1505.918    1436.417    1561.411    2208.573
      63.640   266.80724    528.8802    10.71485    5235.819    1489.874    1429.157    1555.657    2206.253
      63.650   267.48295    526.5860    10.70900    5214.767    1474.278    1421.848    1549.730    2203.633
      63.660   268.14718    524.7859    10.72755    5196.945    1459.136    1414.467    1543.638    2200.702
      63.670   268.80413    523.4951    10.74610    5182.457    1444.450    1406.991    1537.389    2197.450
      63.680   269.45748    522.7201    10.72755    5171.380    1430.218    1399.400    1530.995    2193.871
      63.690   270.11011    522.4593    10.70900    5163.760    1416.434    1391.676    1524.470    2189.964
      63.700   270.76383    522.7031    10.74120    5159.614    1403.088    1383.803    1517.829    2185.729
      63.710   271.41910    523.4352    10.77340    5158.926    1390.166    1375.770    1511.089    2181.169
      63.720   272.07486    524.6329    10.78415    5161.653    1377.652    1367.569    1504.270    2176.292
      63.730   272.72842    526.2684    10.79490    5167.722    1365.528    1359.193    1497.392    2171.109
      63.740   273.37538    528.3096    10.80370    5177.031    1353.771    1350.640    1490.476    2165.632
      63.750   274.00970    530.7213    10.81250    5189.449    1342.359    1341.912    1483.545    2159.881
      63.760   274.62386    533.4660    10.78710    5204.819    1331.268    1333.012    1476.623    2153.874
      63.770   275.20910    536.5056    10.76170    5222.961    1320.472    1323.948    1469.734    2147.636
      63.780   275.75580    539.8015    10.74805    5243.668    1309.945    1314.732    1462.904    2141.192
      63.790   276.25388    543.3159    10.73440    5266.714    1299.662    1305.377    1456.156    2134.573
      63.800   276.69315    547.0118    10.74515    5291.852    1289.598    1295.900    1449.516    2127.808
      63.810   277.06367    550.8534    10.75590    5318.818    1279.726    1286.321    1443.011    2120.933
      63.820   277.35610    554.8060    10.74515    5347.332    1270.025    1276.662    1436.665    2113.981
      63.830   277.56208    558.8350    10.73440    5377.103    1260.472    1266.947    1430.502    2106.990
      63.840   277.67454    562.9061    10.74025    5407.827    1251.045    1257.204    1424.548    2099.997
      63.850   277.68798    566.9836    10.74610    5439.195    1241.728    1247.460    1418.826    2093.040
      63.860   277.59858    571.0298    10.74510    5470.891    1232.504    1237.745    1413.360    2086.158
      63.870   277.40434    575.0041    10.74410    5502.596    1223.358    1228.091    1408.173    2079.388
      63.880   277.10510    578.8622    10.76170    5533.995    1214.281    1218.528    1403.284    2072.768
      63.890   276.70251    582.5561    10.77930    5564.770    1205.263    1209.090    1398.716    2066.335
      63.900   276.20003    586.0344    10.77635    5594.612    1196.299    1199.809    1394.488    2060.122
      63.910   275.60282    589.2435    10.77340    5623.218    1187.385    1190.717    1390.618    2054.164
      63.920   274.91767    592.1298    10.77050    5650.295    1178.522    1181.846    1387.123    2048.490
      63.930   274.15284    594.6419    10.76760    5675.561    1169.712    1173.228    1384.019    2043.129
      63.940   273.31794    596.7321    10.76175    5698.750    1160.959    1164.893    1381.320    2038.106
      63.950   272.42375    598.3584    10.75590    5719.610    1152.271    1156.870    1379.041    2033.442
      63.960   271.48206    599.4850    10.77150    5737.907    1143.657    1149.187    1377.192    2029.156
      63.970   270.50549    600.0836    10.78710    5753.426    1135.129    1141.869    1375.783    2025.262
      63.980   269.50727    600.1337    10.75880    5765.970    1126.700    1134.941    1374.824    2021.771
      63.990   268.50105    599.6236    10.73050    5775.367    1118.385    1128.424    1374.322    2018.689
      64.000   267.50070    598.5518    10.72560    5781.465    1110.201    1122.338    1374.282    2016.020
      64.010   266.52011    596.9279    10.72070    5784.133    1102.164    1116.701    1374.709    2013.761
