~VERSION INFORMATION SECTION
VERS.           2.0  :CWLS Log ASCII Standard - 2.0
WRAP.           NO   :One line per depth
#               Created in SeisLab
~WELL INFORMATION SECTION
#MNEM.UNIT  VALUE/NAME               :DESCRIPTION    
STRT.m  11                           :Start Depth    
STOP.m  125                          :Stop Depth     
STEP.m  0.01                         :Step           
NULL.    -999.25                     :Null Value     
WELL.    GDP1                        :Well Name      
CTRY.    Switzerland                 :Country        
CNTY.                                :County         
STAT.                                :State          
API .                                :API number     
UWI .                                :Unique well ID 
LOC .    Grimsel pass, Switzerland   :Well Location  
FLD .    n/a                         :Field          
COMP.    n/a                         :Company        
SRVC.    University of Lausanne      :Service Company
DATE.    2016                        :Date           
~PARAMETER INFORMATION SECTION
#MNEM .UNITS  VALUE   :DESCRIPTION OF PARAMETER
Casing.n/a    0       :cased hole              
~CURVE INFORMATION SECTION
#MNEM     .UNITS  API CODES   :DESCRIPTION OF MNEMONIC      
depth     .m                  :measured depth (interpolated)
P_slowness.us/m               :FWS2016_25kHz_semblance      
S_slowness.us/m               :FWS2016_25kHz_semblance      
~A depth       P_slowness  S_slowness  
# ...
      50.060   229.29820   417.87957
      50.070   229.81880   418.30985
      50.080   230.35979   418.74013
      50.090   230.90077   419.17041
      50.100   231.49266   419.60069
      50.110   232.08454   420.07400
      50.120   232.71716   420.59034
      50.130   233.34979   421.19274
      50.140   234.00277   421.79513
      50.150   234.65575   422.44056
      50.160   235.32910   423.08598
      50.170   236.02811   423.77443
      50.180   236.72713   424.46287
      50.190   237.45182   425.23738
      50.200   238.17651   426.01189
      50.210   238.90120   426.78639
      50.220   239.62589   427.56090
      50.230   240.32490   428.33541
      50.240   241.05618   429.07036
      50.250   241.83879   429.80531
      50.260   242.57836   430.47130
      50.270   243.34361   431.13728
      50.280   244.10885   431.71130
      50.290   244.89975   432.32833
      50.300   245.59961   432.80739
      50.310   246.32513   433.24344
      50.320   247.02011   433.58752
      50.330   247.71510   433.93161
      50.340   248.26752   434.14675
      50.350   248.81995   434.36190
      50.360   249.37238   434.53402
      50.370   249.92480   434.66310
      50.380   250.40595   434.79218
      50.390   250.88710   434.92126
      50.400   251.34789   435.00731
      50.410   251.80867   435.05033
      50.420   252.15746   435.13638
      50.430   252.54474   435.22243
      50.440   252.91164   435.30848
      50.450   253.27854   435.39452
      50.460   253.62508   435.48057
      50.470   253.97162   435.52361
      50.480   254.26677   435.56664
      50.490   254.56192   435.60967
      50.500   254.80574   435.69574
      50.510   255.04956   435.73877
      50.520   255.26770   435.78180
      50.530   255.48585   435.78180
      50.540   255.65267   435.78180
      50.550   255.81949   435.69575
      50.560   255.98631   435.60970
      50.570   256.11464   435.48062
      50.580   256.24297   435.39456
      50.590   256.37130   435.26548
      50.600   256.49962   435.13639
      50.610   256.57662   434.96428
      50.620   256.67930   434.79216
      50.630   256.73064   434.57702
      50.640   256.78198   434.40490
      50.650   256.83333   434.23279
      50.660   256.88467   434.06067
      50.670   256.91054   433.84552
      50.680   256.93641   433.63038
      50.690   256.91925   433.37221
      50.700   256.90208   433.11405
      50.710   256.88492   432.81285
      50.720   256.86775   432.46862
      50.730   256.80756   432.08136
      50.740   256.74736   431.60805
      50.750   256.68716   431.13474
      50.760   256.62697   430.61839
      50.770   256.52374   430.05903
      50.780   256.39484   429.45666
      50.790   256.26593   428.81125
      50.800   256.11136   428.07977
      50.810   255.91377   427.30526
      50.820   255.71618   426.53075
      50.830   255.47556   425.71323
      50.840   255.26061   424.89570
      50.850   255.04566   424.07818
      50.860   254.77938   423.26066
      50.870   254.47007   422.40010
      50.880   254.13508   421.53954
      50.890   253.75708   420.67898
      50.900   253.35343   419.77541
      50.910   252.94977   418.82880
      50.920   252.52044   417.92521
      50.930   252.04808   416.97861
      50.940   251.57572   416.03200
      50.950   251.06033   415.08539
      50.960   250.54493   414.13879
      50.970   250.02954   413.14915
      50.980   249.51415   412.20254
      50.990   248.95574   411.21290
      51.000   248.39733   410.22326
      51.010   247.83892   409.19061
      51.020   247.28051   408.20098
      51.030   246.67907   407.16833
      51.040   246.03913   406.13567
      51.050   245.39920   405.05998
      51.060   244.75926   403.98430
      51.070   244.07630   402.90861
      51.080   243.39333   401.87593
      51.090   242.71036   400.80025
      51.100   242.02739   399.72456
      51.110   241.30141   398.64887
      51.120   240.57543   397.61621
      51.130   239.80641   396.54052
      51.140   239.03739   395.50787
      51.150   238.26838   394.47521
      51.160   237.49936   393.52861
      51.170   236.68731   392.53897
      51.180   235.91375   391.59236
      51.190   235.14020   390.64575
      51.200   234.36664   389.74216
      51.210   233.55007   388.83857
      51.220   232.78482   387.97802
      51.230   232.01957   387.07444
      51.240   231.30566   386.21390
      51.250   230.59174   385.35336
      51.260   229.87782   384.49282
      51.270   229.12087   383.58925
      51.280   228.38939   382.72870
      51.290   227.65792   381.86816
      51.300   226.96948   381.05064
      51.310   226.28103   380.19008
      51.320   225.59259   379.37256
      51.330   224.86111   378.51202
      51.340   224.17267   377.69451
      51.350   223.48423   376.87700
      51.360   222.79579   376.05949
      51.370   222.10734   375.19895
      51.380   221.46193   374.38143
      51.390   220.81652   373.52087
      51.400   220.17111   372.70334
      51.410   219.52570   371.88582
      51.420   218.92331   371.11133
      51.430   218.32092   370.29382
      51.440   217.76156   369.51933
      51.450   217.15918   368.74484
      51.460   216.55680   367.97034
      51.470   215.95443   367.19585
      51.480   215.39508   366.46439
      51.490   214.83574   365.73293
      51.500   214.31941   365.00148
      51.510   213.80308   364.27002
      51.520   213.28675   363.58159
      51.530   212.77043   362.89316
      51.540   212.29713   362.24775
      51.550   211.82384   361.60234
      51.560   211.39357   360.95693
      51.570   210.96331   360.35454
      51.580   210.53305   359.79518
      51.590   210.10279   359.23582
      51.600   209.71554   358.71949
      51.610   209.32830   358.20316
      51.620   208.94105   357.72985
      51.630   208.55380   357.29957
      51.640   208.20959   356.91233
      51.650   207.86538   356.52508
      51.660   207.52116   356.18087
      51.670   207.17695   355.83666
      51.680   206.87577   355.49244
      51.690   206.57459   355.14823
      51.700   206.27341   354.84703
      51.710   205.97223   354.54584
      51.720   205.71407   354.24464
      51.730   205.45590   353.94344
      51.740   205.24077   353.68528
      51.750   205.02564   353.42711
      51.760   204.81051   353.16895
      51.770   204.59538   352.91079
      51.780   204.42328   352.69566
      51.790   204.25118   352.48052
      51.800   204.07908   352.26539
      51.810   203.90698   352.05026
      51.820   203.77790   351.83513
      51.830   203.64882   351.62000
      51.840   203.51974   351.44789
      51.850   203.39066   351.27577
      51.860   203.26157   351.10366
      51.870   203.08946   350.93154
      51.880   202.96038   350.80246
      51.890   202.83130   350.63034
      51.900   202.70221   350.45823
      51.910   202.57313   350.28611
      51.920   202.44405   350.15703
      51.930   202.31497   350.02795
      51.940   202.22892   349.94189
      51.950   202.14287   349.85582
      51.960   202.05682   349.76975
      51.970   201.97077   349.68369
      51.980   201.88472   349.64066
      51.990   201.79867   349.59762
      52.000   201.71262   349.59762
      52.010   201.62657   349.59762
      52.020   201.54052   349.59762
      52.030   201.45448   349.59762
      52.040   201.36843   349.64064
      52.050   201.28238   349.68366
      52.060   201.23934   349.72667
      52.070   201.19631   349.76969
      52.080   201.15328   349.81270
      52.090   201.06721   349.81270
      52.100   200.98115   349.81270
      52.110   200.89508   349.81270
      52.120   200.80902   349.81270
      52.130   200.72295   349.81270
      52.140   200.63689   349.81270
      52.150   200.55082   349.81270
      52.160   200.46475   349.81270
      52.170   200.37869   349.81270
      52.180   200.29262   349.76969
      52.190   200.20656   349.72667
      52.200   200.12049   349.68366
      52.210   200.03443   349.64064
      52.220   199.94836   349.59762
