~VERSION INFORMATION SECTION
VERS.           2.0  :CWLS Log ASCII Standard - 2.0
WRAP.           NO   :One line per depth
#               Created in SeisLab
~WELL INFORMATION SECTION
#MNEM.UNIT  VALUE/NAME               :DESCRIPTION    
STRT.m  33.03                        :Start Depth    
STOP.m  122.23                       :Stop Depth     
STEP.m  0.03                         :Step           
NULL.    -999.25                     :Null Value     
WELL.    GDP1                        :Well Name      
CTRY.    Switzerland                 :Country        
CNTY.                                :County         
STAT.    Central Swiss Alps          :State          
API .                                :API number     
UWI .                                :Unique well ID 
LOC .    Grimsel Pass, Switzerland   :Well Location  
FLD .    n/a                         :Field          
COMP.    n/a                         :Company        
SRVC.    University of Lausanne      :Service Company
DATE.    2016                        :Date           
~PARAMETER INFORMATION SECTION
#MNEM .UNITS  VALUE   :DESCRIPTION OF PARAMETER
Casing.n/a    1       :slotted PVC casing      
~CURVE INFORMATION SECTION
#MNEM.UNITS  API CODES   :DESCRIPTION OF MNEMONIC
depth.m                  :measured depth         
NG   .cps                :Natural gamma          
Sp   .mV                 :Self potential         
Temp .DegC               :Temperature            
SPR  .Ohm                :Single point resistance
R8   .Ohm.m              :Normal resistivity     
R16  .Ohm.m              :Single point resistance
R32  .Ohm.m              :Normal resistivity     
R64  .Ohm.m              :Normal resistivity     
~A depth       NG          Sp          Temp        SPR         R8          R16         R32         R64         
# ...
      86.320   223.84400    865.1250     7.18945        4686       773.7       848.6      1273.2      1553.3
      86.350   238.13300    870.6250     7.21875        4462       771.0       767.2      2055.7      1383.2
      86.380   227.95300    879.5000     7.20313        4352       762.5       769.1      4603.1      1355.8
      86.400   257.45300    889.5000     7.20020        4323       820.2       763.7   -100551.0      1307.5
      86.430   247.39100    911.3750     7.20508        4288       752.2       744.3     10147.0      1190.4
      86.460   267.62500    935.7500     7.22852        4333       731.1       940.9      9791.2      1159.5
      86.490   275.81300    937.6250     7.20313        4382       706.0       959.3      1092.8      1058.5
      86.530   272.51600    934.1250     7.20117        4456       674.1      1180.9      1120.2      1124.8
      86.560   242.68800    922.1250     7.22168        4406       803.6      1907.4      1168.3      1427.7
      86.580   238.45300    908.5000     7.20117        4326       861.5      5318.1       991.5       920.2
      86.620   236.71900    872.7500     7.20996        4211      1102.1   -129707.0       851.0       885.2
      86.650   246.43000    832.3750     7.17773        4227      1967.3     15513.5       820.1       925.6
      86.680   274.84400    772.6250     7.20703        5237      7104.2     21211.4       818.5      1100.4
      86.710   303.59400    709.1250     7.19629        7872   -240498.0      1862.3       837.5      1300.0
      86.740   283.87500    661.7500     7.20313       14985     54576.1      1217.9       864.0       772.5
      86.760   266.14100    618.1250     7.18945       39691    154597.0      1070.0      1064.5       737.8
      86.790   298.53100    607.8750     7.22852      161745     21411.1       898.5      1093.1       779.2
      86.820   263.29700    604.1250     7.19824    -4470100     10842.5       813.2       954.6      1192.0
      86.850   254.26600    634.6250     7.18262      626848      5934.4       815.7       940.2      1082.2
      86.880   205.87500    673.0000     7.20313     1039210      3910.3       878.8       939.8      1116.2
      86.920   245.55500    738.5000     7.20996       68339      2732.5       969.7       996.6      1030.8
      86.940   247.46900    809.1250     7.18750       20608      1891.7      1039.1      1012.7       862.8
      86.970   247.02300    884.5000     7.19336        8931      1511.0      1197.6      1048.6      1252.7
      87.010   275.42200    960.7500     7.18945        5637      1263.1      1230.6      1162.3      1202.2
      87.040   240.80500    970.5000     7.22363        4989      1135.0      1167.7      1170.5      1662.8
      87.070   255.22700    966.0000     7.22754        4778      1107.0      1147.8      1091.0      2695.8
      87.100   231.95300    982.1250     7.21387        4829      1125.8      1096.4      1024.2      4568.7
      87.130   234.69500   1002.7500     7.18945        4977      1138.6      1071.6      1065.9    -85973.3
      87.150   239.13300   1000.7500     7.20801        5225      1206.2      1050.5      1240.4      6129.1
      87.180   269.23400    993.3750     7.22363        5532      1246.7      1068.7      1208.8     -2061.3
      87.210   265.06300   1010.5000     7.20313        5734      1304.6      1154.4       943.7       383.5
      87.240   264.48400   1032.6300     7.17969        5882      1361.3      1198.0       884.8      1304.4
      87.280   256.42200   1030.5000     7.19434        5919      1444.5      1183.7       917.1      1553.4
      87.310   253.85200   1023.7500     7.19141        5836      1554.3      1132.4       851.1      1256.3
      87.330   262.50000   1023.0000     7.20996        5867      1608.7      1143.1       862.2       979.1
      87.370   281.07800   1023.7500     7.19629        6007      1623.9      1243.7       912.0       896.8
      87.400   243.26600   1001.0000     7.20117        6297      1593.6      1229.7       947.8       858.1
      87.430   247.42200    973.8750     7.22168        6590      1602.9      1096.2       880.5       864.7
      87.460   232.80500    961.7500     7.21387        6728      1672.7      1065.4       733.4       936.2
      87.490   244.95300    952.5000     7.22168        6807      1685.2      1081.7       785.4      1330.2
      87.510   249.70300    943.3750     7.20117        6593      1606.5      1044.5       835.2      1379.4
      87.540   228.39100    934.3750     7.19434        6327      1558.7      1074.8       805.4      1096.8
      87.570   250.03100    945.3750     7.22168        6148      1517.9      1104.8       879.4      1054.6
      87.600   226.16400    961.2500     7.22168        5972      1441.7      1096.1      1014.0      1091.5
      87.630   220.76600    971.2500     7.20801        5761      1418.7      1064.5       998.9      1216.5
      87.670   210.63300    981.2500     7.19336        5573      1389.9      1001.9       908.2      1238.3
      87.690   274.17200    982.5000     7.19434        5451      1345.1      1011.6       963.1      1294.6
      87.720   219.49200    981.1250     7.18945        5365      1300.8      1008.0      1094.3      1496.3
      87.760   268.62500    984.8750     7.23535        5440      1250.2       983.4      1090.0      1486.8
      87.790   263.76600    990.2500     7.22363        5522      1253.3      1012.3       955.3      1345.8
      87.820   263.34400    990.3750     7.20801        5595      1266.6      1065.0       974.8      1234.9
      87.850   276.18800    989.7500     7.22363        5642      1285.0      1066.2       896.3      1343.6
      87.880   267.87500    982.5000     7.21484        5582      1334.1      1064.6       951.4      1686.6
      87.900   220.96900    973.5000     7.20801        5541      1384.4      1132.7       847.3      1579.4
      87.930   244.89100    979.1250     7.21875        5496      1397.5      1202.1       917.5      1052.1
      87.960   258.79700    988.3750     7.23438        5493      1410.5      1192.1      1102.6       925.6
      87.990   246.94500    993.8750     7.20996        5512      1469.6      1121.1      1023.8      1005.5
      88.030   264.68800    998.7500     7.19824        5493      1519.5      1144.2      1077.3       888.1
      88.060   250.53100    995.1250     7.19824        5461      1522.0      1100.5       909.8       915.0
      88.080   237.39100    989.5000     7.23535        5499      1496.1      1151.9      1062.9      1067.5
      88.120   261.73400    991.5000     7.23730        5701      1519.3      1107.5      1006.5      1191.9
      88.150   267.17200    995.3750     7.23535        5899      1497.9      1175.7      1002.0      1063.6
      88.180   262.26600    982.1250     7.24902        5965      1550.5      1295.0       843.6       766.4
      88.210   276.98400    965.5000     7.21680        5993      1557.6      1215.3       833.6       883.0
      88.240   234.43800    939.0000     7.21680        5978      1639.0      1227.6      1094.8       995.0
      88.260   277.84400    910.6250     7.24121        5866      1713.5      1118.3       912.4       925.3
      88.290   277.65600    895.7500     7.24609        5803      1624.1      1232.2      1037.7      1064.9
      88.320   272.54700    884.0000     7.19336        5765      1608.2      1213.3      1994.5      1332.8
      88.350   294.03100    886.3750     7.19434        5840      1517.7      1226.6      5082.8      1273.7
      88.380   226.93000    891.5000     7.21191        5845      1550.7      1140.2  -1969690.0      1025.7
      88.420   317.06300    917.6250     7.21484        5644      1496.8      1131.5     -4887.7      1083.7
      88.440   278.57800    948.8750     7.19336        5521      1487.6      1330.8    -17566.1      1356.7
      88.470   257.12500    971.6250     7.22070        5372      1428.6      1282.5      4273.0      1381.3
      88.510   247.57000    992.6250     7.21484        5321      1399.4      1533.5      1572.5      1128.7
