~VERSION INFORMATION SECTION
VERS.           2.0  :CWLS Log ASCII Standard - 2.0
WRAP.           NO   :One line per depth
#               Created in SeisLab
~WELL INFORMATION SECTION
#MNEM.UNIT  VALUE/NAME               :DESCRIPTION    
STRT.m  10                           :Start Depth    
STOP.m  124                          :Stop Depth     
STEP.m  0.01                         :Step           
NULL.    -999.25                     :Null Value     
WELL.    GDP1                        :Well Name      
CTRY.    Switzerland                 :Country        
CNTY.                                :County         
STAT.    Central Swiss Alps          :State          
API .                                :API number     
UWI .                                :Unique well ID 
LOC .    Grimsel pass, Switzerland   :Well Location  
FLD .    n/a                         :Field          
COMP.    n/a                         :Company        
SRVC.    University of Lausanne      :Service Company
DATE.    2015                        :Date           
~PARAMETER INFORMATION SECTION
#MNEM .UNITS    VALUE   :DESCRIPTION OF PARAMETER
Casing.n/a      0       :open hole               
Mud   .Polymer  1       :Mud type                
~CURVE INFORMATION SECTION
#MNEM.UNITS  API CODES   :DESCRIPTION OF MNEMONIC      
depth.m                  :measured depth (interpolated)
Cal  .mm                 :Caliper                      
NN   .cps                :Neutron-Neutron              
GG   .cps                :Gamma-Gamma                  
~A depth       Cal         NN          GG          
# ...
      62.480   102.34045    458.9989   1096.1510
      62.490   102.34140    444.8529   1093.8910
      62.500   102.34250    437.2027   1090.5090
      62.510   102.34360    429.5525   1087.1270
      62.520   102.34140    428.7414   1104.5255
      62.530   102.33920    427.9304   1121.9240
      62.540   102.33885    453.8285   1117.6260
      62.550   102.33850    479.7266   1113.3280
      62.560   102.33785    483.2028   1100.7315
      62.570   102.33720    486.6790   1088.1350
      62.580   102.33980    473.6636   1070.0185
      62.590   102.34240    460.6481   1051.9020
      62.600   102.34120    461.1735   1041.5405
      62.610   102.34000    461.6990   1031.1790
      62.620   102.35040    467.5277   1025.9430
      62.630   102.36080    473.3564   1020.7070
      62.640   102.37705    482.6502   1023.0475
      62.650   102.39330    491.9440   1025.3880
      62.660   102.42485    491.5041   1051.3655
      62.670   102.45640    491.0642   1077.3430
      62.680   102.47360    489.8888   1095.2870
      62.690   102.49080    488.7133   1113.2310
      62.700   102.47410    487.2943   1093.0290
      62.710   102.45740    485.8753   1072.8270
      62.720   102.44420    489.3356   1077.8255
      62.730   102.43100    492.7960   1082.8240
      62.740   102.43290    496.5781   1092.1695
      62.750   102.43480    500.3602   1101.5150
      62.760   102.43800    503.0452   1103.6070
      62.770   102.44120    505.7302   1105.6990
      62.780   102.43925    488.3673   1100.0980
      62.790   102.43730    471.0044   1094.4970
      62.800   102.44715    471.4418   1089.8325
      62.810   102.45700    471.8792   1085.1680
      62.820   102.66745    484.7108   1088.5775
      62.830   102.87790    497.5424   1091.9870
      62.840   103.01525    489.0286   1090.3555
      62.850   103.15260    480.5148   1088.7240
      62.860   102.76565    476.6079   1085.8150
      62.870   102.37870    472.7010   1082.9060
      62.880   102.38090    473.2325   1080.3945
      62.890   102.38310    473.7640   1077.8830
      62.900   102.38520    487.1441   1084.5135
      62.910   102.38730    500.5242   1091.1440
      62.920   102.49760    495.7854   1097.9755
      62.930   102.60790    491.0467   1104.8070
      62.940   102.62390    473.2255   1105.4480
      62.950   102.63990    455.4042   1106.0890
      62.960   102.49910    452.1049   1115.9890
      62.970   102.35830    448.8056   1125.8890
      62.980   102.35955    445.4311   1128.8500
      62.990   102.36080    442.0566   1131.8110
      63.000   102.36370    439.7142   1110.0210
      63.010   102.36660    437.3719   1088.2310
      63.020   102.36900    451.2638   1099.7745
      63.030   102.37140    465.1556   1111.3180
      63.040   102.37630    473.3107   1123.3590
      63.050   102.38120    481.4657   1135.4000
      63.060   102.37070    484.2893   1124.2380
      63.070   102.36020    487.1128   1113.0760
      63.080   102.36305    476.8454   1112.8685
      63.090   102.36590    466.5779   1112.6610
      63.100   102.36720    461.2202   1110.8435
      63.110   102.36850    455.8626   1109.0260
      63.120   102.37515    454.6331   1094.9950
      63.130   102.38180    453.4036   1080.9640
      63.140   102.43695    456.9117   1080.4425
      63.150   102.49210    460.4199   1079.9210
      63.160   102.41915    449.3313   1081.4915
      63.170   102.34620    438.2427   1083.0620
      63.180   102.34840    419.0435   1080.1160
      63.190   102.35060    399.8444   1077.1700
      63.200   102.32640    428.6821   1094.3410
      63.210   102.30220    457.5197   1111.5120
      63.220   102.30350    473.8857   1125.1880
      63.230   102.30480    490.2517   1138.8640
      63.240   102.30670    496.5582   1128.7210
      63.250   102.30860    502.8646   1118.5780
      63.260   102.30890    503.5054   1127.9575
      63.270   102.30920    504.1463   1137.3370
      63.280   102.31050    496.9758   1145.1770
      63.290   102.31180    489.8053   1153.0170
      63.300   102.31245    477.6420   1142.5380
      63.310   102.31310    465.4788   1132.0590
      63.320   102.31180    469.3057   1123.0105
      63.330   102.31050    473.1326   1113.9620
      63.340   102.31080    472.3402   1108.7375
      63.350   102.31110    471.5478   1103.5130
      63.360   102.31175    468.3442   1107.1270
      63.370   102.31240    465.1405   1110.7410
      63.380   102.31265    479.4515   1114.7695
      63.390   102.31290    493.7625   1118.7980
      63.400   102.31330    491.0378   1117.9660
      63.410   102.31370    488.3132   1117.1340
      63.420   102.31400    473.6305   1103.4275
      63.430   102.31430    458.9479   1089.7210
      63.440   102.31620    463.0687   1090.5705
      63.450   102.31810    467.1895   1091.4200
      63.460   102.31940    467.0236   1088.7665
      63.470   102.32070    466.8578   1086.1130
      63.480   102.32260    463.8190   1063.7135
      63.490   102.32450    460.7803   1041.3140
      63.500   102.32640    464.5464   1044.5550
      63.510   102.32830    468.3125   1047.7960
      63.520   102.32995    465.0193   1054.0660
      63.530   102.33160    461.7262   1060.3360
      63.540   102.33410    453.3915   1055.6015
      63.550   102.33660    445.0569   1050.8670
      63.560   102.34005    443.2930   1053.1490
      63.570   102.34350    441.5292   1055.4310
      63.580   102.34995    446.8242   1052.7535
      63.590   102.35640    452.1192   1050.0760
      63.600   102.41375    462.7462   1029.4250
      63.610   102.47110    473.3732   1008.7740
      63.620   102.82185    481.8558   1019.1295
      63.630   103.17260    490.3383   1029.4850
      63.640   102.89765    500.6243   1042.6545
      63.650   102.62270    510.9104   1055.8240
      63.660   102.54370    521.8340   1053.4845
      63.670   102.46470    532.7576   1051.1450
      63.680   102.46750    532.3179   1034.7295
      63.690   102.47030    531.8781   1018.3140
      63.700   102.46750    524.1567   1008.2421
      63.710   102.46470    516.4353    998.1702
      63.720   102.46790    503.4589   1014.8476
      63.730   102.47110    490.4825   1031.5250
      63.740   102.46980    483.4038   1035.1515
      63.750   102.46850    476.3251   1038.7780
      63.760   102.46955    469.8899   1034.4045
      63.770   102.47060    463.4547   1030.0310
      63.780   102.47400    457.7947   1014.5349
      63.790   102.47740    452.1347    999.0388
      63.800   102.47680    450.6108   1003.5894
      63.810   102.47620    449.0870   1008.1400
      63.820   102.47905    460.2206   1012.8565
      63.830   102.48190    471.3542   1017.5730
      63.840   102.49400    489.3176   1007.9902
      63.850   102.50610    507.2809    998.4075
      63.860   102.52045    480.5648    996.4028
      63.870   102.53480    453.8486    994.3981
      63.880   102.53190    444.8289    998.8961
      63.890   102.52900    435.8093   1003.3940
      63.900   102.54530    440.7318   1019.1400
      63.910   102.56160    445.6543   1034.8860
      63.920   102.56350    453.6763   1037.5440
      63.930   102.56540    461.6983   1040.2020
      63.940   102.57145    462.5344   1037.9110
      63.950   102.57750    463.3706   1035.6200
      63.960   102.58320    460.1297   1030.1345
      63.970   102.58890    456.8888   1024.6490
      63.980   102.59845    476.0014   1024.9110
      63.990   102.60800    495.1140   1025.1730
      64.000   102.81175    492.0532   1023.6185
      64.010   103.01550    488.9924   1022.0640
      64.020   104.11865    470.4978   1011.5885
      64.030   105.22180    452.0033   1001.1130
      64.040   104.83565    459.9631   1000.7285
      64.050   104.44950    467.9229   1000.3440
      64.060   103.49405    467.3296   1005.0835
      64.070   102.53860    466.7363   1009.8230
      64.080   102.54020    461.9354   1020.3955
      64.090   102.54180    457.1344   1030.9680
      64.100   102.54340    488.7912   1015.0358
      64.110   102.54500    520.4480    999.1035
