~VERSION INFORMATION SECTION
VERS.           2.0  :CWLS Log ASCII Standard - 2.0
WRAP.           NO   :One line per depth
#               Created in SeisLab
~WELL INFORMATION SECTION
#MNEM.UNIT  VALUE/NAME               :DESCRIPTION    
STRT.m  10                           :Start Depth    
STOP.m  125                          :Stop Depth     
STEP.m  0.01                         :Step           
NULL.    -999.25                     :Null Value     
WELL.    GDP1                        :Well Name      
CTRY.    Switzerland                 :Country        
CNTY.                                :County         
STAT.    Central Swiss Alps          :State          
API .                                :API number     
UWI .                                :Unique well ID 
LOC .    Grimsel Pass, Switzerland   :Well Location  
FLD .    n/a                         :Field          
COMP.    n/a                         :Company        
SRVC.    University of Lausanne      :Service Company
DATE.    2017                        :Date           
~PARAMETER INFORMATION SECTION
#MNEM .UNITS  VALUE   :DESCRIPTION OF PARAMETER
Casing.n/a    1       :slotted PVC casing      
~CURVE INFORMATION SECTION
#MNEM.UNITS  API CODES   :DESCRIPTION OF MNEMONIC
depth.m                  :measured depth         
NG   .cps                :Natural gamma          
Sp   .mV                 :Self potential         
Temp .DegC               :Temperature            
SPR  .Ohm                :Single point resistance
R8   .Ohm.m              :Normal resistivity     
R16  .Ohm.m              :Single point resistance
R32  .Ohm.m              :Normal resistivity     
R64  .Ohm.m              :Normal resistivity     
~A depth       NG          Sp          Temp        SPR         R8          R16         R32         R64         
# ...
      63.280   249.95764   1419.8271     6.13965    9838.450    2387.307    2001.264    1552.547    2123.925
      63.290   249.94421   1419.9936     6.13525    9722.245    2417.340    1987.114    1500.759    2120.176
      63.300   249.97036   1419.6334     6.13086    9606.040    2447.372    1885.748    1496.942    2116.426
      63.310   250.04360   1418.6955     6.14551    9438.320    2464.153    1871.543    1493.125    2112.677
      63.320   250.17222   1417.1340     6.16016    9270.600    2480.934    1857.248    1510.185    2108.928
      63.330   250.36578   1414.9096     6.16846    9258.790    2489.251    1842.937    1527.246    2105.179
      63.340   250.63537   1411.9910     6.17676    9246.980    2497.568    1828.686    1544.306    2101.429
      63.350   250.99323   1408.3567     6.15967    9259.890    2485.966    1814.569    1561.367    2097.680
      63.360   251.45157   1403.9971     6.14258    9272.800    2474.363    1800.664    1548.165    2093.931
      63.370   252.02106   1398.9157     6.15723    9202.525    2449.725    1787.042    1534.962    2090.181
      63.380   252.70899   1393.1310     6.17188    9132.250    2425.088    1773.777    1521.760    2086.432
      63.390   253.51740   1386.6768     6.16260    9122.600    2390.163    1760.935    1508.558    2082.683
      63.400   254.44149   1379.6028     6.15332    9112.950    2355.239    1748.582    1504.913    2078.934
      63.410   255.46880   1371.9739     6.16015    9223.895    2315.871    1736.776    1501.268    2075.184
      63.420   256.57933   1363.8690     6.16699    9334.840    2276.504    1725.569    1497.623    2079.341
      63.430   257.74669   1355.3789     6.16357    9475.355    2226.857    1715.008    1493.978    2071.113
      63.440   258.93996   1346.6033     6.16016    9615.870    2177.210    1705.131    1538.507    2062.885
      63.450   260.12585   1337.6481     6.15674    9620.520    2133.973    1695.968    1583.036    2048.972
      63.460   261.27098   1328.6210     6.15332    9625.170    2106.338    1687.541    1528.342    2035.058
      63.470   262.34380   1319.6286     6.16601    9564.350    2078.255    1679.861    1473.647    2034.869
      63.480   263.31624   1310.7731     6.17871    9503.530    2049.898    1672.931    1471.502    2034.679
      63.490   264.16469   1302.1502     6.18067    9316.320    2021.442    1666.745    1469.357    2033.317
      63.500   264.87079   1293.8470     6.18262    9129.110    1993.063    1661.285    1595.043    2031.954
      63.510   265.42193   1285.9417     6.18652    8822.505    1964.933    1656.526    1720.730    2030.333
      63.520   265.81167   1278.5024     6.19043    8515.900    1937.217    1652.430    1779.761    2028.711
      63.530   266.03969   1271.5867     6.18457    8169.050    1910.073    1648.954    1838.792    2028.878
      63.540   266.11151   1265.2416     6.17871    7822.200    1883.647    1646.044    1743.708    2029.044
      63.550   266.03813   1259.5024     6.17871    7481.850    1858.076    1643.638    1648.624    2038.619
      63.560   265.83609   1254.3932     6.17871    7141.500    1833.479    1641.668    1537.371    2048.194
      63.570   265.52772   1249.9262     6.18408    6876.985    1809.963    1640.060    1426.117    2055.535
      63.580   265.14119   1246.1020     6.18945    6612.470    1787.616    1638.732    1457.360    2062.877
      63.590   264.70967   1242.9096     6.18066    6439.175    1766.508    1637.603    1488.603    2061.217
      63.600   264.26990   1240.3279     6.17188    6265.880    1746.692    1636.585    1528.972    2059.557
      63.610   263.86055   1238.3261     6.16943    6249.757    1728.200    1635.589    1569.340    2060.420
      63.620   263.52055   1236.8654     6.16699    6233.635    1711.045    1634.528    1476.432    2061.283
      63.630   263.28698   1235.9009     6.17138    6217.512    1695.222    1633.314    1383.523    2068.295
      63.640   263.19244   1235.3829     6.17578    6201.390    1680.705    1631.862    1349.325    2075.308
      63.650   263.26200   1235.2591     6.18066    6185.267    1667.453    1630.092    1315.127    2086.218
      63.660   263.51027   1235.4758     6.18555    6169.145    1655.404    1627.928    1333.594    2097.128
      63.670   263.93945   1235.9798     6.17285    6153.022    1644.483    1625.299    1352.061    2092.821
      63.680   264.53856   1236.7192     6.16016    6136.900    1634.600    1622.144    1336.955    2088.513
      63.690   265.28423   1237.6451     6.17383    6120.777    1625.651    1618.409    1321.848    2080.119
      63.700   266.14262   1238.7120     6.18750    6104.655    1617.522    1614.050    1342.324    2071.724
      63.710   267.07235   1239.8788     6.17871    6088.532    1610.090    1609.032    1362.800    2066.438
      63.720   268.02784   1241.1089     6.16992    6072.410    1603.224    1603.331    1380.614    2061.151
      63.730   268.96269   1242.3707     6.18652    6056.287    1596.789    1596.935    1398.427    2057.904
      63.740   269.83265   1243.6374     6.20313    6040.165    1590.649    1589.842    1370.704    2054.657
      63.750   270.59794   1244.8875     6.19531    6024.042    1584.666    1582.062    1342.980    2045.063
      63.760   271.22488   1246.1039     6.18750    6007.920    1578.703    1573.616    1303.023    2035.469
      63.770   271.68699   1247.2739     6.18994    5991.797    1572.630    1564.535    1263.067    2000.672
      63.780   271.96573   1248.3888     6.19238    5975.675    1566.321    1554.860    1289.723    1965.875
      63.790   272.05103   1249.4436     6.18408    5959.552    1559.659    1544.643    1507.939    1948.862
      63.800   271.94148   1250.4362     6.17578    5943.430    1552.535    1533.944    1501.654    1931.848
      63.810   271.64420   1251.3672     6.18506    5927.307    1544.854    1522.829    1495.369    1928.114
      63.820   271.17418   1252.2393     6.19434    5911.185    1536.533    1511.372    1489.084    1924.379
      63.830   270.55316   1253.0568     6.17530    5895.062    1527.500    1499.654    1482.799    1905.028
      63.840   269.80832   1253.8253     6.15625    5878.940    1517.701    1487.757    1476.513    1885.677
      63.850   268.97110   1254.5510     6.16651    5862.817    1507.097    1475.766    1472.790    1876.211
      63.860   268.07619   1255.2407     6.17676    5846.695    1495.661    1463.771    1469.067    1866.744
      63.870   267.16040   1255.9013     6.18555    5830.572    1483.387    1451.859    1461.873    1870.007
      63.880   266.26156   1256.5395     6.19434    5814.450    1470.278    1440.116    1454.678    1873.269
      63.890   265.41736   1257.1616     6.18848    5798.327    1456.358    1428.628    1454.175    1884.632
      63.900   264.66420   1257.7736     6.18262    5782.205    1441.662    1417.475    1453.672    1895.995
      63.910   264.03590   1258.3804     6.17579    5766.082    1426.238    1406.735    1451.442    1900.182
      63.920   263.56192   1258.9865     6.16895    5749.960    1410.148    1396.479    1449.213    1904.370
      63.930   263.26506   1259.5953     6.17823    5733.837    1393.464    1386.772    1446.980    1924.445
      63.940   263.15921   1260.2095     6.18750    5717.715    1376.266    1377.673    1444.747    1944.519
      63.950   263.24772   1260.8310     6.19190    5701.592    1358.645    1369.232    1443.880    1948.507
      63.960   263.52268   1261.4607     6.19629    5685.470    1340.696    1361.493    1443.013    1952.496
      63.970   263.96486   1262.0989     6.19336    5669.347    1322.521    1354.491    1447.832    1956.484
      63.980   264.54433   1262.7451     6.19043    5653.225    1304.223    1348.251    1452.650    1960.472
      63.990   265.22186   1263.3982     6.19043    5637.102    1285.906    1342.792    1456.942    1964.460
      64.000   265.95118   1264.0567     6.19043    5620.980    1267.676    1338.124    1461.234    1968.448
      64.010   266.68198   1264.7186     6.19482    5604.857    1249.637    1334.248    1461.772    1972.436
