~VERSION INFORMATION SECTION
VERS.           2.0  :CWLS Log ASCII Standard - 2.0
WRAP.           NO   :One line per depth
#               Created in SeisLab
~WELL INFORMATION SECTION
#MNEM.UNIT  VALUE/NAME               :DESCRIPTION    
STRT.m  10                           :Start Depth    
STOP.m  124                          :Stop Depth     
STEP.m  0.01                         :Step           
NULL.    -999.25                     :Null Value     
WELL.    GDP1                        :Well Name      
CTRY.    Switzerland                 :Country        
CNTY.                                :County         
STAT.    Central Swiss Alps          :State          
API .                                :API number     
UWI .                                :Unique well ID 
LOC .    Grimsel pass, Switzerland   :Well Location  
FLD .    n/a                         :Field          
COMP.    n/a                         :Company        
SRVC.    University of Lausanne      :Service Company
DATE.    2015                        :Date           
~PARAMETER INFORMATION SECTION
#MNEM .UNITS    VALUE   :DESCRIPTION OF PARAMETER
Casing.n/a      0       :open hole               
Mud   .Polymer  1       :Mud type                
~CURVE INFORMATION SECTION
#MNEM.UNITS  API CODES   :DESCRIPTION OF MNEMONIC      
depth.m                  :measured depth (interpolated)
Cal  .mm                 :Caliper                      
NN   .cps                :Neutron-Neutron              
GG   .cps                :Gamma-Gamma                  
~A depth       Cal         NN          GG          
# ...
      47.720   128.80880    568.4348    700.1033
      47.730   129.61780    571.4141    699.1141
      47.740   131.12690    586.3267    696.6411
      47.750   132.63600    601.2393    694.1682
      47.760   131.38825    623.0341    697.2074
      47.770   130.14050    644.8290    700.2466
      47.780   124.82305    631.3217    695.1023
      47.790   119.50560    617.8145    689.9580
      47.800   119.93420    608.3086    687.1817
      47.810   120.36280    598.8027    684.4054
      47.820   117.24560    592.3605    693.7641
      47.830   114.12840    585.9184    703.1229
      47.840   111.87920    578.8229    705.9602
      47.850   109.63000    571.7274    708.7975
      47.860   109.57490    562.9491    713.6783
      47.870   109.51980    554.1709    718.5591
      47.880   110.37815    544.9911    733.5205
      47.890   111.23650    535.8113    748.4818
      47.900   111.83865    540.1103    747.7103
      47.910   112.44080    544.4094    746.9388
      47.920   108.55660    549.7913    748.9731
      47.930   104.67240    555.1731    751.0073
      47.940   104.63615    560.1141    771.8571
      47.950   104.59990    565.0551    792.7070
      47.960   105.32220    550.9863    778.9269
      47.970   106.04450    536.9174    765.1467
      47.980   106.15280    528.0434    755.3694
      47.990   106.26110    519.1695    745.5921
      48.000   106.15460    515.1132    771.5979
      48.010   106.04810    511.0569    797.6038
      48.020   105.82210    518.7079    793.6039
      48.030   105.59610    526.3589    789.6041
      48.040   106.02925    518.5187    783.9961
      48.050   106.46240    510.6786    778.3881
      48.060   106.55080    492.3755    790.6604
      48.070   106.63920    474.0725    802.9327
      48.080   105.87985    479.1261    804.8465
      48.090   105.12050    484.1797    806.7603
      48.100   104.38700    486.6367    805.3274
      48.110   103.65350    489.0936    803.8945
      48.120   103.98125    489.6032    801.4178
      48.130   104.30900    490.1128    798.9410
      48.140   105.15535    491.6354    798.2435
      48.150   106.00170    493.1579    797.5460
      48.160   104.97150    497.5884    800.2402
      48.170   103.94130    502.0189    802.9343
      48.180   104.19765    507.6829    813.0924
      48.190   104.45400    513.3469    823.2505
      48.200   105.04835    503.7265    822.7536
      48.210   105.64270    494.1061    822.2568
      48.220   106.09680    503.2903    819.8948
      48.230   106.55090    512.4745    817.5328
      48.240   106.57905    535.2452    818.1701
      48.250   106.60720    558.0158    818.8074
      48.260   107.27540    565.6183    809.3190
      48.270   107.94360    573.2208    799.8306
      48.280   109.56615    572.9239    790.6821
      48.290   111.18870    572.6269    781.5336
      48.300   112.50470    567.0790    780.7035
      48.310   113.82070    561.5311    779.8735
      48.320   112.44380    569.1114    800.7370
      48.330   111.06690    576.6918    821.6006
      48.340   111.75510    583.4735    839.2619
      48.350   112.44330    590.2551    856.9231
      48.360   110.30825    595.1646    850.3631
      48.370   108.17320    600.0741    843.8031
      48.380   110.33835    586.2787    847.6315
      48.390   112.50350    572.4833    851.4598
      48.400   115.73725    571.7432    850.3160
      48.410   118.97100    571.0030    849.1722
      48.420   119.78070    579.4251    827.5645
      48.430   120.59040    587.8472    805.9569
      48.440   120.72885    581.7155    800.7837
      48.450   120.86730    575.5838    795.6105
      48.460   120.68760    563.5777    801.7334
      48.470   120.50790    551.5716    807.8563
      48.480   117.25695    535.7853    831.1340
      48.490   114.00600    519.9990    854.4117
      48.500   112.23150    515.8924    873.7049
      48.510   110.45700    511.7857    892.9980
      48.520   109.73960    513.3681    903.8396
      48.530   109.02220    514.9505    914.6812
      48.540   108.78225    520.0534    906.5930
      48.550   108.54230    525.1562    898.5048
      48.560   108.23225    516.9806    901.5441
      48.570   107.92220    508.8051    904.5833
      48.580   105.46400    498.9908    917.8198
      48.590   103.00580    489.1764    931.0564
      48.600   102.99850    478.9252    962.4812
      48.610   102.99120    468.6739    993.9060
      48.620   103.00770    470.8656    991.4662
      48.630   103.02420    473.0573    989.0264
      48.640   103.04455    470.8748    984.5287
      48.650   103.06490    468.6923    980.0310
      48.660   102.94630    464.9016    995.1195
      48.670   102.82770    461.1109   1010.2080
      48.680   102.67005    483.9631   1019.3825
      48.690   102.51240    506.8153   1028.5570
      48.700   102.46495    512.1356   1035.8095
      48.710   102.41750    517.4559   1043.0620
      48.720   102.41695    508.6203   1049.6895
      48.730   102.41640    499.7847   1056.3170
      48.740   102.41730    482.7922   1060.4650
      48.750   102.41820    465.7997   1064.6130
      48.760   102.41800    462.5010   1075.6750
      48.770   102.41780    459.2022   1086.7370
      48.780   102.41935    465.8270   1117.4760
      48.790   102.42090    472.4519   1148.2150
      48.800   102.42145    468.4619   1146.4200
      48.810   102.42200    464.4719   1144.6250
      48.820   102.42410    463.1703   1133.4430
      48.830   102.42620    461.8687   1122.2610
      48.840   102.43015    462.3585   1110.7400
      48.850   102.43410    462.8482   1099.2190
      48.860   102.43535    458.9208   1110.4120
      48.870   102.43660    454.9935   1121.6050
      48.880   102.43730    452.8703   1133.9220
      48.890   102.43800    450.7471   1146.2390
      48.900   102.43800    450.5005   1144.7740
      48.910   102.43800    450.2540   1143.3090
      48.920   102.43700    457.0773   1142.2185
      48.930   102.43600    463.9006   1141.1280
      48.940   102.43540    467.3092   1145.8795
      48.950   102.43480    470.7178   1150.6310
      48.960   102.43415    471.1661   1170.1985
      48.970   102.43350    471.6144   1189.7660
      48.980   102.43370    467.4627   1178.8860
      48.990   102.43390    463.3111   1168.0060
      49.000   102.43175    462.0133   1152.4735
      49.010   102.42960    460.7155   1136.9410
      49.020   102.42930    461.3140   1131.7365
      49.030   102.42900    461.9124   1126.5320
      49.040   102.43030    457.7422   1132.9150
      49.050   102.43160    453.5719   1139.2980
      49.060   102.43580    457.0555   1140.2025
      49.070   102.44000    460.5391   1141.1070
      49.080   102.44790    470.0280   1119.3295
      49.090   102.45580    479.5170   1097.5520
      49.100   102.50195    489.9764   1124.4465
      49.110   102.54810    500.4357   1151.3410
      49.120   102.50765    496.8616   1162.1835
      49.130   102.46720    493.2875   1173.0260
      49.140   102.54085    480.0482   1106.6645
      49.150   102.61450    466.8088   1040.3030
      49.160   102.69030    472.0797   1029.6190
      49.170   102.76610    477.3506   1018.9350
      49.180   102.74245    483.5932   1015.3425
      49.190   102.71880    489.8358   1011.7500
      49.200   102.76040    496.2350    985.6122
      49.210   102.80200    502.6342    959.4744
      49.220   102.79270    500.1303    956.2196
      49.230   102.78340    497.6264    952.9647
      49.240   102.72760    494.0279    958.6190
      49.250   102.67180    490.4295    964.2733
      49.260   102.67790    486.0625    976.1549
      49.270   102.68400    481.6955    988.0366
      49.280   102.68540    478.5300    989.2242
      49.290   102.68680    475.3646    990.4117
      49.300   102.67420    467.3507    991.0054
      49.310   102.66160    459.3369    991.5990
      49.320   102.66000    449.2674    998.5065
      49.330   102.65840    439.1980   1005.4140
      49.340   102.66970    454.6191    983.1282
      49.350   102.68100    470.0402    960.8425
