~VERSION INFORMATION SECTION
VERS.           2.0  :CWLS Log ASCII Standard - 2.0
WRAP.           NO   :One line per depth
#               Created in SeisLab
~WELL INFORMATION SECTION
#MNEM.UNIT  VALUE/NAME               :DESCRIPTION    
STRT.m  24.75                        :Start Depth    
STOP.m  125.11                       :Stop Depth     
STEP.m  0.02                         :Step           
NULL.    -999.25                     :Null Value     
WELL.    GDP1                        :Well Name      
CTRY.    Switzerland                 :Country        
CNTY.                                :County         
STAT.    Central Swiss Alps          :State          
API .                                :API number     
UWI .                                :Unique well ID 
LOC .    Grimsel Pass, Switzerland   :Well Location  
FLD .    n/a                         :Field          
COMP.    n/a                         :Company        
SRVC.    University of Lausanne      :Service Company
DATE.    2015                        :Date           
~PARAMETER INFORMATION SECTION
#MNEM .UNITS    VALUE   :DESCRIPTION OF PARAMETER
Casing.n/a      0       :open hole               
Mud   .Polymer  1       :Mud type                
~CURVE INFORMATION SECTION
#MNEM.UNITS  API CODES   :DESCRIPTION OF MNEMONIC
depth.m                  :measured depth         
NG   .cps                :Natural gamma          
Sp   .mV                 :Self potential         
Temp .DegC               :Temperature            
SPR  .Ohm                :Single point resistance
R8   .Ohm.m              :Normal resistivity     
R16  .Ohm.m              :Single point resistance
R32  .Ohm.m              :Normal resistivity     
R64  .Ohm.m              :Normal resistivity     
~A depth       NG          Sp          Temp        SPR         R8          R16         R32         R64         
# ...
      91.350   2982.7500    613.0000    10.37300    3818.910     726.414     573.357     768.608    1290.340
      91.370   2527.2400    623.5000    10.41210    3628.510     703.692     583.344     690.096    1293.190
      91.390   2394.9600    626.1250    10.39260    3527.160     674.083     594.137     757.036    1184.850
      91.410   3332.1200    628.8750    10.39260    3476.890     650.938     671.483     851.656    1110.260
      91.430   3718.1100    631.1250    10.41410    3462.000     643.213     817.804     820.850     921.771
      91.450   3324.1800    629.6250    10.38870    3437.420     638.843     859.679     766.348     668.071
      91.470   2293.0900    621.5000    10.37110    3348.980     634.627     750.297     810.621     696.641
      91.490   2882.2300    607.1250    10.39840    3221.210     634.452     681.188     854.147    1013.730
      91.510   3172.5400    580.6250    10.49020    3128.380     668.400     722.522     818.605    1127.050
      91.530   2310.0400    573.0000    10.47850    3135.770     736.815     738.230     727.720     802.629
      91.550   2789.4600    597.3750    10.44340    3260.910     755.803     687.149     671.835     629.437
      91.570   3199.6500    613.8750    10.44920    3557.530     694.222     662.901     635.291     763.371
      91.590   3099.9200    618.6250    10.42580    3957.870     650.410     720.732     592.447    1018.720
      91.610   3088.8800    616.3750    10.45510    4384.500     666.807     770.956     655.959    1079.130
      91.630   3629.9900    600.8750    10.49410    4713.750     672.903     737.290     719.384     891.159
      91.650   2439.5000    596.1250    10.43750    4784.120     645.903     677.716     676.546     739.335
      91.670   3067.7700    607.8750    10.43750    4687.340     637.955     675.517     645.464     589.161
      91.690   3085.3900    616.7500    10.50000    4533.770     679.889     697.238     685.875     507.382
      91.710   3096.8200    623.1250    10.49410    4397.390     722.325     658.800     696.711     548.730
      91.730   2594.8300    624.7500    10.42770    4205.480     716.347     593.324     687.092     648.143
      91.750   2897.7300    617.2500    10.45900    4014.330     679.863     581.526     711.120     740.270
      91.770   3034.2600    602.7500    10.44140    3955.000     667.918     556.374     640.588     811.659
      91.790   3257.5600    573.1250    10.44530    4005.400     667.118     512.776     615.843     795.778
      91.810   2628.5300    561.0000    10.46090    4110.760     632.950     551.582     753.907     736.888
      91.830   2720.5200    576.2500    10.49220    4211.570     587.597     587.091     838.485     756.608
      91.850   2923.2900    583.6250    10.41600    4220.980     571.324     546.138     774.543     779.069
      91.870   2485.3100    577.5000    10.44530    4132.480     549.217     517.505     633.202     738.512
      91.890   2756.3500    570.5000    10.42380    3939.050     517.213     551.164     603.986     656.442
      91.910   2649.2500    561.3750    10.48440    3721.560     527.399     557.369     731.731     851.352
      91.930   3105.1400    561.1250    10.44140    3580.410     537.396     540.583     755.724    1312.580
      91.950   2728.6500    577.8750    10.45900    3547.950     510.221     545.980     581.500    1469.300
      91.970   2347.8000    594.3750    10.43750    3549.040     491.480     498.291     497.815    1196.580
      91.990   3615.6600    614.2500    10.46480    3445.320     506.205     485.565     622.346    1017.480
      92.010   2803.4100    619.7500    10.41990    3242.200     508.500     564.775     777.335    1178.850
      92.030   3005.4000    599.1250    10.45510    3072.750     499.704     620.554     760.572    1223.480
      92.050   3169.8300    587.1250    10.43950    2992.040     503.300     609.165     681.492     988.653
      92.070   2825.8700    588.1250    10.43360    2961.830     481.155     541.609     791.363     798.671
      92.090   3773.5000    594.3750    10.41990    2940.520     474.867     513.478     922.631     890.704
      92.110   3496.9400    611.5000    10.42380    2908.620     511.686     588.911     837.080    1071.750
      92.130   3752.5800    621.8750    10.39840    2878.400     536.945     632.779     764.094    1018.320
      92.150   3433.6100    620.2500    10.45120    2889.920     528.031     550.473     837.423     945.541
      92.170   3291.6500    606.6250    10.42580    2982.890     491.678     504.629     802.382    1069.850
      92.190   3099.9200    568.3750    10.37700    3108.440     478.984     581.813     796.929    1149.240
      92.210   2511.1600    551.0000    10.38670    3162.740     522.262     652.380     819.431    1091.410
      92.230   2417.4300    567.7500    10.40820    3059.530     552.969     619.051     774.826     916.904
      92.250   3481.4400    580.1250    10.37700    2852.020     518.446     566.749     782.573     765.733
      92.270   2510.8700    586.7500    10.33400    2753.400     508.345     625.709     771.756     702.719
      92.290   3275.9600    595.0000    10.34960    2902.290     567.880     705.214     800.584     648.457
      92.310   3463.4300    608.7500    10.37300    3211.290     625.408     665.352     782.911     745.578
      92.330   3111.5400    607.0000    10.29100    3568.490     628.982     628.613     823.215     856.304
      92.350   3781.0500    574.1250    10.31250    3865.400     624.120     675.136     919.218     802.591
      92.370   2776.1000    552.2500    10.37300    4060.160     688.068     658.566     933.546     755.404
      92.390   3405.1400    544.7500    10.35550    4162.710     785.119     652.999     863.069     799.938
      92.410   2991.8500    543.3750    10.34770    4116.900     825.798     675.781     782.084     802.208
      92.430   3242.4600    555.0000    10.33200    4017.210     859.087     672.229     840.253     800.572
      92.450   2322.2400    560.5000    10.35350    3992.080     923.340     687.032     808.642     867.560
      92.470   2566.1600    554.1250    10.35350    4184.070     933.624     695.318     680.188     758.861
      92.490   3038.5200    551.1250    10.40230    4698.820     938.265     717.049     628.302     727.484
      92.510   2799.7300    554.3750    10.31640    5226.950     947.876     714.072     611.032     988.793
      92.530   2491.1200    562.2500    10.35740    5510.610     937.807     754.885     682.644    1144.140
      92.550   2728.2600    579.0000    10.33790    5620.860     936.081     795.848     725.062     998.155
      92.570   2872.1600    596.0000    10.39840    5511.210     929.903     798.562     752.790     713.664
      92.590   3199.4600    615.3750    10.37700    5473.370     934.966     782.404     888.599     675.111
      92.610   2978.2900    622.8750    10.33400    5580.730     925.725     738.706     940.296     927.623
      92.630   2733.1100    611.1250    10.34380    5695.880     915.573     761.412     920.966     944.418
      92.650   2461.2900    606.7500    10.30660    5691.630     899.964     743.096     900.842     577.897
      92.670   2862.0900    614.8750    10.35160    5576.890     866.163     680.712     864.529     411.818
      92.690   2805.5400    617.7500    10.32620    5488.180     825.319     660.724     823.781     630.157
      92.710   3460.5300    610.0000    10.31250    5400.650     781.530     653.136     813.126     941.062
      92.730   3572.2700    610.0000    10.38090    5191.280     782.365     704.331     914.491     938.508
      92.750   2472.3300    624.8750    10.34180    4839.740     766.580     734.661     948.301     789.883
      92.770   2915.1600    628.7500    10.30270    4317.030     728.536     743.348     916.525    1013.440
      92.790   3197.7200    613.2500    10.33400    3789.550     714.353     809.854     922.689    1263.160
      92.810   2638.7900    599.3750    10.30270    3404.620     707.767     832.224     848.079    1082.760
