~VERSION INFORMATION SECTION
VERS.           2.0  :CWLS Log ASCII Standard - 2.0
WRAP.           NO   :One line per depth
#               Created in SeisLab
~WELL INFORMATION SECTION
#MNEM.UNIT  VALUE/NAME               :DESCRIPTION    
STRT.m  33.03                        :Start Depth    
STOP.m  122.23                       :Stop Depth     
STEP.m  0.03                         :Step           
NULL.    -999.25                     :Null Value     
WELL.    GDP1                        :Well Name      
CTRY.    Switzerland                 :Country        
CNTY.                                :County         
STAT.    Central Swiss Alps          :State          
API .                                :API number     
UWI .                                :Unique well ID 
LOC .    Grimsel Pass, Switzerland   :Well Location  
FLD .    n/a                         :Field          
COMP.    n/a                         :Company        
SRVC.    University of Lausanne      :Service Company
DATE.    2016                        :Date           
~PARAMETER INFORMATION SECTION
#MNEM .UNITS  VALUE   :DESCRIPTION OF PARAMETER
Casing.n/a    1       :slotted PVC casing      
~CURVE INFORMATION SECTION
#MNEM.UNITS  API CODES   :DESCRIPTION OF MNEMONIC
depth.m                  :measured depth         
NG   .cps                :Natural gamma          
Sp   .mV                 :Self potential         
Temp .DegC               :Temperature            
SPR  .Ohm                :Single point resistance
R8   .Ohm.m              :Normal resistivity     
R16  .Ohm.m              :Single point resistance
R32  .Ohm.m              :Normal resistivity     
R64  .Ohm.m              :Normal resistivity     
~A depth       NG          Sp          Temp        SPR         R8          R16         R32         R64         
# ...
      35.260   279.26600   2656.5000     8.63477       10493      9072.9     13021.7     19239.1     -1514.0
      35.280   287.56300   2656.5000     8.58398        9562      8721.5     13365.9     21091.1     -3439.2
      35.320   263.93800   2656.5000     8.55371       10260      8726.2     12880.7     22799.9     -6387.9
      35.350   274.06300   2656.5000     8.54688       11063      9039.7     12310.9     21520.4    -57986.3
      35.380   288.75000   2656.5000     8.42676       11618      9616.7     12809.4     19624.3     27421.6
      35.410   303.59400   2656.5000     8.31152       12156      9844.8     13120.0     21851.8     28666.0
      35.440   289.43800   2656.5000     8.28906       12423      9917.4     12625.2     22910.6    -40960.0
      35.470   288.59400   2656.5000     8.24512       12294     10273.2     12698.1     21434.3    -14993.9
      35.500   302.04700   2656.5000     8.20703       11965     10274.5     13547.3     19970.0      -380.8
      35.530   285.03100   2656.5000     8.15918       11809      9979.2     14391.4     21676.7      1610.8
      35.560   274.71900   2656.5000     8.09473       11718      9834.0     14140.4     22684.3       877.9
      35.580   299.87500   2656.5000     8.07910       11478      9901.0     13416.3     20518.1       352.4
      35.620   292.26600   2656.5000     8.05762       11136     10029.0     14348.8     19502.9      -370.7
      35.650   314.12500   2656.5000     7.99121       10987      9769.9     14814.2     21883.7     -1188.4
      35.670   275.64100   2656.5000     7.95996       11028      9372.9     14355.2     23932.6     -1417.2
      35.710   289.09400   2656.5000     7.95020       10900      9737.8     13820.2     22084.1     -1737.3
      35.740   267.40600   2656.5000     7.89844       10811      9929.2     14339.9     20024.3     -1763.5
      35.760   321.73400   2656.5000     7.85254       10835      9773.0     14687.4     23423.5     -1605.3
      35.800   330.62500   2656.5000     7.84277       10861      9645.3     13869.9     24977.0     -1130.5
      35.830   277.70300   2656.5000     7.82910       10971      9949.3     13670.7     22442.5      -742.3
      35.850   326.79700   2656.5000     7.82715       11165     10166.1     14669.8     20330.1       987.5
      35.890   338.68800   2656.5000     7.77246       11499      9942.1     15598.6     22730.8      2638.4
      35.920   324.51600   2656.5000     7.71094       11862     10163.8     15201.8     23535.2      3451.5
      35.940   299.35900   2656.5000     7.72461       12075     10850.1     14641.2     21126.2      4524.8
      35.980   312.68800   2656.5000     7.69629       12086     11578.2     16149.1     19315.6      7552.6
      36.010   287.00000   2656.5000     7.66309       12247     11890.7     16752.6     21065.3      9979.7
      36.030   330.35900   2656.5000     7.66699       12744     12173.9     15941.4     22175.4     11546.8
      36.070   316.70300   2656.5000     7.69043       13031     13209.1     15388.9     19536.8     14295.8
      36.100   287.62500   2656.5000     7.65137       13644     13534.3     16416.9     20477.6     16968.2
      36.130   302.21900   2656.5000     7.59570       14619     13412.7     16710.6     22178.4     17750.6
      36.160   307.57800   2656.5000     7.58301       15459     13497.2     16021.1     28489.7     15399.6
      36.190   306.23400   2656.5000     7.60352       15868     13992.8     15687.4     22205.3     14654.2
      36.220   280.60900   2656.5000     7.56152       15457     14005.3     16397.1     21722.7     15426.3
      36.250   279.39100   2656.5000     7.56250       15336     13798.1     16894.4     39574.6     14480.2
      36.280   275.70300   2656.5000     7.52734       15286     13773.3     16207.2     40282.3     12116.9
      36.310   323.71900   2656.5000     7.58008       14821     13892.4     17429.2     37631.8     11369.5
      36.330   285.29700   2656.5000     7.54102       14397     13848.4     18065.8     26541.7     13892.4
      36.370   287.46900   2656.5000     7.50195       14440     13512.6     21150.7     30655.0     14225.7
      36.400   280.17200   2656.5000     7.50684       14806     14342.3     18346.6     29881.3     11986.3
      36.420   296.81300   2656.5000     7.53223       14774     14491.8     18601.2     23300.4     12215.8
      36.460   248.26600   2656.5000     7.49805       14666     16002.5     27374.4     21065.1     14803.4
      36.490   308.12500   2656.5000     7.44336       14887     14693.8     27149.4     18960.1     14266.2
      36.510   317.12500   2656.5000     7.44336       15760     15159.7     26512.6     21903.5     11000.9
      36.550   304.67200   2656.5000     7.46777       15696     19752.2     20806.1     24919.7     10101.3
      36.580   258.78100   2656.5000     7.41992       16136     19232.3     22084.7     41794.7     11166.4
      36.600   306.51600   2656.5000     7.39258       15725     18929.1     20960.7    371420.0     10298.1
      36.640   306.17200   2656.5000     7.35352       16259     15677.9     17536.6   -131999.0      6386.2
      36.670   292.60900   2656.5000     7.38184       18058     15827.9     16375.6    -10774.2      3570.9
      36.690   273.28100   2656.5000     7.36816       17195     14670.1     15109.9    -15284.3      1982.1
      36.730   263.14100   2656.5000     7.34473       17104     12614.3     17680.0     70172.8       197.3
      36.760   279.98400   2656.5000     7.34180       15332     11833.6     21373.9      8426.4      -765.4
      36.780   261.40600   2656.5000     7.35645       14712     10874.9     37256.9      7205.7     -1782.7
      36.820   279.81300   2656.5000     7.32813       13547     12501.2    436104.0      7529.9       250.5
      36.850   330.40600   2656.5000     7.25098       12452     15496.8   -232403.0      7396.6      2479.2
      36.880   259.82800   2656.5000     7.28516       12170     27978.4    -44859.3      7355.9     13983.8
      36.910   278.76600   2656.5000     7.28125       11741    325209.0    -52301.8      7800.6     14210.4
      36.940   276.59400   2401.1300     7.26074       15973   -177098.0    244810.0      9370.4     27180.0
      36.970   250.87500   2098.7500     7.19336       26786    -38652.8     22949.3     10358.5     64834.5
      37.000   246.90600   1581.2500     7.21484       67222    -56834.4     14609.6     10983.3     69263.7
      37.030   290.76600   1024.1300     7.25586     1008640    289534.0     12598.8     12281.9     63278.9
      37.060   264.37500    987.3750     7.22559     -574363     28017.9     11543.8     13169.9     42456.0
      37.080   267.46900   1048.2500     7.17773     -139899     18582.7     11376.3     13068.5     38539.7
      37.120   245.10900   1482.8800     7.20117     -161818     14497.8     10644.1     12443.7     27166.6
      37.150   247.46100   1989.2500     7.22070      587486     11751.7     10771.7     12595.4     12152.2
      37.180   256.59400   2307.1300     7.22754       37698     10256.2     11103.7     12825.9      7515.6
      37.210   296.79700   2587.6300     7.19629       18852      8917.9     11115.1     12400.9      1125.9
      37.240   251.50000   2587.1300     7.20117       13807      8202.0     10818.0     11217.5      -730.2
      37.260   303.25000   2532.1300     7.22559       10873      7638.1     10143.3     10702.1     -3000.9
      37.300   269.18800   2470.6300     7.21484        9901      7270.8     10124.7     10373.0     -8267.4
      37.330   296.90600   2408.5000     7.15723        9259      6792.1      9941.3      9576.9   -119945.0
      37.350   274.70300   2366.3800     7.21387        8963      6335.6      9698.1      8636.0     64919.3
      37.390   277.82800   2328.1300     7.19336        8595      6181.1      9359.7      7991.6     16959.5
      37.420   285.62500   2289.2500     7.19141        8278      6002.7      9443.0      8194.5     20853.4
      37.440   280.60900   2249.7500     7.12988        8018      5789.2      9339.5      8046.4    -73105.0
