~VERSION INFORMATION SECTION
VERS.           2.0  :CWLS Log ASCII Standard - 2.0
WRAP.           NO   :One line per depth
#               Created in SeisLab
~WELL INFORMATION SECTION
#MNEM.UNIT  VALUE/NAME               :DESCRIPTION    
STRT.m  47.59                        :Start Depth    
STOP.m  123.23                       :Stop Depth     
STEP.m  0.02                         :Step           
NULL.    -999.25                     :Null Value     
WELL.    GDP1                        :Well Name      
CTRY.    Switzerland                 :Country        
CNTY.                                :County         
STAT.    Central Swiss Alps          :State          
API .                                :API number     
UWI .                                :Unique well ID 
LOC .    Grimsel Pass, Switzerland   :Well Location  
FLD .    n/a                         :Field          
COMP.    n/a                         :Company        
SRVC.    University of Lausanne      :Service Company
DATE.    2017                        :Date           
~PARAMETER INFORMATION SECTION
#MNEM .UNITS  VALUE   :DESCRIPTION OF PARAMETER
Casing.n/a    1       :slotted PVC casing      
~CURVE INFORMATION SECTION
#MNEM.UNITS  API CODES   :DESCRIPTION OF MNEMONIC
depth.m                  :measured depth         
NG   .cps                :Natural gamma          
Sp   .mV                 :Self potential         
Temp .DegC               :Temperature            
SPR  .Ohm                :Single point resistance
R8   .Ohm.m              :Normal resistivity     
R16  .Ohm.m              :Single point resistance
R32  .Ohm.m              :Normal resistivity     
R64  .Ohm.m              :Normal resistivity     
~A depth       NG          Sp          Temp        SPR         R8          R16         R32         R64         
# ...
     121.590   287.85900   -999.0000     7.98242    -30204.7    -95981.4     7389.51     5056.99     4221.69
     121.610   326.00000   -999.0000     7.98535     41522.0    228672.0     7150.65     5237.02     4169.89
     121.630   295.67200   -999.0000     7.96191     18955.7     48185.5     7131.25     5425.51     4139.07
     121.650   279.62500   -999.0000     7.93945     15763.4     24924.4     7233.86     5611.44     4101.59
     121.670   321.43800   -999.0000     7.96387     17540.8     17702.3     7462.39     5790.87     4070.49
     121.690   306.31300   -999.0000     7.98535     30122.4     14742.4     7828.40     5994.84     4064.40
     121.710   289.03100   -999.0000     7.98535    -52262.8     13026.6     8421.84     6205.95     4071.71
     121.730   326.71900   -999.0000     7.96484     -7949.8     11927.4     9286.23     6390.16     4066.34
     121.750   293.73400   -999.0000     7.97754     -3161.4     11280.7    10275.60     6528.70     4053.24
     121.770   301.20300   -999.0000     7.96484     -1864.0     10978.6    11194.40     6627.35     4025.23
     121.790  -999.00000   -999.0000     7.97559     -1409.3     10856.5    11915.30     6742.60     3996.52
     121.810  -999.00000   -999.0000     7.95703     -1226.1     10861.4    12442.10     6866.01     3982.94
     121.830  -999.00000   -999.0000     7.97754     -1156.8     10964.8    12838.10     6970.42     3973.65
     121.850  -999.00000   -999.0000     7.98242     -1129.9     11118.2    13139.90     7047.21     3967.01
     121.870  -999.00000   -999.0000     7.99219     -1123.0     11268.5    13338.20     7135.25     3981.02
     121.890  -999.00000   -999.0000     7.97070     -1124.5     11430.2    13486.70     7238.82     3969.12
     121.910  -999.00000   -999.0000     7.96484     -1130.8     11654.6    13586.10     7380.29     3932.35
     121.930  -999.00000   -999.0000     7.95508     -1139.7     11918.2    13624.40     7593.59     3895.97
     121.950  -999.00000   -999.0000     7.97363     -1150.5     12135.0    13582.40     7839.87     3841.43
     121.970  -999.00000   -999.0000     7.95996     -1163.6     12261.8    13496.50     8047.57     3785.10
     121.990  -999.00000   -999.0000     7.95801     -1178.4     12332.0    13490.20     8188.08     3748.49
     122.010  -999.00000   -999.0000     7.98926     -1196.4     12349.4    13586.40     8185.44     3749.90
     122.030  -999.00000   -999.0000     7.99805     -1216.0     12326.6    13706.20     4254.98     3743.81
     122.050  -999.00000   -999.0000     7.96191     -1231.8     12275.6    13761.30     4851.48     3738.19
     122.070  -999.00000   -999.0000     7.97559     -1244.7     12235.0    13760.50     4453.67     3735.53
     122.090  -999.00000   -999.0000     7.98730     -1261.5     12261.8    13680.70     -391.61     -999.00
     122.110  -999.00000   -999.0000     7.96387     -1280.1     12336.7    13490.50     -652.16     -999.00
     122.130  -999.00000   -999.0000     7.98242     -1299.4     12423.4    13202.40     -647.38     -999.00
     122.150  -999.00000   -999.0000     7.99609     -1314.8     12491.4    12873.10     -641.88     -999.00
     122.170  -999.00000   -999.0000     7.99902     -1326.1     12558.2    12550.00     -636.50     -999.00
     122.190  -999.00000   -999.0000     7.98730     -1340.1     12605.6    12227.70     -631.04     -999.00
     122.210  -999.00000   -999.0000     7.97168     -1354.2     12598.3    11916.60     -628.07     -999.00
     122.230  -999.00000   -999.0000     7.98535     -1365.5     12511.9    11639.80     -609.36     -999.00
     122.250  -999.00000   -999.0000     7.97363     -1371.5     12349.9    11429.60     -608.93     -999.00
     122.270  -999.00000   -999.0000     8.01074     -1372.8     12134.1    11278.80     -588.44     -999.00
     122.290  -999.00000   -999.0000     8.00977     -1367.4     11849.6    11189.80     -549.42     -999.00
     122.310  -999.00000   -999.0000     8.00488     -1355.4     11520.7    11149.00     3492.47     -999.00
     122.330  -999.00000   -999.0000     7.98535     -1334.7     11186.0    11125.20     7851.69     -999.00
     122.350  -999.00000   -999.0000     7.99219     -1306.4     10886.6    11101.80     7721.23     -999.00
     122.370  -999.00000   -999.0000     7.97559     -1276.9     10622.6    11059.90     7299.60     -999.00
     122.390  -999.00000   -999.0000     7.97754     -1243.6     10397.9    11001.40     7318.66     -999.00
     122.410  -999.00000   -999.0000     8.00977     -1206.1     10217.1    10940.60     7350.44     -999.00
     122.430  -999.00000   -999.0000     7.98438     -1169.1     10060.3    10873.90     7352.56     -999.00
     122.450  -999.00000   -999.0000     8.00488     -1139.4      9916.7    10815.70     7346.83     -999.00
     122.470  -999.00000   -999.0000     7.98926     -1117.5      9770.2    10785.00     7338.62     -999.00
     122.490  -999.00000   -999.0000     7.98926     -1100.7      9621.0    10782.20     -999.00     -999.00
     122.510  -999.00000   -999.0000     7.99805     -1087.7      9475.2    10756.50     -999.00     -999.00
     122.530  -999.00000   -999.0000     8.00098     -1076.8      9332.9    10699.80     -999.00     -999.00
     122.550  -999.00000   -999.0000     8.01074     -1067.6      9213.8    10603.30     -999.00     -999.00
     122.570  -999.00000   -999.0000     7.98535     -1058.6      9142.2    10495.30     -999.00     -999.00
     122.590  -999.00000   -999.0000     8.00293     -1051.9      9118.0    10428.30     -999.00     -999.00
     122.610  -999.00000   -999.0000     7.99902     -1048.5      9101.9    10381.80     -999.00     -999.00
     122.630  -999.00000   -999.0000     7.99805     -1046.3      9080.4    10371.80     -999.00     -999.00
     122.650  -999.00000   -999.0000     8.03125     -1046.5      9042.8    10358.30     -999.00     -999.00
     122.670  -999.00000   -999.0000     8.00098     -1049.8      9001.6    10342.80     -999.00     -999.00
     122.690  -999.00000   -999.0000     8.00098     -1058.0      8978.9     -999.00     -999.00     -999.00
     122.710  -999.00000   -999.0000     7.99121     -1069.9      8955.7     -999.00     -999.00     -999.00
     122.730  -999.00000   -999.0000     8.00586     -1079.8      8951.8     -999.00     -999.00     -999.00
     122.750  -999.00000   -999.0000     7.98438     -1084.5      8945.3     -999.00     -999.00     -999.00
     122.770  -999.00000   -999.0000     8.01758     -1086.8      8935.0     -999.00     -999.00     -999.00
     122.790  -999.00000   -999.0000     7.97852     -1088.1      8926.5     -999.00     -999.00     -999.00
     122.810  -999.00000   -999.0000     8.00098     -1087.6      -999.0     -999.00     -999.00     -999.00
     122.830  -999.00000   -999.0000     7.99902     -1087.8      -999.0     -999.00     -999.00     -999.00
     122.850  -999.00000   -999.0000     8.00586     -1087.3      -999.0     -999.00     -999.00     -999.00
     122.870  -999.00000   -999.0000     8.02344     -1087.2      -999.0     -999.00     -999.00     -999.00
     122.890  -999.00000   -999.0000     8.02441     -1088.7      -999.0     -999.00     -999.00     -999.00
     122.910  -999.00000   -999.0000     8.00586      -999.0      -999.0     -999.00     -999.00     -999.00
     122.930  -999.00000   -999.0000     7.99805      -999.0      -999.0     -999.00     -999.00     -999.00
     122.950  -999.00000   -999.0000     7.98535      -999.0      -999.0     -999.00     -999.00     -999.00
     122.970  -999.00000   -999.0000     8.02637      -999.0      -999.0     -999.00     -999.00     -999.00
     122.990  -999.00000   -999.0000     8.02832      -999.0      -999.0     -999.00     -999.00     -999.00
     123.010  -999.00000   -999.0000     8.00977      -999.0      -999.0     -999.00     -999.00     -999.00
     123.030  -999.00000   -999.0000     8.01758      -999.0      -999.0     -999.00     -999.00     -999.00
     123.050  -999.00000   -999.0000     7.98926      -999.0      -999.0     -999.00     -999.00     -999.00
