~VERSION INFORMATION SECTION
VERS.           2.0  :CWLS Log ASCII Standard - 2.0
WRAP.           NO   :One line per depth
#               Created in SeisLab
~WELL INFORMATION SECTION
#MNEM.UNIT  VALUE/NAME               :DESCRIPTION    
STRT.m  11                           :Start Depth    
STOP.m  125                          :Stop Depth     
STEP.m  0.01                         :Step           
NULL.    -999.25                     :Null Value     
WELL.    GDP1                        :Well Name      
CTRY.    Switzerland                 :Country        
CNTY.                                :County         
STAT.                                :State          
API .                                :API number     
UWI .                                :Unique well ID 
LOC .    Grimsel pass, Switzerland   :Well Location  
FLD .    n/a                         :Field          
COMP.    n/a                         :Company        
SRVC.    University of Lausanne      :Service Company
DATE.    2016                        :Date           
~PARAMETER INFORMATION SECTION
#MNEM .UNITS  VALUE   :DESCRIPTION OF PARAMETER
Casing.n/a    0       :cased hole              
~CURVE INFORMATION SECTION
#MNEM     .UNITS  API CODES   :DESCRIPTION OF MNEMONIC      
depth     .m                  :measured depth (interpolated)
P_slowness.us/m               :FWS2016_25kHz_semblance      
S_slowness.us/m               :FWS2016_25kHz_semblance      
~A depth       P_slowness  S_slowness  
# ...
     119.500   233.85372   413.06315
     119.510   233.93977   413.06315
     119.520   234.02582   413.06315
     119.530   234.15490   413.06315
     119.540   234.32702   413.10618
     119.550   234.49913   413.14921
     119.560   234.67125   413.19225
     119.570   234.84336   413.23528
     119.580   235.05849   413.27831
     119.590   235.27362   413.32134
     119.600   235.48875   413.40741
     119.610   235.70389   413.49348
     119.620   235.96205   413.57954
     119.630   236.22021   413.66561
     119.640   236.47838   413.79470
     119.650   236.73654   413.92380
     119.660   236.99470   414.09592
     119.670   237.25287   414.26803
     119.680   237.55407   414.44015
     119.690   237.85526   414.61226
     119.700   238.15646   414.82741
     119.710   238.45766   415.04256
     119.720   238.75885   415.25770
     119.730   239.06005   415.42982
     119.740   239.36125   415.60193
     119.750   239.66244   415.77405
     119.760   239.96364   415.94616
     119.770   240.26484   416.11828
     119.780   240.56603   416.29039
     119.790   240.86723   416.46251
     119.800   241.16843   416.63462
     119.810   241.46962   416.80674
     119.820   241.77082   416.93582
     119.830   242.02898   417.06490
     119.840   242.28715   417.19398
     119.850   242.54531   417.32307
     119.860   242.76044   417.45215
     119.870   242.97557   417.58123
     119.880   243.19070   417.71031
     119.890   243.40584   417.79636
     119.900   243.62097   417.83939
     119.910   243.83610   417.88243
     119.920   244.00820   417.92546
     119.930   244.13728   417.96849
     119.940   244.26636   417.96849
     119.950   244.39544   417.96849
     119.960   244.48151   417.96849
     119.970   244.56757   417.96849
     119.980   244.65364   417.96849
     119.990   244.73970   417.96849
     120.000   244.78274   417.96849
     120.010   244.82577   417.96849
     120.020   244.82577   417.92546
     120.030   244.82577   417.92546
     120.040   244.82577   417.92546
     120.050   244.82577   417.92546
     120.060   244.78275   417.88243
     120.070   244.73974   417.88243
     120.080   244.69672   417.88243
     120.090   244.65370   417.92544
     120.100   244.61069   417.96846
     120.110   244.56767   418.05451
     120.120   244.52466   418.14056
     120.130   244.48164   418.26964
     120.140   244.39559   418.39872
     120.150   244.35256   418.57082
     120.160   244.30952   418.74292
     120.170   244.26649   418.95805
     120.180   244.22346   419.17318
     120.190   244.18043   419.43134
     120.200   244.13739   419.68951
     120.210   244.13739   419.94767
     120.220   244.13739   420.20584
     120.230   244.13739   420.42097
     120.240   244.13739   420.63610
     120.250   244.18043   420.85123
     120.260   244.22346   421.06636
     120.270   244.26649   421.28149
     120.280   244.30952   421.49662
     120.290   244.39559   421.67774
     120.300   244.48166   421.85885
     120.310   244.56772   422.03997
     120.320   244.65379   422.22108
     120.330   244.73985   422.44818
     120.340   244.82592   422.71831
     120.350   244.91198   422.98844
     120.360   244.99805   423.25857
     120.370   245.08411   423.52870
     120.380   245.17018   423.79884
     120.390   245.25625   424.06897
     120.400   245.34231   424.33910
     120.410   245.47139   424.60923
     120.420   245.60048   424.87936
     120.430   245.72956   425.10925
     120.440   245.90167   425.33913
     120.450   246.07379   425.51154
     120.460   246.24590   425.68395
     120.470   246.41802   425.85636
     120.480   246.59013   426.02877
     120.490   246.76225   426.16095
     120.500   246.93436   426.33616
     120.510   247.10648   426.47113
     120.520   247.27859   426.60610
     120.530   247.45070   426.74107
     120.540   247.66584   426.87603
     120.550   247.88097   426.97651
     120.560   248.09610   427.07698
     120.570   248.31123   427.07975
     120.580   248.52636   427.08252
     120.590   248.69848   427.02780
     120.600   248.87059   426.97308
     120.610   249.04270   426.83790
     120.620   249.21482   426.70272
     120.630   249.34390   426.56754
     120.640   249.47298   426.38933
     120.650   249.55903   426.15362
     120.660   249.64508   425.91792
     120.670   249.68810   425.58451
     120.680   249.73111   425.20807
     120.690   249.73111   424.75689
     120.700   249.73111   424.26269
     120.710   249.68808   423.68803
     120.720   249.64505   423.07034
     120.730   249.55898   422.36067
     120.740   249.47292   421.60797
     120.750   249.34384   420.77480
     120.760   249.17174   419.89862
     120.770   248.99964   418.92472
     120.780   248.82754   417.90779
     120.790   248.61241   416.81613
     120.800   248.39728   415.68144
     120.810   248.18215   414.50651
     120.820   247.92398   413.33157
     120.830   247.66582   412.13939
     120.840   247.40766   410.99025
     120.850   247.14949   409.72615
     120.860   246.84830   408.46205
     120.870   246.59013   407.17495
     120.880   246.33197   405.88785
     120.890   246.07380   404.58351
     120.900   245.77261   403.31318
     120.910   245.51443   402.04285
     120.920   245.25625   400.77252
     120.930   244.99807   399.57693
     120.940   244.73989   398.33536
     120.950   244.52474   397.24898
     120.960   244.30959   396.16261
     120.970   244.22561   395.27166
     120.980   244.14162   394.38070
     120.990   244.07459   393.64495
     121.000   244.00756   392.90920
     121.010   244.01682   392.27116
     121.020   243.98307   391.63313
     121.030   244.01711   391.06982
     121.040   244.05116   390.54675
     121.050   244.14456   390.23636
     121.060   244.23795   389.98344
     121.070   244.45849   389.84549
     121.080   244.67903   389.70754
     121.090   244.98433   389.68456
     121.100   245.28962   389.70180
     121.110   245.78141   389.85700
     121.120   246.27320   390.05244
     121.130   246.87516   390.32261
     121.140   247.47713   390.59277
     121.150   248.20861   390.94341
     121.160   248.94008   391.32854
     121.170   249.71457   391.82862
     121.180   250.48907   392.42641
     121.190   251.30659   393.09893
     121.200   252.16713   393.82895
     121.210   253.07070   394.61644
     121.220   253.97428   395.48439
     121.230   254.88385   396.35234
     121.240   255.83646   397.22030
     121.250   256.78907   398.04802
     121.260   257.78470   398.93323
     121.270   258.75998   399.81844
     121.280   259.77830   400.80136
     121.290   260.64387   401.60807
     121.300   261.55246   402.48951
     121.310   262.36941   403.32793
     121.320   263.22939   404.24682
     121.330   264.02830   405.12267
     121.340   264.87023   406.09051
     121.350   265.69179   407.01531
     121.360   266.55636   408.02057
     121.370   267.42093   409.02584
     121.380   268.28551   410.12882
     121.390   269.17046   411.23180
     121.400   270.09844   412.40951
     121.410   271.02643   413.54420
     121.420   271.95441   414.71913
     121.430   272.83148   415.89407
     121.440   273.70854   417.08625
     121.450   274.56525   418.32144
     121.460   275.42195   419.67159
     121.470   276.25830   421.02174
     121.480   277.05161   422.39489
     121.490   277.82454   423.76803
     121.500   278.59748   425.15843
     121.510   279.37041   426.54882
     121.520   280.10033   427.93921
     121.530   280.83025   429.32961
     121.540   281.56016   430.64526
     121.550   282.24861   431.96092
     121.560   282.89402   433.12138
     121.570   283.53943   434.32487
     121.580   284.05367   435.33293
     121.590   284.56792   436.34100
     121.600   285.06521   437.19387
     121.610   285.56251   438.04674
     121.620   285.98351   438.80189
     121.630   286.40451   439.55703
     121.640   286.75770   440.23746
     121.650   287.11090   440.91789
     121.660  -999.25000  -999.25000
