~VERSION INFORMATION SECTION
VERS.           2.0  :CWLS Log ASCII Standard - 2.0
WRAP.           NO   :One line per depth
#               Created in SeisLab
~WELL INFORMATION SECTION
#MNEM.UNIT  VALUE/NAME               :DESCRIPTION    
STRT.m  10                           :Start Depth    
STOP.m  124                          :Stop Depth     
STEP.m  0.01                         :Step           
NULL.    -999.25                     :Null Value     
WELL.    GDP1                        :Well Name      
CTRY.    Switzerland                 :Country        
CNTY.                                :County         
STAT.    Central Swiss Alps          :State          
API .                                :API number     
UWI .                                :Unique well ID 
LOC .    Grimsel pass, Switzerland   :Well Location  
FLD .    n/a                         :Field          
COMP.    n/a                         :Company        
SRVC.    University of Lausanne      :Service Company
DATE.    2015/2016                   :Date           
~PARAMETER INFORMATION SECTION
#MNEM .UNITS  VALUE   :DESCRIPTION OF PARAMETER
Casing.n/a    0       :open hole/cased hole    
~CURVE INFORMATION SECTION
#MNEM       .UNITS  API CODES   :DESCRIPTION OF MNEMONIC      
depth       .m                  :measured depth (interpolated)
BHR velocity.m/ns               :BHR velocity 2015            
BHR velocity.m/ns               :BHR velocity 2016            
~A depth       BHR_velocity BHR_velocity
# ...
      90.290     0.10355     0.10395
      90.300     0.10349     0.10409
      90.310     0.10342     0.10424
      90.320     0.10334     0.10424
      90.330     0.10326     0.10424
      90.340     0.10318     0.10424
      90.350     0.10309     0.10424
      90.360     0.10302     0.10424
      90.370     0.10295     0.10411
      90.380     0.10287     0.10398
      90.390     0.10280     0.10385
      90.400     0.10276     0.10372
      90.410     0.10271     0.10360
      90.420     0.10264     0.10382
      90.430     0.10257     0.10405
      90.440     0.10253     0.10427
      90.450     0.10249     0.10450
      90.460     0.10244     0.10473
      90.470     0.10238     0.10466
      90.480     0.10236     0.10460
      90.490     0.10233     0.10453
      90.500     0.10231     0.10447
      90.510     0.10229     0.10440
      90.520     0.10235     0.10434
      90.530     0.10240     0.10427
      90.540     0.10246     0.10421
      90.550     0.10251     0.10414
      90.560     0.10260     0.10408
      90.570     0.10269     0.10406
      90.580     0.10277     0.10405
      90.590     0.10286     0.10403
      90.600     0.10294     0.10401
      90.610     0.10302     0.10400
      90.620     0.10308     0.10400
      90.630     0.10315     0.10400
      90.640     0.10323     0.10400
      90.650     0.10331     0.10400
      90.660     0.10339     0.10400
      90.670     0.10346     0.10401
      90.680     0.10352     0.10403
      90.690     0.10357     0.10405
      90.700     0.10365     0.10406
      90.710     0.10374     0.10408
      90.720     0.10381     0.10422
      90.730     0.10389     0.10437
      90.740     0.10395     0.10451
      90.750     0.10402     0.10466
      90.760     0.10411     0.10481
      90.770     0.10420     0.10496
      90.780     0.10427     0.10510
      90.790     0.10433     0.10525
      90.800     0.10434     0.10540
      90.810     0.10435     0.10555
      90.820     0.10435     0.10567
      90.830     0.10435     0.10578
      90.840     0.10432     0.10590
      90.850     0.10430     0.10602
      90.860     0.10420     0.10613
      90.870     0.10411     0.10620
      90.880     0.10405     0.10627
      90.890     0.10400     0.10634
      90.900     0.10394     0.10640
      90.910     0.10389     0.10647
      90.920     0.10385     0.10640
      90.930     0.10381     0.10634
      90.940     0.10377     0.10627
      90.950     0.10374     0.10620
      90.960     0.10375     0.10613
      90.970     0.10376     0.10607
      90.980     0.10376     0.10600
      90.990     0.10376     0.10593
      91.000     0.10379     0.10587
      91.010     0.10383     0.10580
      91.020     0.10387     0.10572
      91.030     0.10390     0.10563
      91.040     0.10399     0.10555
      91.050     0.10407     0.10547
      91.060     0.10413     0.10538
      91.070     0.10418     0.10529
      91.080     0.10419     0.10519
      91.090     0.10420     0.10509
      91.100     0.10419     0.10499
      91.110     0.10418     0.10489
      91.120     0.10416     0.10489
      91.130     0.10413     0.10489
      91.140     0.10407     0.10489
      91.150     0.10402     0.10489
      91.160     0.10395     0.10489
      91.170     0.10389     0.10492
      91.180     0.10389     0.10496
      91.190     0.10389     0.10499
      91.200     0.10392     0.10502
      91.210     0.10396     0.10505
      91.220     0.10400     0.10510
      91.230     0.10403     0.10515
      91.240     0.10403     0.10520
      91.250     0.10403     0.10525
      91.260     0.10406     0.10530
      91.270     0.10409     0.10530
      91.280     0.10413     0.10530
      91.290     0.10416     0.10530
      91.300     0.10419     0.10530
      91.310     0.10422     0.10530
      91.320     0.10424     0.10532
      91.330     0.10426     0.10533
      91.340     0.10432     0.10535
      91.350     0.10439     0.10537
      91.360     0.10446     0.10538
      91.370     0.10454     0.10547
      91.380     0.10461     0.10555
      91.390     0.10467     0.10563
      91.400     0.10474     0.10572
      91.410     0.10480     0.10580
      91.420     0.10487     0.10582
      91.430     0.10494     0.10583
      91.440     0.10499     0.10585
      91.450     0.10505     0.10587
      91.460     0.10510     0.10588
      91.470     0.10514     0.10590
      91.480     0.10519     0.10592
      91.490     0.10524     0.10593
      91.500     0.10528     0.10595
      91.510     0.10532     0.10597
      91.520     0.10537     0.10598
      91.530     0.10543     0.10600
      91.540     0.10549     0.10602
      91.550     0.10555     0.10603
      91.560     0.10558     0.10605
      91.570     0.10562     0.10612
      91.580     0.10567     0.10618
      91.590     0.10572     0.10625
      91.600     0.10576     0.10632
      91.610     0.10580     0.10639
      91.620     0.10584     0.10644
      91.630     0.10589     0.10649
      91.640     0.10592     0.10654
      91.650     0.10595     0.10659
      91.660     0.10601     0.10664
      91.670     0.10607     0.10669
      91.680     0.10610     0.10674
      91.690     0.10614     0.10679
      91.700     0.10616     0.10684
      91.710     0.10618     0.10689
      91.720     0.10620     0.10703
      91.730     0.10622     0.10717
      91.740     0.10626     0.10730
      91.750     0.10630     0.10744
      91.760     0.10632     0.10758
      91.770     0.10634     0.10772
      91.780     0.10637     0.10786
      91.790     0.10640     0.10799
      91.800     0.10649     0.10813
      91.810     0.10659     0.10827
      91.820     0.10665     0.10831
      91.830     0.10671     0.10834
      91.840     0.10677     0.10838
      91.850     0.10683     0.10841
      91.860     0.10689     0.10845
      91.870     0.10694     0.10847
      91.880     0.10698     0.10848
      91.890     0.10702     0.10850
      91.900     0.10699     0.10852
      91.910     0.10696     0.10854
      91.920     0.10696     0.10854
      91.930     0.10696     0.10854
      91.940     0.10693     0.10854
      91.950     0.10691     0.10854
      91.960     0.10689     0.10854
      91.970     0.10687     0.10852
      91.980     0.10681     0.10850
      91.990     0.10675     0.10848
      92.000     0.10671     0.10847
      92.010     0.10667     0.10845
      92.020     0.10660     0.10847
      92.030     0.10653     0.10848
      92.040     0.10647     0.10850
      92.050     0.10642     0.10852
      92.060     0.10631     0.10854
      92.070     0.10620     0.10852
      92.080     0.10613     0.10850
      92.090     0.10607     0.10848
      92.100     0.10599     0.10847
      92.110     0.10591     0.10845
      92.120     0.10587     0.10843
      92.130     0.10583     0.10841
      92.140     0.10577     0.10840
      92.150     0.10570     0.10838
      92.160     0.10566     0.10836
      92.170     0.10562     0.10831
      92.180     0.10556     0.10826
      92.190     0.10551     0.10820
      92.200     0.10548     0.10815
      92.210     0.10545     0.10810
      92.220     0.10540     0.10803
      92.230     0.10535     0.10796
      92.240     0.10534     0.10789
      92.250     0.10532     0.10782
      92.260     0.10534     0.10775
      92.270     0.10535     0.10772
      92.280     0.10543     0.10768
      92.290     0.10551     0.10765
      92.300     0.10557     0.10761
      92.310     0.10564     0.10758
      92.320     0.10570     0.10754
      92.330     0.10576     0.10751
      92.340     0.10584     0.10748
      92.350     0.10593     0.10744
      92.360     0.10600     0.10741
      92.370     0.10607     0.10742
      92.380     0.10611     0.10744
      92.390     0.10616     0.10746
      92.400     0.10619     0.10748
      92.410     0.10622     0.10749
      92.420     0.10629     0.10751
      92.430     0.10636     0.10753
      92.440     0.10641     0.10754
      92.450     0.10645     0.10756
