~VERSION INFORMATION SECTION
VERS.           2.0  :CWLS Log ASCII Standard - 2.0
WRAP.           NO   :One line per depth
#               Created in SeisLab
~WELL INFORMATION SECTION
#MNEM.UNIT  VALUE/NAME               :DESCRIPTION    
STRT.m  10                           :Start Depth    
STOP.m  125                          :Stop Depth     
STEP.m  0.01                         :Step           
NULL.    -999.25                     :Null Value     
WELL.    GDP1                        :Well Name      
CTRY.    Switzerland                 :Country        
CNTY.                                :County         
STAT.    Central Swiss Alps          :State          
API .                                :API number     
UWI .                                :Unique well ID 
LOC .    Grimsel Pass, Switzerland   :Well Location  
FLD .    n/a                         :Field          
COMP.    n/a                         :Company        
SRVC.    University of Lausanne      :Service Company
DATE.    2017                        :Date           
~PARAMETER INFORMATION SECTION
#MNEM .UNITS  VALUE   :DESCRIPTION OF PARAMETER
Casing.n/a    1       :slotted PVC casing      
~CURVE INFORMATION SECTION
#MNEM.UNITS  API CODES   :DESCRIPTION OF MNEMONIC
depth.m                  :measured depth         
NG   .cps                :Natural gamma          
Sp   .mV                 :Self potential         
Temp .DegC               :Temperature            
SPR  .Ohm                :Single point resistance
R8   .Ohm.m              :Normal resistivity     
R16  .Ohm.m              :Single point resistance
R32  .Ohm.m              :Normal resistivity     
R64  .Ohm.m              :Normal resistivity     
~A depth       NG          Sp          Temp        SPR         R8          R16         R32         R64         
# ...
      49.220   233.07499   1105.0000  -999.25000    -999.250    1520.154    1731.148    2427.184    -999.250
      49.230   230.82283   1105.0000  -999.25000    -999.250    1510.467    1719.747    2456.488    -999.250
      49.240   228.56836   1105.0000  -999.25000    -999.250    1500.780    1708.345    2527.273    -999.250
      49.250   226.34343   1105.0000  -999.25000    -999.250    1488.283    1701.267    2598.058    -999.250
      49.260   224.17498   1105.0000  -999.25000    -999.250    1475.786    1694.188    2619.815    -999.250
      49.270   222.08581   1105.0000  -999.25000    -999.250    1463.324    1691.916    2641.572    -999.250
      49.280   220.09623   1105.0000  -999.25000    -999.250    1450.862    1689.644    2591.046    -999.250
      49.290   218.22598   1105.0000  -999.25000    -999.250    1434.549    1681.173    2540.519    -999.250
      49.300   216.49600   1105.0000  -999.25000    -999.250    1418.236    1672.701    2477.276    -999.250
      49.310   214.92939   1105.0000  -999.25000    -999.250    1401.904    1671.935    2414.032    -999.250
      49.320   213.55155   1105.0000  -999.25000    -999.250    1385.572    1671.168    2426.055    -999.250
      49.330   212.38952   1105.0000  -999.25000    -999.250    1366.020    1668.057    2438.079    -999.250
      49.340   211.47070   1105.0000  -999.25000    -999.250    1346.468    1664.945    2501.797    -999.250
      49.350   210.82120   1105.0000  -999.25000    -999.250    1328.518    1665.390    2565.514    -999.250
      49.360   210.46404   1105.0000  -999.25000    -999.250    1310.568    1665.835    2596.010    -999.250
      49.370   210.41753   1105.0000  -999.25000    -999.250    1296.891    1663.869    2626.506    -999.250
      49.380   210.69387   1105.0000  -999.25000    -999.250    1283.213    1661.903    2582.374    -999.250
      49.390   211.29828   1105.0000  -999.25000    -999.250    1269.315    1663.319    2538.241    -999.250
      49.400   212.22857   1105.0000  -999.25000    -999.250    1255.418    1683.727    2479.026    -999.250
      49.410   213.47524   1105.0000  -999.25000    -999.250    1250.170    1682.631    2419.811    -999.250
      49.420   215.02181   1105.0000     6.07129    -999.250    1244.922    1681.753    2398.586    -999.250
      49.430   216.84547   1105.0000     6.06543    -999.250    1242.576    1681.058    2377.361    -999.250
      49.440   218.91781   1105.0000     6.05957    -999.250    1240.231    1680.509    2370.270    -999.250
      49.450   221.20581   1105.0000     6.05274    -999.250    1243.080    1680.068    2363.178    -999.250
      49.460   223.67291   1105.0000     6.04590    -999.250    1245.928    1679.696    2351.586    -999.250
      49.470   226.28017   1105.0000     6.04346    -999.250    1285.885    1679.352    2339.994    2865.325
      49.480   228.98771   1105.0000     6.04102    -999.250    1288.897    1678.996    2311.833    2886.576
      49.490   231.75640   1105.0000     6.04102    -999.250    1292.342    1678.588    2283.673    2909.344
      49.500   234.54975   1105.0000     6.04102    -999.250    1296.173    1678.093    2298.228    2932.113
      49.510   237.33570   1105.0000     6.04102    -999.250    1300.343    1677.474    2312.782    2950.194
      49.520   240.08791   1105.0000     6.04102    -999.250    1304.805    1676.699    2354.982    2968.276
      49.530   242.78626   1105.0000     6.03809    -999.250    1309.514    1675.741    2397.181    2987.030
      49.540   245.41678   1105.0000     6.03516    -999.250    1314.424    1674.573    2375.054    3005.785
      49.550   247.97086   1105.0000     6.04883    -999.250    1319.492    1673.177    2352.928    3031.031
      49.560   250.44409   1105.0000     6.06250    -999.250    1324.674    1671.538    2323.025    3056.276
      49.570   252.83475   1105.0000     6.05566    -999.250    1329.930    1669.645    2293.123    3078.227
      49.580   255.14222   1105.0000     6.04883    -999.250    1335.221    1667.495    2312.020    3100.179
      49.590   257.36540   1105.0000     6.05322    -999.250    1340.511    1665.088    2330.917    3115.184
      49.600   259.50171   1105.0000     6.05762    -999.250    1345.767    1662.432    2328.559    3130.189
      49.610   261.54666   1105.0000     6.05664    -999.250    1350.956    1659.540    2326.202    3144.257
      49.620   263.49408   1105.0000     6.05566    -999.250    1356.051    1656.430    2319.741    3158.325
      49.630   265.33652   1105.0000     6.04736    -999.250    1361.027    1653.126    2313.281    3178.748
      49.640   267.06574   1105.0000     6.03906    -999.250    1365.862    1649.658    2331.125    3199.171
      49.650   268.67287   1105.0000     6.04492    -999.250    1370.537    1646.059    2348.969    3222.380
      49.660   270.14847   1105.0000     6.05078    -999.250    1375.035    1642.369    2340.055    3245.590
      49.670   271.48215   1105.0000     6.04590    -999.250    1379.344    1638.631    2331.141    3269.349
      49.680   272.66240   1105.0000     6.04102    -999.250    1383.455    1634.890    2361.332    3293.108
      49.690   273.67668   1105.0000     6.04102    -999.250    1387.361    1631.198    2391.522    3315.396
      49.700   274.51216   1105.0000     6.04102    -999.250    1391.057    1627.607    2435.714    3337.685
      49.710   275.15701   1105.0000     6.04786    -999.250    1394.541    1624.171    2479.907    3372.915
      49.720   275.60181   1105.0000     6.05469    -999.250    1397.816    1620.946    2441.746    3408.145
      49.730   275.84073   1105.0000     6.05274    -999.250    1400.884    1617.990    2403.585    3432.380
      49.740   275.87212   1105.0000     6.05078    -999.250    1403.750    1615.360    2370.084    3456.615
      49.750   275.69879   1105.0000     6.04638    -999.250    1406.421    1613.114    2336.582    3468.292
      49.760   275.32833   1105.0000     6.04199    -999.250    1408.906    1611.307    2343.164    3479.968
      49.770   274.77372   1105.0000     6.04834    -999.250    1411.216    1609.995    2349.746    3474.492
      49.780   274.05377   1105.0000     6.05469    -999.250    1413.361    1609.230    2337.287    3469.015
      49.790   273.19292   1105.0000     6.04590    -999.250    1415.353    1609.063    2324.828    3466.264
      49.800   272.22025   1105.0000     6.03711    -999.250    1417.207    1609.542    2299.872    3463.512
      49.810   271.16764   1105.0000     6.04736    -999.250    1418.937    1610.709    2274.916    3465.954
      49.820   270.06750   1105.0000     6.05762    -999.250    1420.556    1612.605    2276.452    3468.396
      49.830   268.95037   1105.0000     6.04981    -999.250    1422.082    1615.265    2277.987    3462.490
      49.840   267.84292   1105.0000     6.04199    -999.250    1423.530    1618.719    2296.555    3456.584
      49.850   266.76658   1105.0000     6.04199    -999.250    1424.917    1622.991    2315.123    3450.609
      49.860   265.73689   1105.0000     6.04199    -999.250    1426.261    1628.101    2300.996    3444.633
      49.870   264.76358   1105.0000     6.03955    -999.250    1427.581    1634.061    2286.869    3444.459
      49.880   263.85127   1105.0000     6.03711    -999.250    1428.896    1640.878    2284.753    3447.428
      49.890   263.00061   1105.0000     6.04492    -999.250    1430.228    1648.551    2282.638    3450.396
      49.900   262.20959   1105.0000     6.05273    -999.250    1431.598    1657.073    2287.642    3453.365
      49.910   261.47445   1105.0000     6.04834    -999.250    1433.031    1666.430    2292.902    3456.334
      49.920   260.79005   1105.0000     6.04395    -999.250    1434.551    1676.599    2298.161    3459.302
      49.930   260.14994   1105.0000     6.05079    -999.250    1436.188    1687.552    2300.406    3462.271
      49.940   259.54642   1105.0000     6.05762    -999.250    1437.969    1699.252    2302.651    3465.240
      49.950   258.97112   1105.0000     6.05420    -999.250    1439.929    1711.655    2304.996    3468.208
