~VERSION INFORMATION SECTION
VERS.           2.0  :CWLS Log ASCII Standard - 2.0
WRAP.           NO   :One line per depth
#               Created in SeisLab
~WELL INFORMATION SECTION
#MNEM.UNIT  VALUE/NAME               :DESCRIPTION    
STRT.m  33.03                        :Start Depth    
STOP.m  122.23                       :Stop Depth     
STEP.m  0.03                         :Step           
NULL.    -999.25                     :Null Value     
WELL.    GDP1                        :Well Name      
CTRY.    Switzerland                 :Country        
CNTY.                                :County         
STAT.    Central Swiss Alps          :State          
API .                                :API number     
UWI .                                :Unique well ID 
LOC .    Grimsel Pass, Switzerland   :Well Location  
FLD .    n/a                         :Field          
COMP.    n/a                         :Company        
SRVC.    University of Lausanne      :Service Company
DATE.    2016                        :Date           
~PARAMETER INFORMATION SECTION
#MNEM .UNITS  VALUE   :DESCRIPTION OF PARAMETER
Casing.n/a    1       :slotted PVC casing      
~CURVE INFORMATION SECTION
#MNEM.UNITS  API CODES   :DESCRIPTION OF MNEMONIC
depth.m                  :measured depth         
NG   .cps                :Natural gamma          
Sp   .mV                 :Self potential         
Temp .DegC               :Temperature            
SPR  .Ohm                :Single point resistance
R8   .Ohm.m              :Normal resistivity     
R16  .Ohm.m              :Single point resistance
R32  .Ohm.m              :Normal resistivity     
R64  .Ohm.m              :Normal resistivity     
~A depth       NG          Sp          Temp        SPR         R8          R16         R32         R64         
# ...
      41.920   303.29700   2596.6300     6.41602        5213      1860.1      2600.0      4273.3      5503.1
      41.940   259.73400   2637.7500     6.40039        5236      1923.6      2556.1      4133.6      5439.0
      41.980   275.03100   2648.7500     6.38184        5140      1933.2      2532.7      3909.9      5979.7
      42.010   251.50000   2655.3800     6.37012        5071      1924.8      2643.3      4062.8      6155.5
      42.030   275.85900   2656.5000     6.37012        5100      1932.7      2622.3      4320.7      6343.3
      42.070   269.98400   2656.5000     6.39551        5158      1936.8      2628.4      3702.1      6488.8
      42.100   285.85900   2622.7500     6.40039        5227      2025.7      2736.0      4175.9      6993.8
      42.130   253.51600   2582.5000     6.37695        5358      2067.0      2756.9      3950.9      7352.1
      42.150   257.45300   2529.0000     6.35449        5521      2151.5      2738.5      4650.9      7687.0
      42.190   251.43800   2473.3800     6.37793        5641      2296.5      2682.0      5008.9      7376.6
      42.220   225.32800   2425.1300     6.36133        5908      2406.6      2761.4      4110.8      7033.3
      42.250   261.70300   2378.0000     6.32031        6294      2515.1      2896.8      4875.8      7689.0
      42.280   257.53100   2331.5000     6.34766        6729      2618.7      2630.6      4524.2      7624.0
      42.310   286.89100   2284.6300     6.36816        7060      2786.8      2937.9      4937.4      7466.9
      42.330   238.78100   2255.1300     6.36621        7076      2938.0      2803.5      3805.5      7163.3
      42.370   282.46900   2229.0000     6.33398        7064      2836.4      3193.0      4138.0      7530.1
      42.400   274.00000   2217.6300     6.32520        7065      2976.7      3458.8      4245.5      7519.0
      42.430   258.12500   2209.5000     6.36816        7056      2834.6      3048.6      3555.6      7067.6
      42.460   260.28100   2177.0000     6.36426        6901      2977.2      3481.4      3951.8      6846.2
      42.490   257.53100   2139.3800     6.32715        6609      3055.9      3295.9      3790.9      6935.4
      42.510   238.98400   -999.0000     6.34766        6480      2765.6      3572.9      4969.6      7392.1
      42.550   237.73400   2049.2500     6.37305        6262      2926.9      3003.6      6523.7      7099.7
      42.580   263.65600   2032.0000     6.33203        6341      2765.2      3147.9     14127.0      6879.7
      42.600   275.79700   2019.8800     6.29688        6458      2881.4      3157.2  -1348900.0      7294.8
      42.640   322.53100   2036.6300     6.35645        6397      2576.3      2792.6    456163.0      7426.6
      42.670   293.87500   2059.1300     6.33691        6526      2651.7      3042.0    -49938.6      7081.4
      42.690   312.82800   2077.0000     6.31543        6455      2630.4      2948.3     22949.9      6604.5
      42.720   266.81300   2093.8800     6.32031        6523      2417.7      3712.5      7552.9      6989.0
      42.760   286.82800   2078.1300     6.31836        6377      2583.8      5274.9      4730.1      7547.7
      42.780   282.01600   2056.1300     6.32910        6374      2585.0     12394.4      3680.5      6299.0
      42.820   296.54700   1948.2500     6.32031        6177      3211.8  -1096890.0      3523.5      7173.5
      42.850   303.85900   1824.8800     6.31055        5930      4911.9    349706.0      3610.9      6753.2
      42.880   282.04700   1595.6300     6.29492        6506     12660.4    -42696.1      3495.5      8005.8
      42.900   293.18800   1348.2500     6.32715        7790  -1192700.0     20203.6      3459.6      8587.6
      42.940   245.71100   1079.0000     6.29297       13149    431626.0      5866.3      3271.1      6798.7
      42.970   273.60900    806.1250     6.30371       32032    -70228.8      3414.9      3409.5      8311.5
      43.000   276.81300    719.7500     6.31348      108280     52630.2      2665.8      3498.2      7735.7
      43.030   270.43800    668.0000     6.31055   -11083400     17357.9      2516.8      3340.3      8474.5
      43.060  -999.00000    742.7500     6.32031     3304310      8465.6      2497.1      3289.8      6334.5
      43.080   314.90600    841.1250     6.29785     -432711      5774.7      2422.2      3435.4      7215.3
      43.120   279.59400   1113.5000     6.31348      174503      4186.5      2415.1      3463.3      7555.1
      43.150   285.73400   1420.6300     6.33008       34568      3045.8      2354.4      3377.4      6133.8
      43.180   267.98400   1683.2500     6.32227       12278      2432.8      2428.0      3253.9      6839.8
      43.210   280.01600   1936.1300     6.32715        7074      2029.0      2425.9      3231.1      6541.8
      43.240   280.01600   2038.1300     6.32031        5808      1787.4      2332.5      3401.0      8713.5
      43.260   244.86700   2109.5000     6.34961        5193      1667.7      2288.2      3292.1     11032.1
      43.300   253.48400   2120.8800     6.32910        4956      1623.2      2334.2      3357.5     22767.4
      43.330   267.65600   2120.7500     6.29004        4815      1546.7      2307.1      3299.4  -2300010.0
      43.350   291.67200   2120.0000     6.33398        4762      1539.9      2260.6      3296.4    798237.0
      43.390   299.67200   2119.5000     6.32715        4782      1575.7      2204.6      3172.2    -81296.1
      43.420   285.21900   2134.3800     6.32324        4780      1589.0      2156.2      3096.8     35617.7
      43.440   274.98400   -999.0000     6.27930        4739      1596.8      2228.4      3235.5     12592.8
      43.470   280.65600   2168.6300     6.31641        4771      1592.8      2184.5      3311.4      8034.3
      43.510   296.62500   2184.3800     6.34766        4822      1600.1      2205.3      3263.7      6134.8
      43.530   276.64100   2190.1300     6.31836        4847      1651.9      2157.0      3176.0      5835.4
      43.570   296.68800   2194.1300     6.31152        4874      1644.4      2139.3      3319.4      6052.9
      43.600   292.07800   2186.1300     6.32227        4985      1658.2      2073.2      3319.4      5862.9
      43.630   256.37500   2175.8800     6.32324        5130      1622.2      2047.4      3208.8      5751.6
      43.650   291.34400   2177.2500     6.31348        5291      1597.8      2081.0      3257.2      5360.2
      43.690   262.70300   2180.5000     6.28613        5426      1549.0      2108.8      3352.9      5657.4
      43.720   273.87500   2189.8800     6.30371        5374      1520.4      2088.6      3455.9      5856.3
      43.750   292.10900   2200.3800     6.31641        5212      1516.7      2048.2      -999.0      5512.7
      43.780   286.64100   2206.7500     6.32520        5019      1494.6      2096.8      3323.8      5379.4
      43.810   289.54700   2212.1300     6.28613        4865      1445.9      2072.3      3511.0      5693.8
      43.830   251.83600   2187.1300     6.28418        4889      1389.9      2040.1      3442.2      5769.2
      43.870   284.40600   2156.1300     6.32031        4927      1382.0      2082.7      3364.5      5556.8
      43.900   257.82800   2122.7500     6.32227        4855      1354.1      2116.0      3320.6      5300.8
      43.930   219.45300   2088.8800     6.27734        4730      1331.8      2161.2      3442.9      5289.9
      43.960   263.70300   2105.6300     6.31348        4554      1353.2      -999.0      3561.1      5619.1
      43.990  -999.00000   2132.5000     6.30859        4413      1367.8      2114.0      3315.8      5376.6
      44.010   256.26600   2165.3800     6.30371        4333      1391.2      2196.5      3354.8      5438.7
      44.050   282.25000   2198.8800     6.29688        4276      -999.0      2141.5      3178.8      5451.3
      44.080   247.95300   2214.3800     6.31152        4327      1377.0      2114.8      3661.2      5511.3
      44.100   210.03900   2226.2500     6.29980        4406      1425.6      2111.2      3424.6      5237.0
