~VERSION INFORMATION SECTION
VERS.           2.0  :CWLS Log ASCII Standard - 2.0
WRAP.           NO   :One line per depth
#               Created in SeisLab
~WELL INFORMATION SECTION
#MNEM.UNIT  VALUE/NAME               :DESCRIPTION    
STRT.m  24.75                        :Start Depth    
STOP.m  125.11                       :Stop Depth     
STEP.m  0.02                         :Step           
NULL.    -999.25                     :Null Value     
WELL.    GDP1                        :Well Name      
CTRY.    Switzerland                 :Country        
CNTY.                                :County         
STAT.    Central Swiss Alps          :State          
API .                                :API number     
UWI .                                :Unique well ID 
LOC .    Grimsel Pass, Switzerland   :Well Location  
FLD .    n/a                         :Field          
COMP.    n/a                         :Company        
SRVC.    University of Lausanne      :Service Company
DATE.    2015                        :Date           
~PARAMETER INFORMATION SECTION
#MNEM .UNITS    VALUE   :DESCRIPTION OF PARAMETER
Casing.n/a      0       :open hole               
Mud   .Polymer  1       :Mud type                
~CURVE INFORMATION SECTION
#MNEM.UNITS  API CODES   :DESCRIPTION OF MNEMONIC
depth.m                  :measured depth         
NG   .cps                :Natural gamma          
Sp   .mV                 :Self potential         
Temp .DegC               :Temperature            
SPR  .Ohm                :Single point resistance
R8   .Ohm.m              :Normal resistivity     
R16  .Ohm.m              :Single point resistance
R32  .Ohm.m              :Normal resistivity     
R64  .Ohm.m              :Normal resistivity     
~A depth       NG          Sp          Temp        SPR         R8          R16         R32         R64         
# ...
      52.870   3468.4700    604.7500    10.90040   11339.700    6577.150    7811.880    9810.420    6635.800
      52.890   3251.5600    602.3750    10.94530   11069.600    6629.750    8009.140    9554.630    6363.820
      52.910   3022.6400    597.3750    10.91410   10670.800    6672.940    8214.360    8939.960    6530.960
      52.930   3266.0800    585.7500    10.94140   10163.200    6769.930    8417.870    8391.010    6930.720
      52.950   3115.9900    582.6250    10.93550    9870.040    6808.310    8814.140    8186.260    6239.580
      52.970   2965.3200    598.8750    10.87700    9853.460    6813.240    8906.580    8033.160    5250.880
      52.990   2972.2900    609.7500    10.88870   10204.000    6994.540    8583.970    7591.300    5031.450
      53.010   2626.5900    609.2500    10.86910   10779.600    7241.050    8355.580    7021.520    5100.810
      53.030   3036.5900    607.6250    10.88280   11460.200    7521.280    8335.900    6786.230    5550.840
      53.050   3195.9700    603.8750    10.85550   11998.100    7861.370    8433.180    6677.400    6191.530
      53.070   3152.7900    600.7500    10.86720   12482.100    7970.890    8274.450    6582.680    6363.060
      53.090   2929.1000    598.0000    10.89450   13319.700    7901.170    7981.230    6507.890    5884.680
      53.110   3601.1300    597.7500    10.89650   14607.200    7970.610    7537.970    6463.930    5109.310
      53.130   3110.5700    602.1250    10.87890   16030.300    8096.070    7049.040    6663.880    4839.620
      53.150   3051.6900    602.7500    10.89060   17133.500    8182.520    6773.990    6875.770    5365.190
      53.170   3469.0500    593.5000    10.85550   17689.100    8048.420    6601.400    6621.340    6046.660
      53.190   3004.0500    589.0000    10.86330   17860.700    7855.950    6289.920    6265.340    6024.910
      53.210   3136.9100    593.5000    10.83980   18137.600    7524.220    5870.640    6125.470    5366.550
      53.230   3541.6700    595.0000    10.90230   18125.200    7054.180    5645.550    6053.320    4910.160
      53.250   3738.4400    590.5000    10.87700   17800.700    6719.440    5541.810    6279.000    5245.510
      53.270   3204.5000    586.8750    10.88280   16976.800    6517.610    5493.090    6524.400    5828.190
      53.290   2928.1300    587.0000    10.88480   15957.500    6256.260    5469.560    6354.950    6086.800
      53.310   2985.4600    580.7500    10.89260   14477.100    5888.450    5483.280    6125.940    6311.090
      53.330   2694.5700    559.7500    10.89650   12817.200    5609.540    5681.750    5888.520    6448.920
      53.350   2954.0800    544.6250    10.91410   11693.900    5440.440    5890.260    5669.120    6084.950
      53.370   2818.7100    541.3750    10.91410   11169.200    5337.670    5771.520    5699.600    5643.980
      53.390   3065.0500    543.5000    10.89260   11027.500    5250.050    5559.830    5814.240    5891.770
      53.410   3420.4400    557.3750    10.88870   10838.400    5192.660    5470.330    6034.000    6119.840
      53.430   2807.0900    570.3750    10.90430   10477.300    5263.040    5386.720    6776.780    6366.670
      53.450   2973.8400    582.5000    10.90230   10118.900    5334.830    5485.480    7865.710    7305.040
      53.470   3139.6200    586.8750    10.88280    9972.780    5231.130    5632.450    8241.780    7778.090
      53.490   2856.0900    576.5000    10.88670    9933.510    5145.920    5513.030    8251.010    7187.520
      53.510   3183.5800    564.5000    10.89260    9933.780    5147.640    5298.240    8716.710    6295.790
      53.530   2768.1600    547.5000    10.87300   10037.000    5097.530    5032.210    9329.420    6180.180
      53.550   3241.8700    538.5000    10.93550   10059.200    5128.230    4818.120    9411.160    7043.010
      53.570   3488.6100    546.8750    10.93550    9886.850    5136.930    4854.470    8788.030    7697.820
      53.590   3177.1900    559.0000    10.91410    9764.690    4952.020    5008.740    8387.860    7561.170
      53.610   2902.7600    579.3750    10.93550    9742.220    4690.970    5239.660    8905.620    6836.400
      53.630   2609.5500    594.3750    10.89650    9709.500    4396.860    5887.160    9372.950    6452.220
      53.650   3458.4000    599.5000    10.89650    9846.200    4147.830    6809.280    9059.620    6539.320
      53.670   2798.3700    601.6250    10.91990    9974.560    4097.390    7228.330    9121.070    6494.840
      53.690   2827.6200    598.3750    10.91410    9760.210    4209.930    7251.120   10362.600    5898.280
      53.710   2369.4900    595.0000    10.88670    9260.800    4437.750    7382.270   12157.000    5175.650
      53.730   2560.0600    589.8750    10.86330    8668.740    5020.570    7772.600   12980.700    5091.280
      53.750   2848.3400    579.2500    10.89650    8132.040    5879.890    7853.890   13124.000    5150.160
      53.770   2912.4400    554.0000    10.83200    7977.910    6456.020    7401.910   13911.800    5117.080
      53.790   3068.5400    537.7500    10.86130    8602.020    6798.960    7192.440   14414.100    5096.810
      53.810   3344.7100    538.7500    10.84380   10166.900    7128.810    7638.300   13487.800    5111.790
      53.830   3376.6700    540.1250    10.91410   13397.400    7717.790    7972.540   12858.900    5512.020
      53.850   3032.7100    544.5000    10.86330   17598.200    8195.290    7840.070   13924.500    5888.990
      53.870   3344.5200    548.1250    10.89260   20556.300    8197.200    8189.270   15723.500    5503.390
      53.890   2780.7500    552.2500    10.83590   22466.800    8552.450    9575.850   15682.200    4984.330
      53.910   2812.9000    555.8750    10.88670   23114.300    9902.970   11456.800   14222.800    4834.290
      53.930   3183.7700    559.7500    10.86910   24167.900   11554.100   12295.900   13565.200    4894.120
      53.950   3027.8700    560.0000    10.89450   24568.700   12741.900   12550.600   13203.000    5450.080
      53.970   3047.8200    554.5000    10.88280   23481.000   14444.800   13769.600   12122.500    5980.970
      53.990   2401.8400    547.6250    10.90430   22820.300   17506.300   15232.400   11640.000    5791.090
      54.010   3656.5200    537.2500    10.88280   23383.300   21377.800   15831.900   11901.200    5604.630
      54.030   3255.0400    532.7500    10.92580   24170.900   23768.300   16666.900   11747.600    5431.720
      54.050   3188.6200    541.2500    10.89060   24875.500   24941.300   18892.000   11007.800    5218.060
      54.070   3657.1000    548.7500    10.90230   27323.800   27779.500   21470.500   10243.900    5318.280
      54.090   2875.4500    556.0000    10.89650   32545.800   30926.500   21744.500   10070.500    5425.210
      54.110   3187.2600    564.6250    10.86520   39555.100   31280.500   20549.000   10120.500    5615.840
      54.130   2828.9700    579.2500    10.86910   43649.200   31107.200   20683.300   10067.300    6319.410
      54.150   3008.8900    590.0000    10.87890   45046.800   33234.100   21103.100   10631.800    7470.550
      54.170   2410.5500    594.7500    10.83790   49100.500   36097.000   19628.600   11125.600    7630.760
      54.190   2902.7600    592.7500    10.86910   53476.200   36174.500   18564.600   11223.300    7404.880
      54.210   3242.4600    574.6250    10.86330   52852.900   34521.000   18594.100   11527.500    8354.150
      54.230   4018.8700    562.3750    10.85550   50878.200   34885.100   18196.500   11611.000    9179.130
      54.250   3398.5500    560.7500    10.89650   51981.200   35228.000   17036.300   11828.400    9089.850
      54.270   3848.0600    564.8750    10.86130   53227.800   32038.200   16030.400   12027.000    8146.080
      54.290   3514.9500    584.2500    10.87300   50348.000   29306.100   16118.900   11655.200    7395.280
      54.310   2762.5400    594.1250    10.91410   46007.100   28303.700   16217.900   11915.200    8060.450
      54.330   3109.6000    586.7500    10.84180   45150.500   26748.900   15936.800   12572.400    8796.420
