~VERSION INFORMATION SECTION
VERS.           2.0  :CWLS Log ASCII Standard - 2.0
WRAP.           NO   :One line per depth
#               Created in SeisLab
~WELL INFORMATION SECTION
#MNEM.UNIT  VALUE/NAME               :DESCRIPTION    
STRT.m  11                           :Start Depth    
STOP.m  125                          :Stop Depth     
STEP.m  0.01                         :Step           
NULL.    -999.25                     :Null Value     
WELL.    GDP1                        :Well Name      
CTRY.    Switzerland                 :Country        
CNTY.                                :County         
STAT.                                :State          
API .                                :API number     
UWI .                                :Unique well ID 
LOC .    Grimsel pass, Switzerland   :Well Location  
FLD .    n/a                         :Field          
COMP.    n/a                         :Company        
SRVC.    University of Lausanne      :Service Company
DATE.    2016                        :Date           
~PARAMETER INFORMATION SECTION
#MNEM .UNITS  VALUE   :DESCRIPTION OF PARAMETER
Casing.n/a    0       :cased hole              
~CURVE INFORMATION SECTION
#MNEM     .UNITS  API CODES   :DESCRIPTION OF MNEMONIC      
depth     .m                  :measured depth (interpolated)
P_slowness.us/m               :FWS2016_25kHz_semblance      
S_slowness.us/m               :FWS2016_25kHz_semblance      
~A depth       P_slowness  S_slowness  
# ...
      95.630   249.98072   400.65749
      95.640   249.37761   400.34284
      95.650   248.80015   399.98615
      95.660   248.22269   399.68079
      95.670   247.65807   399.32287
      95.680   247.06777   398.97779
      95.690   246.52880   398.55915
      95.700   245.98984   398.20467
      95.710   245.45087   397.71359
      95.720   244.91190   397.27384
      95.730   244.41144   396.85510
      95.740   243.93666   396.47485
      95.750   243.51320   396.07359
      95.760   243.17956   395.69800
      95.770   242.87157   395.29089
      95.780   242.65341   394.90943
      95.790   242.47375   394.52797
      95.800   242.33261   394.15934
      95.810   242.24279   393.74870
      95.820   242.20430   393.36374
      95.830   242.25562   393.00444
      95.840   242.31979   392.64515
      95.850   242.35830   392.35000
      95.860   242.39680   392.05485
      95.870   242.51230   391.95220
      95.880   242.65344   391.82387
      95.890   242.87159   391.73403
      95.900   243.14107   391.60570
      95.910   243.48754   391.72120
      95.920   243.85969   391.83669
      95.930   244.25749   392.01634
      95.940   244.69379   392.15749
      95.950   245.20708   392.37564
      95.960   245.74605   392.54246
      95.970   246.33634   392.82477
      95.980   246.96513   393.08143
      95.990   247.59392   393.50490
      96.000   248.24838   393.88987
      96.010   248.90284   394.31333
      96.020   249.55730   394.71113
      96.030   250.18608   395.18593
      96.040   250.84052   395.66074
      96.050   251.52064   396.23820
      96.060   252.20075   396.80282
      96.070   252.88087   397.39311
      96.080   253.58666   397.95774
      96.090   254.21544   398.52236
      96.100   254.85707   399.08698
      96.110   255.49869   399.77993
      96.120   256.14031   400.49856
      96.130   256.75628   401.21718
      96.140   257.37225   401.99997
      96.150   257.98821   402.73141
      96.160   258.62984   403.47569
      96.170   259.22013   404.24564
      96.180   259.81043   405.04125
      96.190   260.37505   405.90102
      96.200   260.93967   406.84790
      96.210   261.45297   407.79479
      96.220   261.96626   408.81523
      96.230   262.45389   409.77151
      96.240   262.94151   410.72779
      96.250   263.40348   411.55574
      96.260   263.83979   412.42572
      96.270   264.25043   413.20589
      96.280   264.64823   414.03861
      96.290   264.99470   414.78149
      96.300   265.28985   415.59793
      96.310   265.55934   416.27323
      96.320   265.82884   417.08513
      96.330   266.07266   417.87136
      96.340   266.27797   418.63657
      96.350   266.44479   419.15797
      96.360   266.56028   419.70038
      96.370   266.65010   420.21713
      96.380   266.71426   420.76541
      96.390   266.75277   421.31185
      96.400   266.75277   421.85830
      96.410   266.75277   422.39423
      96.420   266.70144   422.97218
      96.430   266.65011   423.46080
      96.440   266.50897   423.92375
      96.450   266.36782   424.35274
      96.460   266.25233   424.71757
      96.470   266.13684   425.08241
      96.480   265.94436   425.25475
      96.490   265.76470   425.42710
      96.500   265.50805   425.56095
      96.510   265.25139   425.69480
      96.520   264.91774   425.58484
      96.530   264.58408   425.47487
      96.540   264.22477   425.30074
      96.550   263.86546   425.12661
      96.560   263.42915   424.87548
      96.570   262.99284   424.58133
      96.580   262.50520   424.17169
      96.590   261.99190   423.76205
      96.600   261.47861   423.18559
      96.610   260.95248   422.60913
      96.620   260.42634   421.99418
      96.630   259.90021   421.37923
      96.640   259.39975   420.68728
      96.650   258.89930   419.99533
      96.660   258.37316   419.20072
      96.670   257.78287   418.40611
      96.680   257.19257   417.58584
      96.690   256.60228   416.76556
      96.700   256.08898   415.94528
      96.710   255.51152   415.14434
      96.720   254.93407   414.21508
      96.730   254.27962   413.26466
      96.740   253.65084   412.31423
      96.750   252.99638   411.34279
      96.760   252.34192   410.42269
      96.770   251.66179   409.42902
      96.780   251.03298   408.40967
      96.790   250.39136   407.33779
      96.800   249.77541   406.20174
      96.810   249.13379   405.04467
      96.820   248.54349   403.88761
      96.830   247.94036   402.73054
      96.840   247.36290   401.63764
      96.850   246.78544   400.52372
      96.860   246.23364   399.53813
      96.870   245.68184   398.54203
      96.880   245.15570   397.63575
      96.890   244.62957   396.73998
      96.900   244.15477   395.93405
      96.910   243.67997   395.20167
      96.920   243.23082   394.61044
      96.930   242.78167   394.11380
      96.940   242.35820   393.64284
      96.950   241.97323   393.21390
      96.960   241.62675   393.02879
      96.970   241.31877   392.95926
      96.980   241.03646   392.91539
      96.990   240.80548   392.87152
      97.000   240.60015   392.82949
      97.010   240.42049   392.78746
      97.020   240.24084   392.75593
      97.030   240.07400   392.72441
      97.040   239.90716   392.78221
      97.050   239.74033   392.84002
      97.060   239.57349   392.93179
      97.070   239.39384   393.00254
      97.080   239.21418   393.07330
      97.090   238.99469   393.11252
      97.100   238.76238   393.15175
      97.110   238.48705   393.16997
      97.120   238.21172   393.18818
      97.130   237.93639   393.12233
      97.140   237.66107   393.05648
      97.150   237.36592   392.99062
      97.160   237.07077   392.92477
      97.170   236.80130   392.75382
      97.180   236.53182   392.62589
      97.190   236.26234   392.49795
      97.200   236.01852   392.37002
      97.210   235.77470   392.18954
      97.220   235.54372   392.00907
      97.230   235.33841   391.77605
      97.240   235.13310   391.54303
      97.250   234.92779   391.31002
      97.260   234.72248   391.07700
      97.270   234.54282   390.84398
      97.280   234.42733   390.61097
      97.290   234.32467   390.43049
      97.300   234.22202   390.25002
      97.310   234.13220   390.15361
      97.320   234.10654   390.03785
      97.330   234.08089   389.99567
      97.340   234.13221   389.97466
      97.350   234.18354   390.09025
      97.360   234.26054   390.22685
      97.370   234.33754   390.33193
      97.380   234.44021   390.51059
      97.390   234.55570   390.66823
      97.400   234.68402   390.87841
      97.410   234.81233   391.08859
      97.420   234.96631   391.31979
      97.430   235.12030   391.51946
      97.440   235.28711   391.71913
      97.450   235.45393   391.86626
      97.460   235.62075   392.03441
      97.470   235.78757   392.20256
      97.480   235.95439   392.38121
      97.490   236.09556   392.53885
      97.500   236.23672   392.68598
      97.510   236.31372   392.83311
      97.520   236.39072   392.90669
      97.530   236.45489   392.89618
      97.540   236.51905   392.79108
      97.550   236.58321   392.68598
      97.560   236.60887   392.53885
      97.570   236.55754   392.39172
      97.580   236.46772   392.12900
      97.590   236.37790   391.86628
      97.600   236.23675   391.60356
      97.610   236.05049   391.39339
      97.620   235.83856   391.18323
      97.630   235.62662   390.97307
      97.640   235.40187   390.76290
      97.650   235.13408   390.60528
      97.660   234.86630   390.44766
      97.670   234.59851   390.29003
      97.680   234.34354   390.15343
      97.690   234.08857   390.04834
      97.700   233.87344   389.97479
      97.710   233.65831   389.95377
      97.720   233.48620   389.95377
      97.730   233.31239   389.97479
      97.740   233.13859   390.07987
      97.750   232.99046   390.18495
      97.760   232.86215   390.29003
      97.770   232.78516   390.39511
      97.780   232.68251   390.60530
      97.790   232.59269   390.86802
