~VERSION INFORMATION SECTION
VERS.           2.0  :CWLS Log ASCII Standard - 2.0
WRAP.           NO   :One line per depth
#               Created in SeisLab
~WELL INFORMATION SECTION
#MNEM.UNIT  VALUE/NAME               :DESCRIPTION    
STRT.m  10                           :Start Depth    
STOP.m  124                          :Stop Depth     
STEP.m  0.01                         :Step           
NULL.    -999.25                     :Null Value     
WELL.    GDP1                        :Well Name      
CTRY.    Switzerland                 :Country        
CNTY.                                :County         
STAT.    Central Swiss Alps          :State          
API .                                :API number     
UWI .                                :Unique well ID 
LOC .    Grimsel pass, Switzerland   :Well Location  
FLD .    n/a                         :Field          
COMP.    n/a                         :Company        
SRVC.    University of Lausanne      :Service Company
DATE.    2015                        :Date           
~PARAMETER INFORMATION SECTION
#MNEM .UNITS    VALUE   :DESCRIPTION OF PARAMETER
Casing.n/a      0       :open hole               
Mud   .Polymer  1       :Mud type                
~CURVE INFORMATION SECTION
#MNEM.UNITS  API CODES   :DESCRIPTION OF MNEMONIC      
depth.m                  :measured depth (interpolated)
Cal  .mm                 :Caliper                      
NN   .cps                :Neutron-Neutron              
GG   .cps                :Gamma-Gamma                  
~A depth       Cal         NN          GG          
# ...
      55.920   102.48595    462.5158   1198.4125
      55.930   102.48620    466.0357   1209.2950
      55.940   102.49170    470.5301   1226.4025
      55.950   102.49720    475.0245   1243.5100
      55.960   102.50390    474.2211   1246.5910
      55.970   102.51060    473.4177   1249.6720
      55.980   102.51570    468.6978   1211.8550
      55.990   102.52080    463.9779   1174.0380
      56.000   102.55965    462.2212   1202.4250
      56.010   102.59850    460.4646   1230.8120
      56.020   102.75110    455.4863   1255.3170
      56.030   102.90370    450.5080   1279.8220
      56.040   102.72155    444.1803   1245.6455
      56.050   102.53940    437.8525   1211.4690
      56.060   102.52975    448.6034   1203.9230
      56.070   102.52010    459.3542   1196.3770
      56.080   102.52075    464.5247   1203.1145
      56.090   102.52140    469.6952   1209.8520
      56.100   102.52105    470.8372   1233.9645
      56.110   102.52070    471.9791   1258.0770
      56.120   102.52105    477.6703   1253.6295
      56.130   102.52140    483.3616   1249.1820
      56.140   102.52045    488.2874   1236.6165
      56.150   102.51950    493.2132   1224.0510
      56.160   102.51940    495.7737   1211.4840
      56.170   102.51930    498.3342   1198.9170
      56.180   102.52000    474.5433   1218.1750
      56.190   102.52070    450.7523   1237.4330
      56.200   102.51915    448.6264   1241.6000
      56.210   102.51760    446.5005   1245.7670
      56.220   102.51855    460.6302   1187.5240
      56.230   102.51950    474.7600   1129.2810
      56.240   102.51825    480.6051   1137.3860
      56.250   102.51700    486.4501   1145.4910
      56.260   102.51600    477.8850   1173.7475
      56.270   102.51500    469.3198   1202.0040
      56.280   102.51500    450.9796   1233.6705
      56.290   102.51500    432.6395   1265.3370
      56.300   102.51535    435.4084   1247.0465
      56.310   102.51570    438.1772   1228.7560
      56.320   102.51680    439.7464   1211.2365
      56.330   102.51790    441.3156   1193.7170
      56.340   102.51935    443.2317   1214.9815
      56.350   102.52080    445.1477   1236.2460
      56.360   102.52175    466.1005   1219.5965
      56.370   102.52270    487.0532   1202.9470
      56.380   102.52270    489.8576   1193.5710
      56.390   102.52270    492.6620   1184.1950
      56.400   102.52255    482.3910   1221.4850
      56.410   102.52240    472.1200   1258.7750
      56.420   102.52320    476.8245   1229.2055
      56.430   102.52400    481.5290   1199.6360
      56.440   102.52205    474.8451   1170.5790
      56.450   102.52010    468.1611   1141.5220
      56.460   102.51950    453.3052   1162.8275
      56.470   102.51890    438.4493   1184.1330
      56.480   102.51920    433.7298   1197.4960
      56.490   102.51950    429.0103   1210.8590
      56.500   102.52045    437.4737   1222.1380
      56.510   102.52140    445.9371   1233.4170
      56.520   102.52175    464.2731   1245.1370
      56.530   102.52210    482.6091   1256.8570
      56.540   102.52305    495.4916   1237.5400
      56.550   102.52400    508.3742   1218.2230
      56.560   102.52510    492.4960   1199.5165
      56.570   102.52620    476.6178   1180.8100
      56.580   102.52700    441.6797   1186.4855
      56.590   102.52780    406.7415   1192.1610
      56.600   102.53005    420.1934   1213.5515
      56.610   102.53230    433.6454   1234.9420
      56.620   102.53345    441.8866   1246.0465
      56.630   102.53460    450.1278   1257.1510
      56.640   102.53530    453.7254   1230.1380
      56.650   102.53600    457.3230   1203.1250
      56.660   102.53685    451.8957   1211.5755
      56.670   102.53770    446.4685   1220.0260
      56.680   102.53625    451.4629   1230.2840
      56.690   102.53480    456.4572   1240.5420
      56.700   102.53670    468.9222   1229.4250
      56.710   102.53860    481.3872   1218.3080
      56.720   102.54145    484.5654   1208.7425
      56.730   102.54430    487.7437   1199.1770
      56.740   102.54465    480.7784   1198.0025
      56.750   102.54500    473.8131   1196.8280
      56.760   102.54625    459.5578   1216.2130
      56.770   102.54750    445.3024   1235.5980
      56.780   102.54685    439.6871   1230.0725
      56.790   102.54620    434.0719   1224.5470
      56.800   102.54630    434.6270   1205.6955
      56.810   102.54640    435.1820   1186.8440
      56.820   102.55110    439.9537   1151.8210
      56.830   102.55580    444.7254   1116.7980
      56.840   102.55525    440.9421   1128.8235
      56.850   102.55470    437.1588   1140.8490
      56.860   102.55460    451.7892   1156.6385
      56.870   102.55450    466.4196   1172.4280
      56.880   102.55740    492.6131   1163.3970
      56.890   102.56030    518.8066   1154.3660
      56.900   102.58235    504.2291   1142.2500
      56.910   102.60440    489.6515   1130.1340
      56.920   102.82700    481.4731   1125.0660
      56.930   103.04960    473.2948   1119.9980
      56.940   103.10380    470.9754   1135.4225
      56.950   103.15800    468.6559   1150.8470
      56.960   102.86855    479.6140   1137.7100
      56.970   102.57910    490.5721   1124.5730
      56.980   102.58020    490.1987   1108.3800
      56.990   102.58130    489.8253   1092.1870
      57.000   102.58470    480.6723   1089.0795
      57.010   102.58810    471.5193   1085.9720
      57.020   102.59045    462.5836   1078.8925
      57.030   102.59280    453.6480   1071.8130
      57.040   102.59345    455.1459   1061.2775
      57.050   102.59410    456.6439   1050.7420
      57.060   102.59425    464.9702   1034.1795
      57.070   102.59440    473.2964   1017.6170
      57.080   102.59515    462.6359   1020.4245
      57.090   102.59590    451.9754   1023.2320
      57.100   102.60170    451.2529   1032.2735
      57.110   102.60750    450.5305   1041.3150
      57.120   102.61500    457.1926   1052.2545
      57.130   102.62250    463.8547   1063.1940
      57.140   102.62550    465.5953   1062.0815
      57.150   102.62850    467.3360   1060.9690
      57.160   102.63420    462.2992   1063.9795
      57.170   102.63990    457.2625   1066.9900
      57.180   102.63380    447.6639   1089.5180
      57.190   102.62770    438.0652   1112.0460
      57.200   102.60895    438.8922   1104.6550
      57.210   102.59020    439.7191   1097.2640
      57.220   102.59090    447.2964   1092.6160
      57.230   102.59160    454.8736   1087.9680
      57.240   102.59665    466.7048   1112.3470
      57.250   102.60170    478.5360   1136.7260
      57.260   102.59310    475.6445   1149.2310
      57.270   102.58450    472.7530   1161.7360
      57.280   102.58285    468.7833   1167.2460
      57.290   102.58120    464.8136   1172.7560
      57.300   102.58315    459.8884   1168.8950
      57.310   102.58510    454.9632   1165.0340
      57.320   102.58575    448.2936   1155.8570
      57.330   102.58640    441.6241   1146.6800
      57.340   102.58735    441.5038   1145.2480
      57.350   102.58830    441.3836   1143.8160
      57.360   102.58860    446.4164   1166.3210
      57.370   102.58890    451.4492   1188.8260
      57.380   102.59095    457.5236   1186.5035
      57.390   102.59300    463.5980   1184.1810
      57.400   102.59385    461.7170   1187.8090
      57.410   102.59470    459.8360   1191.4370
      57.420   102.59520    452.9334   1228.6435
      57.430   102.59570    446.0309   1265.8500
      57.440   102.59615    456.3563   1277.5640
      57.450   102.59660    466.6818   1289.2780
      57.460   102.59860    458.5224   1286.9225
      57.470   102.60060    450.3631   1284.5670
      57.480   102.60210    430.0158   1264.5370
      57.490   102.60360    409.6685   1244.5070
      57.500   102.60470    421.6356   1275.3075
      57.510   102.60580    433.6028   1306.1080
      57.520   102.60790    442.7973   1330.6130
      57.530   102.61000    451.9917   1355.1180
      57.540   102.61380    457.8002   1325.9945
      57.550   102.61760    463.6086   1296.8710
