~VERSION INFORMATION SECTION
VERS.           2.0  :CWLS Log ASCII Standard - 2.0
WRAP.           NO   :One line per depth
#               Created in SeisLab
~WELL INFORMATION SECTION
#MNEM.UNIT  VALUE/NAME               :DESCRIPTION    
STRT.m  11                           :Start Depth    
STOP.m  125                          :Stop Depth     
STEP.m  0.01                         :Step           
NULL.    -999.25                     :Null Value     
WELL.    GDP1                        :Well Name      
CTRY.    Switzerland                 :Country        
CNTY.                                :County         
STAT.                                :State          
API .                                :API number     
UWI .                                :Unique well ID 
LOC .    Grimsel pass, Switzerland   :Well Location  
FLD .    n/a                         :Field          
COMP.    n/a                         :Company        
SRVC.    University of Lausanne      :Service Company
DATE.    2016                        :Date           
~PARAMETER INFORMATION SECTION
#MNEM .UNITS  VALUE   :DESCRIPTION OF PARAMETER
Casing.n/a    0       :cased hole              
~CURVE INFORMATION SECTION
#MNEM     .UNITS  API CODES   :DESCRIPTION OF MNEMONIC      
depth     .m                  :measured depth (interpolated)
P_slowness.us/m               :FWS2016_25kHz_semblance      
S_slowness.us/m               :FWS2016_25kHz_semblance      
~A depth       P_slowness  S_slowness  
# ...
      91.290   283.94236   450.50049
      91.300   283.64925   449.89736
      91.310   283.39003   449.37123
      91.320   283.11798   448.67828
      91.330   282.88833   448.01098
      91.340   282.65867   447.34369
      91.350   282.42902   446.72772
      91.360   282.14172   446.11175
      91.370   281.90528   445.52146
      91.380   281.57249   444.96967
      91.390   281.23970   444.46921
      91.400   280.99674   443.99441
      91.410   280.77920   443.51961
      91.420   280.53600   443.08330
      91.430   280.34367   442.64698
      91.440   280.11285   442.23634
      91.450   279.89898   441.83854
      91.460   279.59528   441.50490
      91.470   279.20551   441.17126
      91.480   278.81574   440.86328
      91.490   278.42597   440.55530
      91.500   278.07469   440.28582
      91.510   277.72341   440.01634
      91.520   277.42348   439.79820
      91.530   277.12354   439.58005
      91.540   276.90059   439.42607
      91.550   276.64611   439.25925
      91.560   276.44297   439.09243
      91.570   276.23982   438.87428
      91.580   276.07518   438.65613
      91.590   275.83698   438.38666
      91.600   275.75070   438.13002
      91.610   275.66443   437.79638
      91.620   275.64285   437.48839
      91.630   275.58975   437.12908
      91.640   275.55823   436.83393
      91.650   275.47416   436.48746
      91.660   275.41167   436.23080
      91.670   275.32816   435.89715
      91.680   275.28779   435.69182
      91.690   275.19487   435.46084
      91.700   275.14510   435.28118
      91.710   275.06380   435.07585
      91.720   274.98293   434.94752
      91.730   274.84951   434.79354
      91.740   274.71608   434.69089
      91.750   274.58266   434.58823
      91.760   274.44923   434.53690
      91.770   274.31580   434.48557
      91.780   274.18238   434.45992
      91.790   274.04895   434.43426
      91.800   273.92125   434.38293
      91.810   273.82508   434.33161
      91.820   273.71197   434.28028
      91.830   273.59885   434.22895
      91.840   273.46879   434.15197
      91.850   273.39126   434.17764
      91.860   273.29679   434.15198
      91.870   273.25485   434.15198
      91.880   273.17902   434.12631
      91.890   273.15572   434.15198
      91.900   273.13243   434.12633
      91.910   273.18172   434.03651
      91.920   273.19711   433.86969
      91.930   273.23818   433.76703
      91.940   273.23685   433.63872
      91.950   273.23552   433.67723
      91.960   273.23420   433.66441
      91.970   273.23287   433.65159
      91.980   273.18069   433.61310
      91.990   273.12851   433.57461
      92.000   273.07633   433.48479
      92.010   273.02415   433.39497
      92.020   272.94654   433.30515
      92.030   272.83043   433.21533
      92.040   272.66344   433.12551
      92.050   272.44513   433.04256
      92.060   272.20987   432.94677
      92.070   271.88479   432.86977
      92.080   271.64577   432.79277
      92.090   271.40675   432.71577
      92.100   271.16774   432.63877
      92.110   270.82607   432.52328
      92.120   270.48439   432.40779
      92.130   270.11705   432.26662
      92.140   269.74970   432.12546
      92.150   269.27970   431.92013
      92.160   268.84123   431.72764
      92.170   268.36425   431.48382
      92.180   267.88726   431.29133
      92.190   267.34611   431.08602
      92.200   266.87852   430.93203
      92.210   266.38528   430.72670
      92.220   265.89203   430.59838
      92.230   265.37311   430.40590
      92.240   264.88572   430.26475
      92.250   264.39833   430.08510
      92.260   263.96348   429.95677
      92.270   263.52862   429.80279
      92.280   263.11479   429.72580
      92.290   262.72662   429.64882
      92.300   262.39100   429.59749
      92.310   262.09387   429.48967
      92.320   261.82826   429.40752
      92.330   261.56266   429.31770
      92.340   261.34961   429.25354
      92.350   261.25205   429.24070
      92.360   261.15449   429.22787
      92.370   261.05693   429.25352
      92.380   260.95938   429.27918
      92.390   260.86182   429.33051
      92.400   260.76426   429.38184
      92.410   260.74325   429.43316
      92.420   260.69069   429.48449
      92.430   260.68016   429.54866
      92.440   260.66964   429.61282
      92.450   260.66964   429.72831
      92.460   260.61710   429.74115
      92.470   260.63811   429.76680
      92.480   260.60659   429.76680
      92.490   260.59608   429.76680
      92.500   260.53303   429.71546
      92.510   260.51202   429.68948
      92.520   260.41841   429.72766
      92.530   260.32480   429.76584
      92.540   260.20552   429.73985
      92.550   260.08625   429.65082
      92.560   259.96697   429.39497
      92.570   259.84769   429.20216
      92.580   259.72841   429.00936
      92.590   259.60913   428.86910
      92.600   259.48985   428.72884
      92.610   259.37057   428.64111
      92.620   259.25130   428.55339
      92.630   259.13202   428.48669
      92.640   259.05125   428.41998
      92.650   259.04403   428.39533
      92.660   259.08815   428.36380
      92.670   259.15328   428.34279
      92.680   259.30823   428.30298
      92.690   259.47369   428.26318
      92.700   259.63915   428.22338
      92.710   259.80461   428.18357
      92.720   260.07272   428.18226
      92.730   260.28830   428.17044
      92.740   260.52954   428.18430
      92.750   260.73926   428.12457
      92.760   261.05164   428.12902
      92.770   261.27995   428.07041
      92.780   261.54677   428.06313
      92.790   261.78207   427.92975
      92.800   262.08152   427.80920
      92.810   262.33895   427.56254
      92.820   262.62203   427.36723
      92.830   262.85256   427.15090
      92.840   263.10875   426.99872
      92.850   263.25987   426.68890
      92.860   263.41098   426.41759
      92.870   263.56498   426.05170
      92.880   263.71898   425.71148
      92.890   263.79598   425.29769
      92.900   263.84731   424.88390
      92.910   263.80882   424.41757
      92.920   263.73184   424.00774
      92.930   263.65485   423.59790
      92.940   263.57787   423.19574
      92.950   263.50089   422.79357
      92.960   263.30841   422.34008
      92.970   263.07743   421.86557
      92.980   262.84644   421.35257
      92.990   262.61546   420.82907
      93.000   262.38448   420.27989
      93.010   262.15349   419.70967
      93.020   261.84597   419.13946
      93.030   261.53844   418.56200
      93.040   261.18889   417.97170
      93.050   260.81367   417.38141
      93.060   260.42793   416.73979
      93.070   260.04220   416.12382
      93.080   259.58290   415.49503
      93.090   259.12361   414.89192
      93.100   258.64330   414.28880
      93.110   258.16298   413.73702
      93.120   257.64064   413.15987
      93.130   257.16962   412.58272
      93.140   256.69861   412.00557
      93.150   256.24043   411.42843
      93.160   255.78225   410.91433
      93.170   255.37539   410.40023
      93.180   254.96854   409.82308
      93.190   254.56169   409.29726
      93.200   254.15484   408.71890
      93.210   253.77364   408.16621
      93.220   253.39244   407.56098
      93.230   253.01125   407.00708
      93.240   252.63005   406.43216
      93.250   252.33869   405.88290
      93.260   251.97377   405.29159
      93.270   251.67302   404.73879
      93.280   251.35125   404.17548
      93.290   251.08080   403.63782
      93.300   250.79985   403.10016
      93.310   250.50607   402.69084
      93.320   250.21228   402.28151
      93.330   249.91849   401.97484
      93.340   249.67725   401.67867
      93.350   249.43600   401.44667
      93.360   249.22628   401.28825
      93.370   249.01656   401.16831
      93.380   248.89090   401.11143
      93.390   248.76525   401.05454
      93.400   248.67111   401.12375
      93.410   248.56415   401.19297
      93.420   248.49921   401.38828
      93.430   248.44711   401.58359
      93.440   248.44757   401.79992
      93.450   248.48652   402.08041
