~VERSION INFORMATION SECTION
VERS.           2.0  :CWLS Log ASCII Standard - 2.0
WRAP.           NO   :One line per depth
#               Created in SeisLab
~WELL INFORMATION SECTION
#MNEM.UNIT  VALUE/NAME               :DESCRIPTION    
STRT.m  10                           :Start Depth    
STOP.m  124                          :Stop Depth     
STEP.m  0.01                         :Step           
NULL.    -999.25                     :Null Value     
WELL.    GDP1                        :Well Name      
CTRY.    Switzerland                 :Country        
CNTY.                                :County         
STAT.    Central Swiss Alps          :State          
API .                                :API number     
UWI .                                :Unique well ID 
LOC .    Grimsel pass, Switzerland   :Well Location  
FLD .    n/a                         :Field          
COMP.    n/a                         :Company        
SRVC.    University of Lausanne      :Service Company
DATE.    2015                        :Date           
~PARAMETER INFORMATION SECTION
#MNEM .UNITS    VALUE   :DESCRIPTION OF PARAMETER
Casing.n/a      0       :open hole               
Mud   .Polymer  1       :Mud type                
~CURVE INFORMATION SECTION
#MNEM.UNITS  API CODES   :DESCRIPTION OF MNEMONIC      
depth.m                  :measured depth (interpolated)
Cal  .mm                 :Caliper                      
NN   .cps                :Neutron-Neutron              
GG   .cps                :Gamma-Gamma                  
~A depth       Cal         NN          GG          
# ...
      85.440   136.21850    664.9344    509.8914
      85.450   135.86340    658.5889    512.3919
      85.460   128.55305    654.9693    505.0224
      85.470   121.24270    651.3498    497.6529
      85.480   117.55990    653.0631    488.5431
      85.490   113.87710    654.7765    479.4333
      85.500   112.22292    659.4564    473.0597
      85.510   110.57186    664.1187    466.7034
      85.520   112.03493    651.1482    477.6216
      85.530   113.49800    638.1776    488.5397
      85.540   114.66185    629.0314    501.7691
      85.550   115.82570    619.8851    514.9985
      85.560   118.27130    614.4462    521.5058
      85.570  -999.25000    609.0073    528.0131
      85.580  -999.25000    614.5437    521.6738
      85.590  -999.25000    620.0801    515.3345
      85.600  -999.25000    623.1092    510.3862
      85.610   119.70390    626.1384    505.4379
      85.620   119.66815    627.1321    513.5160
      85.630   119.63240    628.1258    521.5941
      85.640   119.37250    627.8286    532.8824
      85.650   119.11260    627.5314    544.1707
      85.660   119.41600    632.8276    551.6177
      85.670   119.71940    638.1239    559.0648
      85.680   119.12410    646.8357    554.2347
      85.690   118.53087    655.5337    549.4136
      85.700   119.99748    650.4326    553.5792
      85.710   121.46410    645.3315    557.7449
      85.720   122.22890    640.9976    561.4159
      85.730   122.99370    636.6636    565.0869
      85.740   120.98395    632.5311    560.8560
      85.750   118.97420    628.3986    556.6251
      85.760   116.68785    618.4229    556.7571
      85.770   114.40150    608.4471    556.8892
      85.780   113.05030    599.4941    560.9008
      85.790   111.69910    590.5410    564.9125
      85.800   111.42910    583.8207    575.7487
      85.810   111.15910    577.1003    586.5850
      85.820   109.60565    591.7114    599.1037
      85.830   108.05220    606.3225    611.6224
      85.840   107.53200    604.7365    623.2709
      85.850   107.01180    603.1506    634.9193
      85.860   106.79285    589.1041    643.0982
      85.870   106.57390    575.0576    651.2771
      85.880   106.76680    562.5039    660.5428
      85.890   106.95970    549.9501    669.8085
      85.900   106.86970    547.3221    675.2014
      85.910   106.77970    544.6941    680.5942
      85.920   105.79490    548.2486    675.1855
      85.930   104.81010    551.8030    669.7768
      85.940   103.55775    532.6182    682.0028
      85.950   102.30540    513.4333    694.2288
      85.960   102.45770    504.9496    702.9088
      85.970   102.61000    496.4659    711.5888
      85.980   102.67975    496.8366    698.1923
      85.990   102.74950    497.2073    684.7958
      86.000   102.59782    505.6197    690.4589
      86.010   102.44637    514.0205    696.1282
      86.020   102.51413    510.8806    707.9834
      86.030   102.58190    507.7408    719.8387
      86.040   103.55965    496.2714    733.7157
      86.050   104.53740    484.8019    747.5928
      86.060   104.80600    482.8166    751.6944
      86.070   105.07460    480.8313    755.7960
      86.080   103.88085    476.9400    754.6711
      86.090   102.68710    473.0487    753.5462
      86.100   102.84765    468.7486    746.0772
      86.110   103.00820    464.4485    738.6082
      86.120   102.93490    476.0097    751.1570
      86.130   102.86160    487.5709    763.7057
      86.140   102.88900    488.2679    778.5430
      86.150   102.91640    488.9648    793.3802
      86.160   102.86420    481.8119    799.4039
      86.170   102.81200    474.6589    805.4277
      86.180   102.79924    476.2258    800.0920
      86.190   102.78645    477.7945    794.7535
      86.200   102.73803    481.2261    786.5927
      86.210   102.68960    484.6576    778.4319
      86.220   102.68230    489.2792    771.3010
      86.230   102.67500    493.9009    764.1700
      86.240   102.66895    494.6428    766.4389
      86.250   102.66290    495.3846    768.7077
      86.260   102.66190    498.9769    778.3223
      86.270   102.66090    502.5693    787.9370
      86.280   102.65900    509.4104    809.6524
      86.290   102.65710    516.2515    831.3677
      86.300   102.69060    538.4477    837.9536
      86.310   102.72410    560.6439    844.5395
      86.320   102.77665    556.3410    842.5645
      86.330   102.82920    552.0381    840.5894
      86.340   102.87220    529.2526    827.5832
      86.350   102.91520    506.4672    814.5770
      86.360   102.96745    514.7772    825.1290
      86.370   103.01970    523.0872    835.6810
      86.380   103.01650    530.5280    848.1743
      86.390   103.01330    537.9688    860.6676
      86.400   102.84575    543.0371    860.8859
      86.410   102.67820    548.1054    861.1042
      86.420   102.66865    527.9728    852.1504
      86.430   102.65910    507.8401    843.1967
      86.440   102.64790    504.3010    838.0025
      86.450   102.63670    500.7618    832.8083
      86.460   102.63865    509.0492    844.0630
      86.470   102.64060    517.3365    855.3177
      86.480   102.65525    510.1883    842.1878
      86.490   102.66990    503.0401    829.0578
      86.500   102.71972    498.8565    822.4062
      86.510   102.76948    494.6760    815.7894
      86.520   102.74484    493.7236    843.8750
      86.530   102.72020    492.7711    871.9606
      86.540   102.77085    505.5784    853.8726
      86.550   102.82150    518.3857    835.7845
      86.560   102.89925    518.2564    819.7949
      86.570   102.97700    518.1271    803.8054
      86.580   103.04580    508.6182    827.2118
      86.590   103.11460    499.1092    850.6183
      86.600   103.38795    499.4927    845.7108
      86.610   103.66130    499.8763    840.8033
      86.620   103.64350    501.2095    829.6242
      86.630   103.62570    502.5426    818.4452
      86.640   103.89035    505.0337    811.8352
      86.650   104.15500    507.5249    805.2253
      86.660   104.45475    516.2566    810.1943
      86.670   104.75450    524.9883    815.1633
      86.680   103.99727    519.3517    817.3212
      86.690   103.24077    513.7060    819.4634
      86.700   103.20828    498.9433    805.8644
      86.710   103.17580    484.1805    792.2653
      86.720   103.18155    499.6523    807.1869
      86.730   103.18730    515.1241    822.1084
      86.740   103.08980    525.2667    833.7457
      86.750   102.99230    535.4093    845.3830
      86.760   102.85050    540.7501    827.5876
      86.770   102.70870    546.0910    809.7922
      86.780   102.79155    541.6479    807.4022
      86.790   102.87440    537.2047    805.0121
      86.800   103.16655    530.7671    802.0097
      86.810   103.45870    524.3294    799.0073
      86.820   103.60655    517.7596    783.0994
      86.830   103.75440    511.1898    767.1915
      86.840   103.11495    525.6157    774.5799
      86.850   102.47550    540.0416    781.9683
      86.860   102.36370    543.4604    793.4873
      86.870   102.25190    546.8791    805.0062
      86.880   102.41595    541.9645    810.0823
      86.890   102.58000    537.0499    815.1584
      86.900   103.02030    535.2219    812.9565
      86.910   103.46060    533.3940    810.7547
      86.920   103.81870    528.3329    809.8171
      86.930   104.17680    523.2719    808.8796
      86.940   104.07805    515.5256    816.5628
      86.950   103.97930    507.7793    824.2461
      86.960   104.02550    497.3741    817.5571
      86.970   104.07170    486.9689    810.8682
      86.980   104.27750    491.5152    808.8459
      86.990   104.48330    496.0615    806.8235
      87.000   104.47405    510.8197    827.4231
      87.010   104.46487    525.5567    847.9985
      87.020   104.53504    519.1997    844.3400
      87.030   104.60520    512.8427    840.6815
      87.040   104.62745    495.4808    830.3283
      87.050   104.64970    478.1188    819.9751
      87.060   104.90450    455.9222    810.1176
      87.070   105.15930    433.7257    800.2601
