~VERSION INFORMATION SECTION
VERS.           2.0  :CWLS Log ASCII Standard - 2.0
WRAP.           NO   :One line per depth
#               Created in SeisLab
~WELL INFORMATION SECTION
#MNEM.UNIT  VALUE/NAME               :DESCRIPTION    
STRT.m  33.03                        :Start Depth    
STOP.m  122.23                       :Stop Depth     
STEP.m  0.03                         :Step           
NULL.    -999.25                     :Null Value     
WELL.    GDP1                        :Well Name      
CTRY.    Switzerland                 :Country        
CNTY.                                :County         
STAT.    Central Swiss Alps          :State          
API .                                :API number     
UWI .                                :Unique well ID 
LOC .    Grimsel Pass, Switzerland   :Well Location  
FLD .    n/a                         :Field          
COMP.    n/a                         :Company        
SRVC.    University of Lausanne      :Service Company
DATE.    2016                        :Date           
~PARAMETER INFORMATION SECTION
#MNEM .UNITS  VALUE   :DESCRIPTION OF PARAMETER
Casing.n/a    1       :slotted PVC casing      
~CURVE INFORMATION SECTION
#MNEM.UNITS  API CODES   :DESCRIPTION OF MNEMONIC
depth.m                  :measured depth         
NG   .cps                :Natural gamma          
Sp   .mV                 :Self potential         
Temp .DegC               :Temperature            
SPR  .Ohm                :Single point resistance
R8   .Ohm.m              :Normal resistivity     
R16  .Ohm.m              :Single point resistance
R32  .Ohm.m              :Normal resistivity     
R64  .Ohm.m              :Normal resistivity     
~A depth       NG          Sp          Temp        SPR         R8          R16         R32         R64         
# ...
     112.960   300.43800    975.2500     8.08984        5755      2712.5      3625.8      3914.2      9784.8
     112.990   311.04700    970.2500     8.08594        5723      2717.2      3598.1      3717.0     27450.4
     113.010   302.93800    968.0000     8.11816        5744      2653.3      3630.5      3719.2    -88670.1
     113.040   317.37500    966.3750     8.10352        5789      2700.2      3524.6      3646.3     52108.0
     113.070   302.34400    951.5000     8.09277        5942      2705.9      3404.1      3671.5     11787.7
     113.100   307.82800    934.1250     8.10645        6047      2733.3      3410.1      3625.7      8221.6
     113.130   291.98400    924.7500     8.13379        5991      2666.9      3333.7      3712.8      5300.7
     113.160   332.60900    916.8750     8.08496        6009      2605.6      3244.9      3850.2      4230.3
     113.190   266.14100    945.1250     8.07227        5932      2615.4      3152.1      3887.5      3913.3
     113.230   285.50000    981.2500     8.12695        5803      2570.7      3164.4      3787.2      3588.9
     113.260   288.35900    972.0000     8.12500        5552      2526.7      3100.2      3579.7      3400.6
     113.290   316.79700    952.3750     8.09473        5360      2485.8      3091.4      3699.5      3215.3
     113.320   315.23400    970.2500     8.12207        5319      2512.0      3066.0      3749.2      3200.1
     113.350   286.31300    996.6250     8.11328        5261      2479.1      3123.3      3679.0      3130.7
     113.380   302.93800   1040.5000     8.12012        5245      2473.6      3132.1      3591.7      3306.6
     113.400   296.85900   1088.8800     8.12012        5306      2472.8      3087.1      3626.6      3535.7
     113.430   266.37500   1090.8800     8.15234        5616      2531.1      2999.7      3625.9      3556.8
     113.460   316.76600   1082.6300     8.13184        5895      2564.7      2862.2      3498.9      3776.3
     113.490   285.60900   1102.3800     8.13574        6037      2563.4      2929.1      3530.4      4002.4
     113.520   295.90600   1127.6300     8.12891        6154      2552.0      2935.4      3882.7      4401.3
     113.550   278.75000   1135.6300     8.12891        6143      2505.0      2921.3      4042.9      4385.0
     113.590   290.68800   1140.1300     8.13086        5982      2551.8      2912.8      3968.9      4105.7
     113.620   337.20300   1137.1300     8.12500        5612      2526.9      2945.7      3967.6      4051.8
     113.650   302.75000   1133.7500     8.13086        5277      2492.8      2997.1      3916.4      4009.4
     113.680   264.59400   1095.5000     8.11816        5141      2468.3      2996.9      3673.6      3763.9
     113.710   280.00000   1049.3800     8.16504        5121      2461.2      3063.3      3494.1      3437.7
     113.740   310.98400   1009.0000     8.13867        5069      2489.0      3306.8      3993.0      3440.7
     113.760   340.64100    970.1250     8.11328        5039      2519.3      3460.6      4079.3      3373.1
     113.790   320.48400    935.2500     8.13379        5030      2641.7      3504.6      4468.6      3496.5
     113.820   317.56300    901.3750     8.15137        5050      2880.6      3565.4      4494.6      3428.8
     113.850   305.00000    886.0000     8.12402        5182      3074.1      3590.6      4211.0      3616.7
     113.880   313.45300    873.8750     8.11523        5385      3260.3      3506.6      4518.0      4024.5
     113.910   300.96900    892.1250     8.12402        5761      3525.5      3479.8      4137.3      4274.3
     113.940   314.04700    917.1250     8.15820        6238      3797.9      3923.0      4217.9      4178.0
     113.980   259.06300    912.3750     8.16602        6724      3996.2      4023.9      3951.8      3854.1
     114.010   299.59400    901.2500     8.12500        7280      4263.7      4382.4      3982.3      4095.3
     114.040   267.42200    910.6250     8.15820        7837      4906.7      4538.0      3970.3      4284.3
     114.070   279.51600    925.2500     8.14746        8237      5256.1      4509.4      3785.3      4167.9
     114.100   299.20300    921.1250     8.13574        8337      5762.9      4947.5      3880.7      4008.8
     114.130   254.92200    912.7500     8.13867        8443      6039.2      4889.2      3963.8      4126.8
     114.150   296.68800    918.0000     8.14063        8744      6057.1      5175.6      5000.7      4141.5
     114.180   272.93800    926.2500     8.12891        8708      6327.3      5158.7      7458.9      3876.5
     114.210   279.54700    937.6250     8.13086        8897      6042.2      5382.8     13683.9      3945.1
     114.240   275.29700    949.7500     8.12500        8997      6044.6      5445.2     30873.9      4614.8
     114.270   288.25000    931.7500     8.15234        8917      5796.3      5375.6     31681.5      4901.8
     114.300   312.09400    907.1250     8.14941        8959      5743.4      5584.0   -766537.0      4699.4
     114.340   309.42200    920.2500     8.14453        8516      5599.5      5680.6     68908.7      4667.1
     114.370   320.95300    942.7500     8.11816        8354      5425.8      6870.9      9026.3      4598.0
     114.400   294.28100    952.3750     8.14453        8036      5563.8     10335.2      4935.0      4182.9
     114.430   315.43800    960.1250     8.16797        7868      5593.5     20596.6      4611.4      3959.9
     114.460   321.20300    967.5000     8.13574        7670      6628.0     48348.6      5113.5      4797.9
     114.490   326.76600    974.6250     8.12402        7575      9894.0     47585.5      5192.9      4969.2
     114.510   281.17200    931.5000     8.13086        8080     20146.7  -1202270.0      4904.0      5521.4
     114.540   264.20300    878.2500     8.16113        8971     49990.6    126903.0      4821.9      5494.9
     114.570   273.70300    815.8750     8.14453       13761     53228.3     16164.6      4784.7      4995.9
     114.600   297.17200    751.3750     8.15625       28964  -1529170.0      7941.4      4888.7      5332.0
     114.630   319.28100    721.0000     8.15234       76108    229025.0      6813.4      5077.4      4705.9
     114.660   320.48400    696.8750     8.15234      227476     36379.4      6939.1      4899.3      4844.4
     114.690   312.59400    714.3750     8.14551      237237     16999.7      6788.9      4704.2      4500.4
     114.730   336.03100    740.6250     8.15918    -6153520     13200.4      6668.5      4831.4      4556.0
     114.760   308.03100    797.1250     8.17871      618244     11668.4      7024.8      5045.3      4593.3
     114.790   328.15600    859.3750     8.14258       65137     10048.1      7884.8      4979.4      4340.1
     114.820   284.75000    915.5000     8.14551       21935      9184.8      8601.9      4853.4      4468.1
     114.850   303.48400    969.5000     8.14746       13610      8819.3      8993.8      4632.4      4662.8
     114.880   340.37500    977.6250     8.16797       11741      8776.8      9181.9      5044.6      6143.4
     114.900   265.45300    976.1250     8.15918       10466      8516.8      9172.0      4955.7      9092.7
     114.930   308.60900    970.7500     8.14258       10079      8423.0      9015.7      4764.0     15303.1
     114.960   314.84400    963.8750     8.15137       10179      8526.2      8683.5      4842.1     32875.0
     114.990   310.53100    982.2500     8.16504       10582      8732.4      8409.5      4982.0     35471.5
     115.020   289.90600   1007.1300     8.16992       10674      8764.9      8129.1      5160.0   -762246.0
     115.050   284.42200    997.6250     8.13574       10793      8631.7      7557.1      4910.8     45368.4
     115.090   354.46900    980.5000     8.17480       11121      8630.1      7420.0      4660.0      5282.9
     115.120   294.40600    993.0000     8.13770       11346      8604.2      7142.1      4220.1      3214.4
     115.150   328.87500   1011.8800     8.17969       11165      8143.5      6857.1      4074.8      3445.4
