~VERSION INFORMATION SECTION
VERS.           2.0  :CWLS Log ASCII Standard - 2.0
WRAP.           NO   :One line per depth
#               Created in SeisLab
~WELL INFORMATION SECTION
#MNEM.UNIT  VALUE/NAME               :DESCRIPTION    
STRT.m  24.75                        :Start Depth    
STOP.m  125.11                       :Stop Depth     
STEP.m  0.02                         :Step           
NULL.    -999.25                     :Null Value     
WELL.    GDP1                        :Well Name      
CTRY.    Switzerland                 :Country        
CNTY.                                :County         
STAT.    Central Swiss Alps          :State          
API .                                :API number     
UWI .                                :Unique well ID 
LOC .    Grimsel Pass, Switzerland   :Well Location  
FLD .    n/a                         :Field          
COMP.    n/a                         :Company        
SRVC.    University of Lausanne      :Service Company
DATE.    2015                        :Date           
~PARAMETER INFORMATION SECTION
#MNEM .UNITS    VALUE   :DESCRIPTION OF PARAMETER
Casing.n/a      0       :open hole               
Mud   .Polymer  1       :Mud type                
~CURVE INFORMATION SECTION
#MNEM.UNITS  API CODES   :DESCRIPTION OF MNEMONIC
depth.m                  :measured depth         
NG   .cps                :Natural gamma          
Sp   .mV                 :Self potential         
Temp .DegC               :Temperature            
SPR  .Ohm                :Single point resistance
R8   .Ohm.m              :Normal resistivity     
R16  .Ohm.m              :Single point resistance
R32  .Ohm.m              :Normal resistivity     
R64  .Ohm.m              :Normal resistivity     
~A depth       NG          Sp          Temp        SPR         R8          R16         R32         R64         
# ...
      33.630   2848.7300    534.6250    11.23240    4127.510    1700.220    2472.870    3636.650    4558.650
      33.650   3132.4500    524.6250    11.20120    4049.120    1714.310    2410.670    3633.640    4702.650
      33.670   3568.5900    525.0000    11.21680    4070.670    1728.700    2318.230    3615.480    4637.710
      33.690   2735.4300    544.6250    11.21290    4138.670    1692.280    2279.510    3539.840    4651.120
      33.710   3032.7100    550.2500    11.25000    4271.620    1673.640    2306.290    3379.820    4733.070
      33.730   2768.5500    528.2500    11.20510    4457.470    1704.940    2354.550    3399.520    4753.940
      33.750   2317.6900    523.7500    11.18160    4668.050    1664.300    2314.090    3510.890    4766.010
      33.770   2600.0600    552.3750    11.21680    4883.550    1606.120    2336.020    3419.270    4618.340
      33.790   3347.0400    566.2500    11.19140    5067.220    1583.140    2409.100    3324.150    4684.570
      33.810   3109.7900    552.6250    11.14060    5280.200    1589.530    2428.590    3379.950    4789.800
      33.830   2531.4000    536.3750    11.16410    5490.980    1609.750    2467.950    3464.890    4683.540
      33.850   3050.1400    513.2500    11.15820    5552.970    1591.450    2447.910    3628.660    4508.290
      33.870   2896.5600    498.8750    11.18550    5460.090    1604.530    2408.050    3748.190    4585.280
      33.890   3099.5300    499.6250    11.13870    5351.920    1644.850    2362.310    3890.150    4709.950
      33.910   3175.8300    501.2500    11.16990    5233.250    1665.780    2278.990    4130.450    4524.630
      33.930   3130.1300    503.8750    11.18550    5095.090    1699.020    2290.810    4280.800    4267.900
      33.950   3336.7700    509.0000    11.19140    4955.650    1698.430    2328.840    4619.510    4165.660
      33.970   2343.5400    518.3750    11.21880    4900.790    1691.960    2267.490    4854.270    4259.180
      33.990   2990.3000    522.1250    11.19140    4933.580    1688.460    2230.710    4984.830    4241.820
      34.010   2790.2400    515.3750    11.18550    4950.690    1667.620    2281.460    5273.580    4329.730
      34.030   2874.2900    514.2500    11.26760    4886.360    1684.700    2356.900    5042.350    4640.160
      34.050   2590.0800    523.0000    11.25590    4746.660    1713.590    2478.080    4554.670    4801.430
      34.070   2982.7500    528.3750    11.26170    4631.380    1702.060    2581.660    4699.640    4809.450
      34.090   2840.9800    529.8750    11.23440    4587.400    1713.440    2713.050    5140.720    4584.360
      34.110   3039.6800    534.7500    11.25390    4579.820    1775.420    2920.660    5162.630    4595.570
      34.130   2966.6700    546.7500    11.22850    4570.560    1876.090    3047.850    5002.730    4869.460
      34.150   3236.0600    553.2500    11.29490    4513.010    2032.440    3298.160    5228.070    4654.240
      34.170   2683.5300    549.3750    11.24800    4489.170    2220.060    3499.020    5317.930    4264.330
      34.190   3798.0900    548.8750    11.20900    4613.730    2449.770    3574.400    5282.390    4178.770
      34.210   3144.2700    555.0000    11.23830    4891.430    2725.680    3822.420    5619.140    4279.630
      34.230   3437.2900    560.6250    11.29300    5528.900    2991.680    3838.760    5647.700    4348.960
      34.250   3438.8400    567.3750    11.21680    6782.490    3311.660    3567.240    5930.550    4233.100
      34.270   2832.8500    568.1250    11.28320    8815.150    3596.470    3578.670    6632.380    4438.540
      34.290   2618.6500    554.8750    11.23440   11046.300    3876.080    3872.470    6347.790    4817.250
      34.310   3814.3600    551.7500    11.28320   12804.400    4301.590    4060.750    5838.290    4880.690
      34.330   3305.4000    566.5000    11.25980   14389.700    4726.810    4093.080    6107.500    4907.200
      34.350   3465.7600    575.2500    11.25980   15741.800    5234.740    4285.180    6091.380    4938.690
      34.370   3361.7600    574.2500    11.27150   16706.100    5990.240    4499.340    5612.100    5007.170
      34.390   3502.3600    571.3750    11.21680   17326.400    6871.800    4740.490    5847.870    4881.870
      34.410   3216.8900    566.3750    11.25000   18056.000    7677.310    5146.880    5940.870    4534.330
      34.430   3372.4100    563.1250    11.25780   18479.200    8341.050    5367.960    5069.210    4584.330
      34.450   3170.4100    561.7500    11.23830   18353.300    9090.000    6041.750    4630.820    4875.550
      34.470   3146.0100    555.7500    11.28130   18140.600   10007.100    7097.140    4807.060    4716.760
      34.490   3092.5600    541.5000    11.20510   18333.600   11037.000    7312.190    4769.860    4492.010
      34.510   3411.3300    541.0000    11.22660   18808.400   11977.400    7261.870    4537.110    4581.910
      34.530   3001.3400    566.1250    11.23050   19410.600   12518.100    7725.620    4236.030    4714.580
      34.550   3317.7900    581.3750    11.18550   20401.400   13336.700    8052.490    4375.620    4928.190
      34.570   3152.0100    579.3750    11.20700   22068.600   14133.000    7829.630    4655.690    5005.120
      34.590   3486.0900    570.3750    11.25000   24395.800   13894.000    7881.300    4687.160    5159.220
      34.610   2889.0100    546.3750    11.20510   26308.400   13636.000    7986.090    4884.650    5506.930
      34.630   2906.8300    534.7500    11.16410   27331.200   14076.500    7419.640    4952.310    5681.150
      34.650   3836.4400    544.2500    11.18360   28867.400   14403.900    6996.620    4655.340    6248.330
      34.670   2718.0000    550.5000    11.20700   29980.800   14097.500    6987.110    4460.380    6603.140
      34.690   3820.5600    551.7500    11.20700   29082.500   13921.100    7005.660    4928.390    6860.190
      34.710   2980.6200    551.8750    11.21090   28123.000   13921.700    6982.010    5408.940    7392.290
      34.730   3989.2400    551.1250    11.19530   28162.600   13119.800    6802.750    5493.720    6872.080
      34.750   3057.8900    556.8750    11.20700   27784.800   12170.400    6900.450    5598.290    6045.540
      34.770   3281.5800    575.6250    11.17770   26175.900   11629.300    7157.700    5665.850    6469.980
      34.790   3479.5100    586.1250    11.23050   24637.100   11304.300    7229.780    5854.480    7362.250
      34.810   3395.2600    582.8750    11.17580   23738.400   11032.700    7308.090    5857.190    7345.600
      34.830   4224.7400    579.7500    11.22460   22017.100   10538.700    7197.530    5653.890    6965.250
      34.850   3203.3300    576.0000    11.20510   20027.300   10166.000    6891.820    5818.430    7403.800
      34.870   3759.7400    565.3750    11.21680   18811.200    9974.780    6730.350    6216.940    7459.270
      34.890   3973.7500    542.2500    11.22660   18341.500    9618.280    6995.770    6274.930    7239.200
      34.910   3841.8600    537.7500    11.26760   18401.300    9185.900    7371.110    5966.760    7782.710
      34.930   3685.9600    567.6250    11.23830   18158.700    8685.570    7657.150    6061.660    7714.480
      34.950   4398.2700    583.6250    11.20120   17744.100    8245.950    7877.640    6358.780    8200.110
      34.970   3451.0400    575.2500    11.27150   17500.700    8075.550    7790.300    6275.000    9277.680
      34.990   3387.3200    568.1250    11.22460   16948.500    8278.220    7706.580    6249.490    8621.830
      35.010   3506.8100    562.1250    11.27150   15989.600    8750.280    7662.110    6666.910    7894.690
      35.030   3823.6600    561.2500    11.22660   14816.300    9319.790    7578.140    6742.130    8505.280
      35.050   3187.0700    570.1250    11.20510   13928.200    9697.110    7599.160    6319.160    8367.610
      35.070   3363.1100    568.0000    11.26560   13597.900    9641.150    7710.240    6145.480    7570.940
      35.090   3728.9500    542.5000    11.26760   13815.600    9587.840    7718.520    5996.260    8235.900
