~VERSION INFORMATION SECTION
VERS.           2.0  :CWLS Log ASCII Standard - 2.0
WRAP.           NO   :One line per depth
#               Created in SeisLab
~WELL INFORMATION SECTION
#MNEM.UNIT  VALUE/NAME               :DESCRIPTION    
STRT.m  33.03                        :Start Depth    
STOP.m  122.23                       :Stop Depth     
STEP.m  0.03                         :Step           
NULL.    -999.25                     :Null Value     
WELL.    GDP1                        :Well Name      
CTRY.    Switzerland                 :Country        
CNTY.                                :County         
STAT.    Central Swiss Alps          :State          
API .                                :API number     
UWI .                                :Unique well ID 
LOC .    Grimsel Pass, Switzerland   :Well Location  
FLD .    n/a                         :Field          
COMP.    n/a                         :Company        
SRVC.    University of Lausanne      :Service Company
DATE.    2016                        :Date           
~PARAMETER INFORMATION SECTION
#MNEM .UNITS  VALUE   :DESCRIPTION OF PARAMETER
Casing.n/a    1       :slotted PVC casing      
~CURVE INFORMATION SECTION
#MNEM.UNITS  API CODES   :DESCRIPTION OF MNEMONIC
depth.m                  :measured depth         
NG   .cps                :Natural gamma          
Sp   .mV                 :Self potential         
Temp .DegC               :Temperature            
SPR  .Ohm                :Single point resistance
R8   .Ohm.m              :Normal resistivity     
R16  .Ohm.m              :Single point resistance
R32  .Ohm.m              :Normal resistivity     
R64  .Ohm.m              :Normal resistivity     
~A depth       NG          Sp          Temp        SPR         R8          R16         R32         R64         
# ...
     101.850   312.85900   1064.0000     7.74512        8004      4767.1      4882.8      3803.9      2632.7
     101.880   314.43800   1086.5000     7.75195        8031      4827.9      4972.8      4139.7      2896.3
     101.910   320.14100   1080.8800     7.76074        8084      5114.9      5268.8      4101.1      2917.5
     101.940   298.06300   1068.5000     7.75195        7990      5394.3      5786.1      4247.1      2628.9
     101.980   284.32800   1090.2500     7.77246        7863      5632.7      5984.3      3931.5      2778.6
     102.010   299.79700   1119.5000     7.77051        7986      6080.9      6188.7      4141.8      2976.2
     102.040   313.60900   1133.2500     7.76270        8611      6775.4      6249.5      3697.3      2840.9
     102.070   282.90600   1143.5000     7.77637        9289      7199.5      6857.8      3558.8      2745.5
     102.100   346.46900   1145.2500     7.78613        9904      7729.0      7153.8      3608.9      2658.1
     102.130   301.20300   1145.1300     7.77441       10755      8360.8      7128.0      3581.7      2500.9
     102.150   300.57800   1153.3800     7.79102       11749      9619.3      7557.1      3716.9      2313.7
     102.180   296.34400   1163.0000     7.79297       12105     10241.1      7529.8      3537.2      2258.5
     102.210   294.45300   1178.0000     7.82031       12292     10291.6      7878.3      4189.9      2550.1
     102.240   282.76600   1194.3800     7.76953       12624     10851.6      7516.9      5957.9      2898.7
     102.270   305.01600   1186.2500     7.79004       13377     10711.3      7700.3      8456.1      2608.2
     102.300   267.96900   1173.1300     7.82227       13263     10568.4      7889.9     36211.4      2336.1
     102.340   295.76600   1156.2500     7.79688       12735      9539.5      7775.8    -31358.6      2535.6
     102.370   314.75000   1139.7500     7.78809       12881      9188.7      7963.1    -90312.3      2690.3
     102.400   276.42200   1129.0000     7.78613       12475      8858.1      8083.4     15093.3      2451.3
     102.430   285.10900   1119.8800     7.79297       11956      8277.5     10035.2      8375.0      2310.9
     102.460   301.79700   1085.8800     7.82520       10788      8159.5     14258.0      4871.4      2586.9
     102.490   311.20300   1046.6300     7.81738       10361      8102.5     19893.2      4002.0      2813.7
     102.510   307.84400   1016.5000     7.78613       10068      9930.3     81759.4      3837.0      2883.6
     102.540   325.51600    987.6250     7.79785        9607     13905.1    -63499.3      3644.3      2312.6
     102.570   300.73400    942.8750     7.82227        9895     19329.8   -180958.0      3509.1      2499.0
     102.600   310.87500    895.1250     7.81055       10768     80374.0     32822.1      3596.6      2991.2
     102.630   292.65600    817.6250     7.82520       17274    -66331.9     18185.7      3740.9      2926.8
     102.660   330.76600    735.2500     7.78809       35633   -219439.0      9092.5      3718.5      2898.7
     102.690   241.75800    710.7500     7.79785       63189     52123.7      6646.1      3724.0      2416.2
     102.730   303.65600    698.6250     7.80859      310846     35425.8      5908.6      3781.6      2833.1
     102.760   288.51600    701.6250     7.79102     -254150     17517.3      5468.1      3751.4      2483.3
     102.790   250.86700    707.3750     7.80469     -752329     11884.6      5248.9      3703.5      2348.8
     102.820   267.89100    742.0000     7.81348      131811      9252.7      5200.0      3735.6      2493.1
     102.850   300.73400    781.2500     7.80371       65258      7507.1      5364.0      3759.6      2583.8
     102.880   265.56300    831.0000     7.82715       22794      6542.0      5499.8      3449.4      2792.0
     102.900   287.35900    882.7500     7.81543       12085      5748.5      5530.9      3202.4      2333.3
     102.930   288.03100    895.5000     7.84277        9398      5281.1      5440.0      3209.6      2446.6
     102.960   301.26600    899.7500     7.82031        8142      4938.5      5190.9      3223.5      3575.0
     102.990   298.89100    902.0000     7.80859        7734      4768.7      5022.2      3247.1      5097.5
     103.020   301.92200    902.7500     7.85742        7429      4602.6      4878.2      3265.5     23220.7
     103.050   274.84400    879.7500     7.84961        7330      4455.6      4677.6      3322.4    -24581.2
     103.090   305.87500    851.6250     7.82910        7408      4414.0      4281.4      3356.2    -63442.7
     103.120   284.46900    840.2500     7.83008        7616      4426.6      4012.3      3277.3      6820.0
     103.150   325.04700    833.0000     7.83594        7694      4403.2      3976.6      3196.0      2525.3
     103.180   283.71900    832.5000     7.85254        7617      4249.7      3898.2      3096.9      1868.0
     103.210   307.01600    834.2500     7.82324        7628      4174.3      3849.7      3031.4      1884.5
     103.240   301.59400    854.7500     7.84375        7598      4205.8      3853.0      2965.4      1992.2
     103.260   311.07800    878.7500     7.84961        7470      4165.4      3904.4      2807.3      1866.4
     103.290   301.93800    898.3750     7.81543        7268      4114.9      3889.2      2687.7      1690.5
     103.320   347.32800    917.6250     7.83203        7183      4093.1      3810.4      2671.2      1971.8
     103.350   265.46900    920.5000     7.83691        7241      4119.1      3763.2      2654.6      2302.4
     103.380   281.54700    919.6250     7.85449        7206      4063.9      3669.7      2584.6      2296.6
     103.410   251.85900    911.3750     7.83887        7169      3945.4      3575.2      2564.7      2293.1
     103.440   288.09400    901.6250     7.81836        7199      3880.7      3473.8      2700.3      2450.6
     103.480   241.80500    888.0000     7.84961        7348      3778.1      3344.2      2752.3      2544.4
     103.510   307.95300    873.6250     7.81543        7370      3646.9      3228.6      2534.4      2514.6
     103.540   265.37500    854.0000     7.84082        7241      3509.4      3113.2      2511.0      2629.1
     103.570   302.98400    833.5000     7.81348        7202      3382.6      2983.7      2431.2      2766.4
     103.600   286.39100    823.2500     7.86133        7068      3243.7      2894.6      2359.6      2359.8
     103.630   287.84400    815.1250     7.82324        6831      3083.0      2838.3      2370.1      2020.5
     103.650   271.18800    829.6250     7.83887        6587      2904.2      2826.1      2535.4      2078.4
     103.680   290.64100    849.1250     7.84082        6410      2770.5      2783.1      2674.6      2210.0
     103.710   287.75000    843.6250     7.84277        6243      2667.7      2614.8      2685.5      2313.6
     103.740   294.00000    833.0000     7.85938        6023      2580.6      2566.7      2584.9      2420.0
     103.770   271.37500    841.5000     7.82031        5820      2485.8      2450.0      2585.0      2480.5
     103.800   278.68800    855.0000     7.83203        5709      2347.5      2371.3      2550.2      2551.3
     103.840   269.73400    858.5000     7.83398        5670      2279.3      2336.8      2767.2      2507.8
     103.870   260.90600    860.7500     7.83691        5611      2163.7      2397.3      2818.7      2374.1
     103.900   294.60900    876.8750     7.83594        5489      2086.3      2436.6      2849.5      2343.1
     103.930   262.84400    896.0000     7.84082        5392      2031.6      2398.5      3175.7      2372.3
     103.960   312.46900    907.2500     7.86133        5296      2033.7      2324.9      3078.4      2404.8
     103.990   307.42200    915.5000     7.83691        5130      2020.2      2344.2      3222.4      2255.1
     104.010   339.53100    943.7500     7.84961        5059      1960.0      2312.5      2998.2      2138.8
     104.040   255.38300    975.6250     7.82715        5002      1886.1      2451.6      2968.0      2295.5
