~VERSION INFORMATION SECTION
VERS.           2.0  :CWLS Log ASCII Standard - 2.0
WRAP.           NO   :One line per depth
#               Created in SeisLab
~WELL INFORMATION SECTION
#MNEM.UNIT  VALUE/NAME               :DESCRIPTION    
STRT.m  11                           :Start Depth    
STOP.m  125                          :Stop Depth     
STEP.m  0.01                         :Step           
NULL.    -999.25                     :Null Value     
WELL.    GDP1                        :Well Name      
CTRY.    Switzerland                 :Country        
CNTY.                                :County         
STAT.                                :State          
API .                                :API number     
UWI .                                :Unique well ID 
LOC .    Grimsel pass, Switzerland   :Well Location  
FLD .    n/a                         :Field          
COMP.    n/a                         :Company        
SRVC.    University of Lausanne      :Service Company
DATE.    2016                        :Date           
~PARAMETER INFORMATION SECTION
#MNEM .UNITS  VALUE   :DESCRIPTION OF PARAMETER
Casing.n/a    0       :cased hole              
~CURVE INFORMATION SECTION
#MNEM     .UNITS  API CODES   :DESCRIPTION OF MNEMONIC      
depth     .m                  :measured depth (interpolated)
P_slowness.us/m               :FWS2016_25kHz_semblance      
S_slowness.us/m               :FWS2016_25kHz_semblance      
~A depth       P_slowness  S_slowness  
# ...
      84.780   290.14549   446.41479
      84.790   289.47820   446.68661
      84.800   288.84941   446.93275
      84.810   288.28479   447.19615
      84.820   287.72016   447.43389
      84.830   287.18121   447.68887
      84.840   286.66792   447.90534
      84.850   286.24444   448.13905
      84.860   285.96646   448.33426
      84.870   285.68848   448.52948
      84.880   285.41049   448.72469
      84.890   285.15818   448.91990
      84.900   284.90587   449.11511
      84.910   284.66638   449.31033
      84.920   284.44846   449.50554
      84.930   284.23054   449.70075
      84.940   284.05089   449.89597
      84.950   283.87123   450.09118
      84.960   283.73007   450.28639
      84.970   283.57608   450.48161
      84.980   283.49910   450.67682
      84.990   283.42211   450.87203
      85.000   283.38362   451.06725
      85.010   283.33230   451.24523
      85.020   283.33230   451.42321
      85.030   283.31946   451.58395
      85.040   283.34513   451.74469
      85.050   283.33231   451.90543
      85.060   283.34515   452.04049
      85.070   283.35798   452.15831
      85.080   283.48631   452.27613
      85.090   283.60180   452.39395
      85.100   283.71730   452.51177
      85.110   283.81995   452.68687
      85.120   284.16643   452.86197
      85.130   284.50007   453.03707
      85.140   284.83370   453.23784
      85.150   285.16734   453.43861
      85.160   285.52664   453.63938
      85.170   285.87311   453.84015
      85.180   286.21959   454.04092
      85.190   286.56607   454.24169
      85.200   286.87405   454.44246
      85.210   287.19485   454.64323
      85.220   287.49000   454.84400
      85.230   287.82366   455.04477
      85.240   288.13164   455.24554
      85.250   288.45244   455.45682
      85.260   288.76041   455.66810
      85.270   289.06838   455.94244
      85.280   289.35069   456.21679
      85.290   289.67151   456.52266
      85.300   289.99233   456.82852
      85.310   290.33880   457.15541
      85.320   290.68528   457.44802
      85.330   291.05743   457.78266
      85.340   291.41674   458.06557
      85.350   291.80170   458.42205
      85.360   292.16100   458.76128
      85.370   292.55880   459.17407
      85.380   292.91811   459.56961
      85.390   293.41857   460.03870
      85.400   293.86770   460.48480
      85.410   294.40667   460.91877
      85.420   294.88148   461.33549
      85.430   295.38193   461.80354
      85.440   295.85672   462.25434
      85.450   296.38284   462.74366
      85.460   296.81913   463.21574
      85.470   297.30677   463.68782
      85.480   297.79441   464.15990
      85.490   298.39754   464.68331
      85.500   298.97500   465.20672
      85.510   299.59095   465.78146
      85.520   300.19408   466.35620
      85.530   300.81005   466.98226
      85.540   301.42602   467.60833
      85.550   302.09331   468.28572
      85.560   302.76061   468.96311
      85.570   303.45356   469.66618
      85.580   304.15933   470.36925
      85.590   304.86510   471.14930
      85.600   305.57087   471.92934
      85.610   306.31515   472.73507
      85.620   307.07226   473.55802
      85.630   307.84221   474.45797
      85.640   308.62500   475.37516
      85.650   309.48477   476.36934
      85.660   310.38303   477.36352
      85.670   311.29413   478.53736
      85.680   312.20523   479.72844
      85.690   313.21898   481.02218
      85.700   314.24557   482.31592
      85.710   315.36200   483.75082
      85.720   316.49126   485.12844
      85.730   317.63334   486.54456
      85.740   318.78826   487.96067
      85.750   319.99452   489.40246
      85.760   321.20079   490.84425
      85.770   322.40705   492.29887
      85.780   323.62613   493.75349
      85.790   324.84521   495.23377
      85.800   326.06430   496.71405
      85.810   327.28338   498.19433
      85.820   328.48964   499.67461
      85.830   329.69590   501.18056
      85.840   330.86366   502.68651
      85.850   332.03141   504.19246
      85.860   333.18634   505.68790
      85.870   334.31561   507.18334
      85.880   335.44487   508.61572
      85.890   336.57413   510.04810
      85.900   337.66489   511.44895
      85.910   338.75564   512.84980
      85.920   339.82074   514.22964
      85.930   340.84734   515.58380
      85.940   341.84828   516.89593
      85.950   342.79789   518.32356
      85.960   343.72184   519.67762
      85.970   344.62011   520.98036
      85.980   345.47989   522.20954
      85.990   346.30116   523.33607
      86.000   346.98130   524.38903
      86.010   347.66143   525.33934
      86.020   348.25172   526.30179
      86.030   348.84202   527.20007
      86.040   349.40666   528.04702
      86.050   349.97130   528.82980
      86.060   350.48461   529.57408
      86.070   350.94659   530.29269
      86.080   351.35723   531.01130
      86.090   351.74220   531.66574
      86.100   352.01167   532.26885
      86.110   352.28115   532.80780
      86.120   352.51213   533.29543
      86.130   352.73028   533.71890
      86.140   352.93559   534.09105
      86.150   353.14090   534.39903
      86.160   353.29489   534.65569
      86.170   353.44887   534.82251
      86.180   353.57720   534.96366
      86.190   353.52587   535.04064
      86.200   353.47454   535.04064
      86.210   353.42321   535.00215
      86.220   353.33338   534.93798
      86.230   353.24354   534.82249
      86.240   353.14087   534.63000
      86.250   353.03820   534.33485
      86.260   352.85854   533.96272
      86.270   352.67889   533.50075
      86.280   352.48639   532.85913
      86.290   352.22974   532.19185
      86.300   351.87043   531.42192
      86.310   351.48546   530.57498
      86.320   351.01066   529.58689
      86.330   350.56151   528.59879
      86.340   350.09954   527.57220
      86.350   349.58625   526.49428
      86.360   349.02161   525.39069
      86.370   348.44413   524.22293
      86.380   347.86666   523.04234
      86.390   347.26352   521.79759
      86.400   346.66039   520.52718
      86.410   345.96743   519.19261
      86.420   345.27446   517.85803
      86.430   344.51734   516.48497
      86.440   343.76023   515.08623
      86.450   342.93895   513.64898
      86.460   342.11767   512.21174
      86.470   341.23223   510.54351
      86.480   340.37246   508.87528
      86.490   339.38436   507.14290
      86.500   338.39626   505.41052
      86.510   337.27984   503.67815
      86.520   336.16341   501.94577
      86.530   334.85451   500.21339
      86.540   333.58410   498.50669
      86.550   332.23669   496.79998
      86.560   330.94061   494.97779
      86.570   329.58036   493.18125
      86.580   328.24579   491.43603
      86.590   326.78289   489.63949
      86.600   325.35848   487.94561
      86.610   323.90841   486.14907
      86.620   322.45834   484.45518
      86.630   320.94411   482.68430
      86.640   319.42989   480.97757
      86.650   317.91566   479.27085
      86.660   316.40143   477.62830
      86.670   314.82303   475.96562
      86.680   313.29597   474.32862
      86.690   311.71757   472.63908
      86.700   310.16485   471.01370
      86.710   308.57362   469.36731
      86.720   306.98239   467.78508
      86.730   305.35267   466.17133
      86.740   303.73579   464.62172
      86.750   302.09323   463.03008
      86.760   300.45067   461.50261
      86.770   298.78246   459.97513
      86.780   297.11425   458.53749
      86.790   295.43320   457.06833
      86.800   293.93180   455.66333
      86.810   292.40475   454.19528
      86.820   290.87770   452.76572
      86.830   289.32498   451.32566
      86.840   287.77226   449.93692
      86.850   286.21954   448.50613
      86.860   284.66682   447.17800
      86.870   283.10126   445.81834
      86.880   281.53570   444.54852
      86.890   279.97015   443.27870
      86.900   278.46875   442.03454
      86.910   276.94170   440.70631
      86.920   275.44031   439.45508
      86.930   273.91325   438.19751
      86.940   272.36052   436.93993
