~VERSION INFORMATION SECTION
VERS.           2.0  :CWLS Log ASCII Standard - 2.0
WRAP.           NO   :One line per depth
#               Created in SeisLab
~WELL INFORMATION SECTION
#MNEM.UNIT  VALUE/NAME               :DESCRIPTION    
STRT.m  11                           :Start Depth    
STOP.m  125                          :Stop Depth     
STEP.m  0.01                         :Step           
NULL.    -999.25                     :Null Value     
WELL.    GDP1                        :Well Name      
CTRY.    Switzerland                 :Country        
CNTY.                                :County         
STAT.                                :State          
API .                                :API number     
UWI .                                :Unique well ID 
LOC .    Grimsel pass, Switzerland   :Well Location  
FLD .    n/a                         :Field          
COMP.    n/a                         :Company        
SRVC.    University of Lausanne      :Service Company
DATE.    2016                        :Date           
~PARAMETER INFORMATION SECTION
#MNEM .UNITS  VALUE   :DESCRIPTION OF PARAMETER
Casing.n/a    0       :cased hole              
~CURVE INFORMATION SECTION
#MNEM     .UNITS  API CODES   :DESCRIPTION OF MNEMONIC      
depth     .m                  :measured depth (interpolated)
P_slowness.us/m               :FWS2016_25kHz_semblance      
S_slowness.us/m               :FWS2016_25kHz_semblance      
~A depth       P_slowness  S_slowness  
# ...
      39.210   210.92026   406.35087
      39.220   211.30751   406.78115
      39.230   211.73779   407.21143
      39.240   212.12503   407.64170
      39.250   212.51228   408.07198
      39.260   212.89952   408.45923
      39.270   213.28677   408.84648
      39.280   213.63098   409.23372
      39.290   213.97520   409.57793
      39.300   214.31941   409.92215
      39.310   214.70666   410.26636
      39.320   215.09390   410.56756
      39.330   215.48115   410.91179
      39.340   215.82538   411.21298
      39.350   216.16961   411.51418
      39.360   216.51384   411.77234
      39.370   216.90108   412.03051
      39.380   217.24530   412.24566
      39.390   217.58951   412.46080
      39.400   217.93372   412.54687
      39.410   218.32097   412.63293
      39.420   218.70821   412.63293
      39.430   219.09546   412.63293
      39.440   219.43967   412.58992
      39.450   219.82692   412.54690
      39.460   220.21416   412.46085
      39.470   220.60141   412.33177
      39.480   220.98866   412.15966
      39.490   221.41892   411.94451
      39.500   221.80616   411.68633
      39.510   222.19341   411.38513
      39.520   222.58066   411.08393
      39.530   222.96790   410.78274
      39.540   223.35515   410.43852
      39.550   223.74239   410.05128
      39.560   224.12964   409.66403
      39.570   224.47387   409.27679
      39.580   224.77507   408.88954
      39.590   225.07626   408.45926
      39.600   225.37746   408.07200
      39.610   225.67866   407.68474
      39.620   225.97985   407.34051
      39.630   226.28105   406.99628
      39.640   226.58225   406.69508
      39.650   226.88344   406.39389
      39.660   227.18464   406.13572
      39.670   227.48584   405.87756
      39.680   227.74400   405.66241
      39.690   227.95913   405.44726
      39.700   228.17426   405.23211
      39.710   228.38939   405.06000
      39.720   228.60452   404.88789
      39.730   228.81966   404.71577
      39.740   229.03479   404.54366
      39.750   229.24992   404.32851
      39.760   229.42203   404.11336
      39.770   229.59415   403.89821
      39.780   229.76626   403.68307
      39.790   229.93838   403.46792
      39.800   230.11049   403.25277
      39.810   230.28261   403.03762
      39.820   230.45472   402.82248
      39.830   230.62684   402.60733
      39.840   230.75592   402.39218
      39.850   230.88500   402.13402
      39.860   231.01408   401.87585
      39.870   231.14316   401.61769
      39.880   231.27225   401.35952
      39.890   231.40133   401.05833
      39.900   231.53041   400.80016
      39.910   231.61646   400.54200
      39.920   231.65948   400.28384
      39.930   231.70249   399.98264
      39.940   231.74551   399.63841
      39.950   231.78852   399.25116
      39.960   231.83154   398.86392
      39.970   231.87456   398.43364
      39.980   231.87456   398.00336
      39.990   231.87456   397.57308
      40.000   231.87456   397.14280
      40.010   231.83154   396.66949
      40.020   231.74549   396.19618
      40.030   231.65944   395.67985
      40.040   231.57339   395.16352
      40.050   231.44431   394.64720
      40.060   231.27220   394.13087
      40.070   231.10008   393.57151
      40.080   230.92797   393.05518
      40.090   230.71282   392.49582
      40.100   230.45466   391.97949
      40.110   230.19649   391.42015
      40.120   229.93833   390.90382
      40.130   229.63715   390.30143
      40.140   229.33597   389.69903
      40.150   229.03479   389.09664
      40.160   228.73361   388.53728
      40.170   228.38939   387.93490
      40.180   228.08820   387.33252
      40.190   227.78700   386.73015
      40.200   227.48580   386.17080
      40.210   227.14157   385.56843
      40.220   226.79734   384.96605
      40.230   226.45311   384.36367
      40.240   226.10889   383.76130
      40.250   225.76466   383.11589
      40.260   225.42043   382.47048
      40.270   225.07620   381.82507
      40.280   224.73197   381.17966
      40.290   224.34472   380.53425
      40.300   224.00051   379.88884
      40.310   223.65630   379.24343
      40.320   223.31208   378.55498
      40.330   222.96787   377.86654
      40.340   222.62366   377.17810
      40.350   222.27944   376.48966
      40.360   221.93523   375.84425
      40.370   221.59102   375.28693
      40.380   221.24680   374.72962
      40.390   220.90259   374.17231
      40.400   220.55838   373.61500
      40.410   220.21416   373.05769
      40.420   219.86995   372.50038
      40.430   219.48270   371.95590
      40.440   219.09546   371.41143
      40.450   218.70821   370.86695
      40.460   218.32097   370.36549
      40.470   217.89505   369.88969
      40.480   217.46913   369.41389
      40.490   217.04321   368.96375
      40.500   216.61730   368.55666
      40.510   216.06305   368.18805
      40.520   215.55184   367.81944
      40.530   215.00213   367.45084
      40.540   214.45243   367.12526
      40.550   213.82572   366.82536
      40.560   213.19902   366.56848
      40.570   212.54666   366.31159
      40.580   211.89430   366.09774
      40.590   211.19061   365.88389
      40.600   210.48692   365.67003
      40.610   209.75756   365.45618
      40.620   209.07121   365.28536
      40.630   208.38487   365.12736
      40.640   207.69852   365.01238
      40.650   206.96085   364.89739
      40.660   206.26621   364.78241
      40.670   205.57777   364.66743
      40.680   204.88933   364.59548
      40.690   204.15787   364.52352
      40.700   203.46944   364.49461
      40.710   202.78102   364.45287
      40.720   202.09259   364.45415
      40.730   201.40416   364.39126
      40.740   200.75875   364.41444
      40.750   200.11334   364.41195
      40.760   199.46793   364.40946
      40.770   198.82252   364.38131
      40.780   198.22015   364.39618
      40.790   197.61777   364.35970
      40.800   197.01539   364.32323
      40.810   196.41302   364.24826
      40.820   195.85367   364.21633
      40.830   195.29433   364.18439
      40.840   194.73498   364.15246
      40.850   194.17564   364.10769
      40.860   193.61630   364.10595
      40.870   193.05695   364.10595
      40.880   192.49761   364.10595
      40.890   191.93826   364.10595
      40.900   191.42193   364.10595
      40.910   190.94862   364.10595
      40.920   190.47531   364.10595
      40.930   190.04503   364.14898
      40.940   189.61475   364.19202
      40.950   189.18448   364.27808
      40.960   188.75420   364.36415
      40.970   188.36695   364.49323
      40.980   187.97970   364.53421
      40.990   187.59246   364.61823
      41.000   187.20521   364.70225
      41.010   186.86098   364.78626
      41.020   186.51675   364.87028
      41.030   186.17252   364.99733
      41.040   185.87133   365.11154
      41.050   185.57013   365.22575
      41.060   185.26893   365.33997
      41.070   184.96774   365.49720
      41.080   184.70521   365.62877
      41.090   184.44269   365.76034
      41.100   184.18016   365.86625
      41.110   183.91764   365.97215
      41.120   183.78344   366.03956
      41.130   183.64925   366.10697
      41.140   183.55354   366.17438
      41.150   183.41482   366.24179
      41.160   183.35310   366.28352
      41.170   183.29138   366.32526
      41.180   183.25531   366.36700
      41.190   183.17621   366.40874
      41.200   183.14844   366.45048
      41.210   183.12067   366.49221
      41.220   183.11857   366.53395
      41.230   183.07344   366.57569
      41.240   183.02831   366.60461
      41.250   182.98318   366.63352
      41.260   182.98938   366.66244
      41.270   182.95256   366.69136
      41.280   182.90954   366.72028
      41.290   182.86652   366.74920
      41.300   182.86652   366.77811
      41.310   182.86843   366.80703
      41.320   182.87033   366.84877
      41.330   182.87223   366.89051
      41.340   182.87413   366.99641
      41.350   182.89298   367.14534
      41.360   182.91184   367.31995
      41.370   182.96459   367.53759
