~VERSION INFORMATION SECTION
VERS.           2.0  :CWLS Log ASCII Standard - 2.0
WRAP.           NO   :One line per depth
#               Created in SeisLab
~WELL INFORMATION SECTION
#MNEM.UNIT  VALUE/NAME               :DESCRIPTION    
STRT.m  11                           :Start Depth    
STOP.m  125                          :Stop Depth     
STEP.m  0.01                         :Step           
NULL.    -999.25                     :Null Value     
WELL.    GDP1                        :Well Name      
CTRY.    Switzerland                 :Country        
CNTY.                                :County         
STAT.                                :State          
API .                                :API number     
UWI .                                :Unique well ID 
LOC .    Grimsel pass, Switzerland   :Well Location  
FLD .    n/a                         :Field          
COMP.    n/a                         :Company        
SRVC.    University of Lausanne      :Service Company
DATE.    2016                        :Date           
~PARAMETER INFORMATION SECTION
#MNEM .UNITS  VALUE   :DESCRIPTION OF PARAMETER
Casing.n/a    0       :cased hole              
~CURVE INFORMATION SECTION
#MNEM     .UNITS  API CODES   :DESCRIPTION OF MNEMONIC      
depth     .m                  :measured depth (interpolated)
P_slowness.us/m               :FWS2016_25kHz_semblance      
S_slowness.us/m               :FWS2016_25kHz_semblance      
~A depth       P_slowness  S_slowness  
# ...
      32.700  -999.25000  -999.25000
      32.710  -999.25000  -999.25000
      32.720  -999.25000  -999.25000
      32.730  -999.25000  -999.25000
      32.740  -999.25000  -999.25000
      32.750  -999.25000  -999.25000
      32.760  -999.25000  -999.25000
      32.770  -999.25000  -999.25000
      32.780  -999.25000  -999.25000
      32.790  -999.25000  -999.25000
      32.800  -999.25000  -999.25000
      32.810  -999.25000  -999.25000
      32.820  -999.25000  -999.25000
      32.830  -999.25000  -999.25000
      32.840  -999.25000  -999.25000
      32.850  -999.25000  -999.25000
      32.860  -999.25000  -999.25000
      32.870  -999.25000  -999.25000
      32.880  -999.25000  -999.25000
      32.890  -999.25000  -999.25000
      32.900  -999.25000  -999.25000
      32.910  -999.25000  -999.25000
      32.920  -999.25000  -999.25000
      32.930  -999.25000  -999.25000
      32.940  -999.25000  -999.25000
      32.950   184.88177   360.09636
      32.960   184.92026   360.13939
      32.970   184.95875   360.18243
      32.980   184.99725   360.26848
      32.990   185.06139   360.35452
      33.000   185.15121   360.44057
      33.010   185.24103   360.56966
      33.020   185.35652   360.69874
      33.030   185.47202   360.82782
      33.040   185.58751   360.95690
      33.050   185.71584   361.12900
      33.060   185.84416   361.30110
      33.070   185.97249   361.51623
      33.080   186.10082   361.73136
      33.090   186.28367   361.94649
      33.100   186.46652   362.16162
      33.110   186.64938   362.41979
      33.120   186.83223   362.67795
      33.130   187.01508   362.93611
      33.140   187.19793   363.19428
      33.150   187.38079   363.45244
      33.160   187.56364   363.71061
      33.170   187.74649   364.01179
      33.180   187.92934   364.26995
      33.190   188.11220   364.52811
      33.200   188.29505   364.74325
      33.210   188.47790   364.95838
      33.220   188.66075   365.13048
      33.230   188.88662   365.34561
      33.240   189.11249   365.56074
      33.250   189.33836   365.77587
      33.260   189.56423   365.94798
      33.270   189.79010   366.12010
      33.280   190.01597   366.29221
      33.290   190.24184   366.46433
      33.300   190.44203   366.63644
      33.310   190.68526   366.85159
      33.320   190.90282   367.06674
      33.330   191.12038   367.28189
      33.340   191.33793   367.49703
      33.350   191.55549   367.71218
      33.360   191.77305   367.92733
      33.370   191.99061   368.18549
      33.380   192.20816   368.44366
      33.390   192.42572   368.70182
      33.400   192.64328   368.95998
      33.410   192.90387   369.26118
      33.420   193.16446   369.56238
      33.430   193.42505   369.86357
      33.440   193.68564   370.16477
      33.450   193.94623   370.46597
      33.460   194.20682   370.76716
      33.470   194.46741   371.06836
      33.480   194.72800   371.41257
      33.490   194.98859   371.75679
      33.500   195.23636   372.10100
      33.510   195.48413   372.48825
      33.520   195.70623   372.87549
      33.530   195.93725   373.26274
      33.540   196.16826   373.64998
      33.550   196.42687   373.99420
      33.560   196.68548   374.38144
      33.570   196.96248   374.76869
      33.580   197.23948   375.15593
      33.590   197.51648   375.58621
      33.600   197.76782   376.01649
      33.610   198.00077   376.44677
      33.620   198.23372   376.83402
      33.630   198.43908   377.22126
      33.640   198.64444   377.60851
      33.650   198.88826   378.03877
      33.660   199.11925   378.42602
      33.670   199.35023   378.81326
      33.680   199.58121   379.15748
      33.690   199.83787   379.54472
      33.700   200.04000   379.93197
      33.710   200.24213   380.31921
      33.720   200.44426   380.66343
      33.730   200.67205   381.00764
      33.740   200.89984   381.35185
      33.750   201.12762   381.69607
      33.760   201.35541   382.04028
      33.770   201.63452   382.42752
      33.780   201.91364   382.77175
      33.790   202.21843   383.11598
      33.800   202.52321   383.46021
      33.810   202.87933   383.80444
      33.820   203.23544   384.14867
      33.830   203.73272   384.53592
      33.840   204.18698   384.88013
      33.850   204.64125   385.22434
      33.860   205.09551   385.56856
      33.870   205.54977   385.91277
      33.880   206.00403   386.25698
      33.890   206.50962   386.60120
      33.900   207.01521   386.94541
      33.910   207.49513   387.28962
      33.920   207.93202   387.59080
      33.930   208.44834   387.89198
      33.940   208.96467   388.19316
      33.950   209.48100   388.49434
      33.960   209.99733   388.79552
      33.970   210.51366   389.09670
      33.980   211.02998   389.35487
      33.990   211.50328   389.65607
      34.000   211.97657   389.95726
      34.010   212.44987   390.25846
      34.020   212.88013   390.51662
      34.030   213.35343   390.81782
      34.040   213.82672   391.11902
      34.050   214.30002   391.42021
      34.060   214.77331   391.72141
      34.070   215.24661   392.06562
      34.080   215.71990   392.40984
      34.090   216.19320   392.79708
      34.100   216.66649   393.18433
      34.110   217.13979   393.61461
      34.120   217.61308   394.00185
      34.130   218.08638   394.43211
      34.140   218.55075   394.86238
      34.150   219.05816   395.35349
      34.160   219.53798   395.88764
      34.170   220.01780   396.53213
      34.180   220.47923   397.17662
      34.190   220.94066   397.83951
      34.200   221.40208   398.45936
      34.210   221.86351   399.12518
      34.220   222.34333   399.79100
      34.230   222.82315   400.52120
      34.240   223.33056   401.25139
      34.250   223.83797   402.04595
      34.260   224.30692   402.79749
      34.270   224.77587   403.59500
      34.280   225.24482   404.39251
      34.290   225.75679   405.19002
      34.300   226.24308   405.94449
      34.310   226.72938   406.69897
      34.320   227.21567   407.45344
      34.330   227.70197   408.20792
      34.340   228.16261   408.96239
      34.350   228.62325   409.65251
      34.360   229.08389   410.34262
      34.370   229.54452   410.98677
      34.380   229.95384   411.58789
      34.390   230.40618   412.12462
      34.400   230.83285   412.66136
      34.410   231.25952   413.10615
      34.420   231.63487   413.55093
      34.430   232.01021   413.91297
      34.440   232.24439   414.23198
      34.450   232.47857   414.46825
      34.460   232.71275   414.70451
      34.470   232.94693   414.89480
      34.480   233.18111   415.08510
      34.490   233.37226   415.22941
      34.500   233.51208   415.37372
      34.510   233.65190   415.49964
      34.520   233.81739   415.62556
      34.530   233.98289   415.75148
      34.540   234.06893   415.87739
      34.550   234.15498   416.00331
      34.560   234.24103   416.12923
      34.570   234.32708   416.25515
      34.580   234.41313   416.38107
      34.590   234.49918   416.51015
      34.600   234.62826   416.59620
      34.610   234.75734   416.68225
      34.620   234.88643   416.76830
      34.630   234.97249   416.85434
      34.640   235.01552   416.89736
      34.650   235.05856   416.94038
      34.660   235.10159   416.98339
      34.670   235.14462   417.02641
      34.680   235.18766   417.02641
      34.690   235.18766   417.00585
      34.700   235.18766   416.94226
      34.710   235.14462   416.85010
      34.720   235.10159   416.71490
      34.730   235.05856   416.57970
      34.740   235.01552   416.40149
      34.750   234.92948   416.20489
      34.760   234.80039   415.94743
      34.770   234.67131   415.64400
      34.780   234.54223   415.23023
      34.790   234.37011   414.75208
      34.800   234.19800   414.25554
      34.810   234.02589   413.74062
      34.820   233.85377   413.17974
      34.830   233.63862   412.55448
      34.840   233.42348   411.86484
      34.850   233.20833   411.12923
      34.860   232.99318   410.32926
