~VERSION INFORMATION SECTION
VERS.           2.0  :CWLS Log ASCII Standard - 2.0
WRAP.           NO   :One line per depth
#               Created in SeisLab
~WELL INFORMATION SECTION
#MNEM.UNIT  VALUE/NAME               :DESCRIPTION    
STRT.m  10                           :Start Depth    
STOP.m  125                          :Stop Depth     
STEP.m  0.01                         :Step           
NULL.    -999.25                     :Null Value     
WELL.    GDP1                        :Well Name      
CTRY.    Switzerland                 :Country        
CNTY.                                :County         
STAT.    Central Swiss Alps          :State          
API .                                :API number     
UWI .                                :Unique well ID 
LOC .    Grimsel Pass, Switzerland   :Well Location  
FLD .    n/a                         :Field          
COMP.    n/a                         :Company        
SRVC.    University of Lausanne      :Service Company
DATE.    2015                        :Date           
~PARAMETER INFORMATION SECTION
#MNEM .UNITS    VALUE   :DESCRIPTION OF PARAMETER
Casing.n/a      0       :open hole               
Mud   .Polymer  1       :Mud type                
~CURVE INFORMATION SECTION
#MNEM.UNITS  API CODES   :DESCRIPTION OF MNEMONIC
depth.m                  :measured depth         
NG   .cps                :Natural gamma          
Sp   .mV                 :Self potential         
Temp .DegC               :Temperature            
SPR  .Ohm                :Single point resistance
R8   .Ohm.m              :Normal resistivity     
R16  .Ohm.m              :Single point resistance
R32  .Ohm.m              :Normal resistivity     
R64  .Ohm.m              :Normal resistivity     
~A depth       NG          Sp          Temp        SPR         R8          R16         R32         R64         
# ...
      32.940   285.60970    526.0371    11.12305    6592.360    2634.884    3329.069    4072.959    4818.942
      32.950   285.82140    526.5905    11.13480    6590.383    2621.577    3310.731    4048.971    4801.276
      32.960   286.05910    527.3898    11.13480    6588.070    2608.751    3292.073    4024.927    4784.934
      32.970   286.32450    528.4146    11.13480    6585.231    2596.365    3273.097    4000.879    4769.865
      32.980   286.61980    529.6345    11.14160    6581.685    2584.374    3253.808    3976.880    4756.018
      32.990   286.94757    531.0106    11.14840    6577.257    2572.731    3234.216    3952.984    4743.343
      33.000   287.31060    532.4984    11.15820    6571.780    2561.385    3214.328    3929.245    4731.790
      33.010   287.71167    534.0507    11.16800    6565.098    2550.285    3194.157    3905.717    4721.312
      33.020   288.15326    535.6204    11.16605    6557.060    2539.377    3173.718    3882.452    4711.863
      33.030   288.63730    537.1631    11.16410    6547.529    2528.607    3153.026    3859.504    4703.397
      33.040   289.16509    538.6385    11.16410    6536.378    2517.920    3132.099    3836.921    4695.871
      33.050   289.73714    540.0124    11.16410    6523.490    2507.260    3110.958    3814.753    4689.245
      33.060   290.35323    541.2563    11.16700    6508.763    2496.573    3089.624    3793.047    4683.479
      33.070   291.01228    542.3483    11.16990    6492.106    2485.805    3068.123    3771.848    4678.536
      33.080   291.71235    543.2727    11.17090    6473.442    2474.904    3046.480    3751.196    4674.379
      33.090   292.45056    544.0202    11.17190    6452.710    2463.818    3024.723    3731.130    4670.974
      33.100   293.22297    544.5877    11.16800    6429.861    2452.500    3002.880    3711.686    4668.290
      33.110   294.02454    544.9784    11.16410    6404.864    2440.905    2980.984    3692.895    4666.295
      33.120   294.84905    545.2014    11.15725    6377.703    2428.992    2959.066    3674.784    4664.958
      33.130   295.68913    545.2713    11.15040    6348.376    2416.721    2937.160    3657.378    4664.252
      33.140   296.53640    545.2064    11.14065    6316.899    2404.062    2915.301    3640.695    4664.148
      33.150   297.38168    545.0277    11.13090    6283.304    2390.984    2893.525    3624.750    4664.619
      33.160   298.21526    544.7571    11.14360    6247.640    2377.466    2871.868    3609.554    4665.637
      33.170   299.02721    544.4156    11.15630    6209.969    2363.489    2850.368    3595.112    4667.177
      33.180   299.80769    544.0220    11.16410    6170.373    2349.042    2829.063    3581.427    4669.210
      33.190   300.54726    543.5915    11.17190    6128.947    2334.119    2807.990    3568.493    4671.710
      33.200   301.23711    543.1358    11.19240    6085.800    2318.721    2787.188    3556.304    4674.648
      33.210   301.86935    542.6624    11.21290    6041.059    2302.856    2766.696    3544.847    4677.997
      33.220   302.43725    542.1758    11.19725    5994.861    2286.536    2746.550    3534.105    4681.726
      33.230   302.93543    541.6783    11.18160    5947.358    2269.782    2726.789    3524.056    4685.804
      33.240   303.36001    541.1713    11.18160    5898.713    2252.621    2707.448    3514.677    4690.201
      33.250   303.70857    540.6570    11.18160    5849.101    2235.086    2688.563    3505.938    4694.884
      33.260   303.98002    540.1394    11.19725    5798.706    2217.215    2670.167    3497.807    4699.817
      33.270   304.17449    539.6252    11.21290    5747.721    2199.055    2652.294    3490.250    4704.966
      33.280   304.29300    539.1241    11.20410    5696.346    2180.655    2634.975    3483.228    4710.294
      33.290   304.33725    538.6479    11.19530    5644.788    2162.073    2618.237    3476.702    4715.763
      33.300   304.30947    538.2095    11.21190    5593.257    2143.368    2602.108    3470.630    4721.333
      33.310   304.21238    537.8214    11.22850    5541.968    2124.605    2586.612    3464.969    4726.966
      33.320   304.04918    537.4933    11.23925    5491.137    2105.854    2571.771    3459.675    4732.621
      33.330   303.82361    537.2312    11.25000    5440.978    2087.185    2557.603    3454.704    4738.256
      33.340   303.53997    537.0357    11.27440    5391.707    2068.674    2544.124    3450.013    4743.829
      33.350   303.20298    536.9018    11.29880    5343.534    2050.395    2531.346    3445.559    4749.299
      33.360   302.81767    536.8187    11.28220    5296.666    2032.424    2519.279    3441.299    4754.624
      33.370   302.38917    536.7709    11.26560    5251.302    2014.839    2507.928    3437.195    4759.764
      33.380   301.92257    536.7390    11.27440    5207.634    1997.715    2497.296    3433.209    4764.678
      33.390   301.42270    536.7014    11.28320    5165.844    1981.126    2487.380    3429.308    4769.327
      33.400   300.89411    536.6353    11.27245    5126.102    1965.143    2478.175    3425.460    4773.672
      33.410   300.34100    536.5183    11.26170    5088.567    1949.834    2469.673    3421.641    4777.678
      33.420   299.76732    536.3286    11.25290    5053.380    1935.263    2461.860    3417.827    4781.311
      33.430   299.17688    536.0466    11.24410    5020.671    1921.487    2454.719    3414.002    4784.538
      33.440   298.57348    535.6555    11.23435    4990.548    1908.560    2448.230    3410.154    4787.329
      33.450   297.96094    535.1434    11.22460    4963.105    1896.526    2442.370    3406.280    4789.658
      33.460   297.34310    534.5047    11.21875    4938.412    1885.424    2437.110    3402.377    4791.500
      33.470   296.72365    533.7423    11.21290    4916.521    1875.282    2432.420    3398.455    4792.836
      33.480   296.10610    532.8684    11.22850    4897.463    1866.122    2428.265    3394.527    4793.646
      33.490   295.49353    531.9050    11.24410    4881.243    1857.954    2424.609    3390.613    4793.918
      33.500   294.88862    530.8831    11.23925    4867.846    1850.779    2421.411    3386.740    4793.640
      33.510   294.29346    529.8408    11.23440    4857.232    1844.588    2418.630    3382.945    4792.806
      33.520   293.70959    528.8214    11.25295    4849.336    1839.359    2416.220    3379.267    4791.412
      33.530   293.13796    527.8698    11.27150    4844.071    1835.062    2414.137    3375.757    4789.459
      33.540   292.57888    527.0301    11.27150    4841.324    1831.653    2412.332    3372.469    4786.951
      33.550   292.03210    526.3424    11.27150    4840.958    1829.079    2410.757    3369.465    4783.896
      33.560   291.49678    525.8405    11.25295    4842.815    1827.275    2409.363    3366.816    4780.305
      33.570   290.97162    525.5504    11.23440    4846.712    1826.165    2408.099    3364.595    4776.193
      33.580   290.45504    525.4885    11.22365    4852.445    1825.663    2406.917    3362.882    4771.578
      33.590   289.94541    525.6617    11.21290    4859.790    1825.672    2405.767    3361.765    4766.482
      33.600   289.44119    526.0673    11.20410    4868.502    1826.088    2404.604    3361.333    4760.930
      33.610   288.94113    526.6937    11.19530    4878.322    1826.796    2403.380    3361.682    4754.949
      33.620   288.44436    527.5217    11.21385    4888.973    1827.675    2402.052    3362.910    4748.568
      33.630   287.95048    528.5248    11.23240    4900.165    1828.597    2400.578    3365.118    4741.820
      33.640   287.45965    529.6714    11.21680    4911.598    1829.427    2398.922    3368.410    4734.741
      33.650   286.97264    530.9247    11.20120    4922.965    1830.029    2397.047    3372.891    4727.365
      33.660   286.49089    532.2441    11.20900    4933.952    1830.260    2394.924    3378.666    4719.731
      33.670   286.01658    533.5860    11.21680    4944.243    1829.978    2392.526    3385.841    4711.879
