~VERSION INFORMATION SECTION
VERS.           2.0  :CWLS Log ASCII Standard - 2.0
WRAP.           NO   :One line per depth
#               Created in SeisLab
~WELL INFORMATION SECTION
#MNEM.UNIT  VALUE/NAME               :DESCRIPTION    
STRT.m  47.59                        :Start Depth    
STOP.m  123.23                       :Stop Depth     
STEP.m  0.02                         :Step           
NULL.    -999.25                     :Null Value     
WELL.    GDP1                        :Well Name      
CTRY.    Switzerland                 :Country        
CNTY.                                :County         
STAT.    Central Swiss Alps          :State          
API .                                :API number     
UWI .                                :Unique well ID 
LOC .    Grimsel Pass, Switzerland   :Well Location  
FLD .    n/a                         :Field          
COMP.    n/a                         :Company        
SRVC.    University of Lausanne      :Service Company
DATE.    2017                        :Date           
~PARAMETER INFORMATION SECTION
#MNEM .UNITS  VALUE   :DESCRIPTION OF PARAMETER
Casing.n/a    1       :slotted PVC casing      
~CURVE INFORMATION SECTION
#MNEM.UNITS  API CODES   :DESCRIPTION OF MNEMONIC
depth.m                  :measured depth         
NG   .cps                :Natural gamma          
Sp   .mV                 :Self potential         
Temp .DegC               :Temperature            
SPR  .Ohm                :Single point resistance
R8   .Ohm.m              :Normal resistivity     
R16  .Ohm.m              :Single point resistance
R32  .Ohm.m              :Normal resistivity     
R64  .Ohm.m              :Normal resistivity     
~A depth       NG          Sp          Temp        SPR         R8          R16         R32         R64         
# ...
      53.510   326.84400   1258.6300     6.12598     21048.8      6492.8     6897.15     7288.69     6180.86
      53.530   338.54700   1248.7500     6.12305     20748.7      6402.8     6797.31     9813.38     6250.34
      53.550   302.59400   1238.3800     6.10938     20843.5      6329.9     6648.16    17390.40     6318.31
      53.570   280.64100   1221.7500     6.11914     21276.3      6234.0     6472.44    83302.10     6334.46
      53.590   318.67200   1203.7500     6.09180     20936.6      6131.0     6295.47   -36425.50     6353.42
      53.610   274.56300   1188.3800     6.12891     20652.5      6016.0     6107.46   -17772.60     6393.25
      53.630   262.62500   1173.8800     6.13574     21331.2      5916.2     5929.43   -14693.30     6417.66
      53.650   289.85900   1164.5000     6.10352     22156.4      5809.9     5803.67   -15401.60     6379.60
      53.670   272.40600   1156.7500     6.12598     22077.9      5689.9     5877.32   -22674.10     6314.16
      53.690   304.82800   1154.8800     6.12793     21807.8      5565.1     6274.64  -136176.00     6282.62
      53.710   289.20300   1154.1300     6.12402     21823.9      5432.5     7359.13    20807.60     6274.27
      53.730   263.28100   1150.7500     6.10938     21718.6      5306.6    10164.30     9919.63     6230.04
      53.750   307.09400   1146.3800     6.13574     20934.4      5235.0    18634.90     7416.09     6163.45
      53.770   269.68800   1146.0000     6.12305     20160.6      5356.8    92532.00     6596.43     6113.94
      53.790   283.17200   1147.0000     6.12793     18639.0      5805.2   -42017.40     6337.85     6080.91
      53.810   284.64100   1126.3800     6.10352     16157.1      6944.0   -21184.90     6273.13     6017.03
      53.830   275.59400   1102.3800     6.10254     14550.4      9857.0   -17952.00     6300.50     5946.55
      53.850   287.64100   1065.6300     6.14844     15424.5     18719.2   -19082.10     6372.73     5909.58
      53.870   286.79700   1026.8800     6.11035      9209.9     96820.5   -28238.00     6489.01     5914.49
      53.890   302.93800    959.2500     6.12305      -266.7    -46318.8  -168227.00     6597.23     5905.54
      53.910   270.15600    886.5000     6.13770     -1733.2    -24983.7    25056.20     6693.76     5887.08
      53.930   297.89100    828.1250     6.13965     -3244.3    -23235.8    11602.50     6773.99     5871.43
      53.950   293.82800    772.5000     6.15625     -7789.0    -27987.1     8567.15     6892.19     5873.58
      53.970   283.07800    748.2500     6.14941    -47200.3    -48710.4     7622.71     7007.46     5843.23
      53.990   312.93800    730.5000     6.15527     24526.0   -351854.0     7394.69     7071.85     5804.04
      54.010   335.65600    738.7500     6.14941     13339.2     60791.5     7464.54     7135.15     5788.75
      54.030   333.75000    752.3750     6.17383     11521.1     29110.9     7743.13     7203.76     5775.76
      54.050   278.79700    794.1250     6.13281     11966.3     20867.4     8212.22     7248.56     5744.17
      54.070   333.73400    840.3750     6.13086     16559.0     17755.2     8942.30     7239.23     5705.52
      54.090   299.89100    926.0000     6.16504     87890.2     16242.0    10059.40     7202.28     5714.32
      54.110   320.50000   1017.7500     6.14941    -10761.5     15486.6    11726.40     7179.72     5713.80
      54.130   262.82800   1100.3800     6.11914     -3882.7     15362.4    13616.20     7162.23     5690.71
      54.150   295.92200   1180.6300     6.14160     -2295.6     15586.6    15366.50     7118.18     5630.97
      54.170   279.46900   1235.2500     6.15332     -1757.1     16003.4    16772.70     7068.15     5614.95
      54.190   295.73400   1284.7500     6.14453     -1574.1     16444.9    17685.30     7041.35     5604.70
      54.210   294.07800   1295.1300     6.12402     -1528.9     16912.7    18311.60     7037.04     5565.03
      54.230   309.00000   1298.6300     6.12598     -1553.4     17307.8    18768.80     7025.98     5505.10
      54.250   299.75000   1284.0000     6.13281     -1611.8     17646.1    19028.30     7032.22     5464.74
      54.270   299.17200   1266.8800     6.11719     -1684.3     17998.8    19042.20     7107.41     5426.45
      54.290   302.25000   1248.8800     6.12402     -1754.5     18391.3    18873.70     7320.53     5352.89
      54.310   288.29700   1231.0000     6.11719     -1818.4     18886.5    18589.20     7714.69     5271.97
      54.330   294.42200   1216.7500     6.12402     -1869.7     19423.9    18181.50     8204.26     5231.23
      54.350   307.53100   1203.2500     6.11426     -1916.0     19861.3    17670.40     8659.99     5133.60
      54.370   327.71900   1198.3800     6.10742     -1954.4     20091.1    17239.70     9047.37     5025.92
      54.390   289.04700   1195.3800     6.11719     -1972.8     20129.6    17009.60     9317.01     4886.20
      54.410   336.75000   1196.0000     6.11719     -1983.2     20037.5    16909.20     9500.15     4787.37
      54.430   316.09400   1198.0000     6.10352     -1984.6     19807.9    16861.40     9646.95     4719.96
      54.450   287.04700   1196.6300     6.10059     -1970.4     19418.4    16846.60     9770.43     4635.81
      54.470   290.87500   1194.8800     6.09863     -1941.8     18947.1    16887.20     9846.19     4578.97
      54.490   321.45300   1207.5000     6.11719     -1902.5     18466.9    16987.50     9876.53     4529.05
      54.510   316.20300   1221.8800     6.11621     -1859.6     17968.6    17109.10     9877.46     4528.79
      54.530   303.39100   1236.8800     6.10352     -1812.2     17436.9    17207.00     9792.96     4514.32
      54.550   323.01600   1251.7500     6.14453     -1759.9     16931.6    17239.40     9614.29     4525.23
      54.570   333.82800   1259.5000     6.12793     -1710.4     16532.8    17190.90     9402.55     4549.72
      54.590   364.87500   1265.5000     6.12305     -1668.6     16255.7    17046.70     9273.21     4579.22
      54.610   360.78100   1262.5000     6.12793     -1629.2     16061.1    16854.70     9171.75     4610.74
      54.630   325.34400   1257.8800     6.11719     -1591.8     15892.0    16652.70     9060.34     4638.59
      54.650   324.51600   1255.8800     6.12793     -1561.3     15709.9    16429.00     8926.94     4718.93
      54.670   306.15600   1254.0000     6.12402     -1541.4     15499.8    16187.60     8766.37     4786.96
      54.690   328.48400   1241.3800     6.10938     -1537.6     15265.6    15943.60     8578.30     4886.40
      54.710   318.85900   1227.0000     6.12891     -1548.5     15050.2    15700.30     8329.01     4998.42
      54.730   328.71900   1223.3800     6.13965     -1562.1     14885.1    15391.80     7943.48     5241.09
      54.750   275.81300   1222.0000     6.14160     -1570.2     14748.0    15009.50     7576.79     5558.21
      54.770   304.32800   1215.5000     6.15332     -1570.7     14649.9    14592.50     7274.41     5743.90
      54.790   290.89100   1208.8800     6.12402     -1566.9     14608.4    14195.90     6964.00     5873.21
      54.810   345.04700   1206.5000     6.12891     -1563.7     14609.8    13762.20     6692.95     5937.74
      54.830   313.51600   1205.5000     6.15527     -1560.2     14556.4    13300.00     6469.35     5997.49
      54.850   322.87500   1204.7500     6.12891     -1556.8     14405.7    12827.20     6261.74     5974.66
      54.870   324.60900   1203.8800     6.13281     -1557.8     14182.2    12339.40     6048.99     5956.12
      54.890   312.54700   1210.8800     6.13770     -1561.9     13926.9    11861.20     5874.37     5826.17
      54.910   324.17200   1218.0000     6.14844     -1564.1     13606.2    11357.70     5749.40     5731.12
      54.930   269.12500   1211.6300     6.14258     -1557.1     13223.7    10835.20     5689.32     5582.14
      54.950   328.53100   1204.5000     6.16895     -1540.9     12808.2    10307.00     5652.62     5407.01
      54.970   317.10900   1205.7500     6.15820     -1519.0     12350.3     9772.20     5693.71     5282.45
