~VERSION INFORMATION SECTION
VERS.           2.0  :CWLS Log ASCII Standard - 2.0
WRAP.           NO   :One line per depth
#               Created in SeisLab
~WELL INFORMATION SECTION
#MNEM.UNIT  VALUE/NAME               :DESCRIPTION    
STRT.m  10                           :Start Depth    
STOP.m  125                          :Stop Depth     
STEP.m  0.01                         :Step           
NULL.    -999.25                     :Null Value     
WELL.    GDP1                        :Well Name      
CTRY.    Switzerland                 :Country        
CNTY.                                :County         
STAT.    Central Swiss Alps          :State          
API .                                :API number     
UWI .                                :Unique well ID 
LOC .    Grimsel Pass, Switzerland   :Well Location  
FLD .    n/a                         :Field          
COMP.    n/a                         :Company        
SRVC.    University of Lausanne      :Service Company
DATE.    2016                        :Date           
~PARAMETER INFORMATION SECTION
#MNEM .UNITS  VALUE   :DESCRIPTION OF PARAMETER
Casing.n/a    1       :slotted PVC casing      
~CURVE INFORMATION SECTION
#MNEM.UNITS  API CODES   :DESCRIPTION OF MNEMONIC
depth.m                  :measured depth         
NG   .cps                :Natural gamma          
Sp   .mV                 :Self potential         
Temp .DegC               :Temperature            
SPR  .Ohm                :Single point resistance
R8   .Ohm.m              :Normal resistivity     
R16  .Ohm.m              :Single point resistance
R32  .Ohm.m              :Normal resistivity     
R64  .Ohm.m              :Normal resistivity     
~A depth       NG          Sp          Temp        SPR         R8          R16         R32         R64         
      10.000  -999.25000   1048.0000  -999.25000    -999.250    -999.250    3236.041    3118.896    2623.875
      10.010  -999.25000   1048.0000  -999.25000    -999.250    -999.250    3236.041    3118.896    2623.875
      10.020  -999.25000   1048.0000  -999.25000    -999.250    -999.250    3236.041    3118.896    2623.875
      10.030  -999.25000   1048.0000  -999.25000    -999.250    -999.250    3236.041    3118.896    2623.875
      10.040  -999.25000   1048.0000  -999.25000    -999.250    -999.250    3236.041    3118.896    2623.875
      10.050  -999.25000   1048.0000  -999.25000    -999.250    -999.250    3236.041    3118.896    2623.875
      10.060  -999.25000   1048.0000  -999.25000    -999.250    -999.250    3236.041    3118.896    2623.875
      10.070  -999.25000   1048.0000  -999.25000    -999.250    -999.250    3236.041    3118.896    2623.875
      10.080  -999.25000   1048.0000  -999.25000    -999.250    -999.250    3236.041    3118.896    2623.875
      10.090  -999.25000   1048.0000  -999.25000    -999.250    -999.250    3236.041    3118.896    2623.875
      10.100  -999.25000   1048.0000  -999.25000    -999.250    -999.250    3236.041    3118.896    2623.875
      10.110  -999.25000   1048.0000  -999.25000    -999.250    -999.250    3236.041    3118.896    2623.875
      10.120  -999.25000   1048.0000  -999.25000    -999.250    -999.250    3236.041    3118.896    2623.875
      10.130  -999.25000   1048.0000  -999.25000    -999.250    -999.250    3236.041    3118.896    2623.875
      10.140  -999.25000   1048.0000  -999.25000    -999.250    -999.250    3236.041    3118.896    2623.875
      10.150  -999.25000   1048.0000  -999.25000    -999.250    -999.250    3236.041    3118.896    2623.875
      10.160  -999.25000   1048.0000  -999.25000    -999.250    -999.250    3236.041    3118.896    2623.875
      10.170  -999.25000   1048.0000  -999.25000    -999.250    -999.250    3236.041    3118.896    2623.875
      10.180  -999.25000   1048.0000  -999.25000    -999.250    -999.250    3236.041    3118.896    2623.875
      10.190  -999.25000   1048.0000  -999.25000    -999.250    -999.250    3236.041    3118.896    2623.875
      10.200  -999.25000   1048.0000  -999.25000    -999.250    -999.250    3236.041    3118.896    2623.875
      10.210  -999.25000   1048.0000  -999.25000    -999.250    -999.250    3236.041    3118.896    2623.875
      10.220  -999.25000   1048.0000  -999.25000    -999.250    -999.250    3236.041    3118.896    2623.875
      10.230  -999.25000   1048.0000  -999.25000    -999.250    -999.250    3236.041    3118.896    2623.875
      10.240  -999.25000   1048.0000  -999.25000    -999.250    -999.250    3236.041    3118.896    2623.875
      10.250  -999.25000   1048.0000  -999.25000    -999.250    -999.250    3236.041    3118.896    2623.875
      10.260  -999.25000   1048.0000  -999.25000    -999.250    -999.250    3236.041    3118.896    2623.875
      10.270  -999.25000   1048.0000  -999.25000    -999.250    -999.250    3236.041    3118.896    2623.875
      10.280  -999.25000   1048.0000  -999.25000    -999.250    -999.250    3236.041    3118.896    2623.875
      10.290  -999.25000   1048.0000  -999.25000    -999.250    -999.250    3236.041    3118.896    2623.875
      10.300  -999.25000   1048.0000  -999.25000    -999.250    -999.250    3236.041    3118.896    2623.875
      10.310  -999.25000   1048.0000  -999.25000    -999.250    -999.250    3236.041    3118.896    2623.875
      10.320  -999.25000   1048.0000  -999.25000    -999.250    -999.250    3236.041    3118.896    2623.875
      10.330  -999.25000   1048.0000  -999.25000    -999.250    -999.250    3236.041    3118.896    2623.875
      10.340  -999.25000   1048.0000  -999.25000    -999.250    -999.250    3236.041    3118.896    2623.875
      10.350  -999.25000   1048.0000  -999.25000    -999.250    -999.250    3236.041    3118.896    2623.875
      10.360  -999.25000   1048.0000  -999.25000    -999.250    -999.250    3236.041    3118.896    2623.875
      10.370  -999.25000   1048.0000  -999.25000    -999.250    -999.250    3236.041    3118.896    2623.875
      10.380  -999.25000   1048.0000  -999.25000    -999.250    -999.250    3236.041    3118.896    2623.875
      10.390  -999.25000   1048.0000  -999.25000    -999.250    -999.250    3236.041    3118.896    2623.875
      10.400  -999.25000   1048.0000  -999.25000    -999.250    -999.250    3236.041    3118.896    2623.875
      10.410  -999.25000   1048.0000  -999.25000    -999.250    -999.250    3236.041    3118.896    2623.875
      10.420  -999.25000   1048.0000  -999.25000    -999.250    -999.250    3236.041    3118.896    2623.875
      10.430  -999.25000   1048.0000  -999.25000    -999.250    -999.250    3236.041    3118.896    2623.875
      10.440  -999.25000   1048.0000  -999.25000    -999.250    -999.250    3236.041    3118.896    2623.875
      10.450  -999.25000   1048.0000  -999.25000    -999.250    -999.250    3236.041    3118.896    2623.875
      10.460  -999.25000   1048.0000  -999.25000    -999.250    -999.250    3236.041    3118.896    2623.875
      10.470  -999.25000   1048.0000  -999.25000    -999.250    -999.250    3236.041    3118.896    2623.875
      10.480  -999.25000   1048.0000  -999.25000    -999.250    -999.250    3236.041    3118.896    2623.875
      10.490  -999.25000   1048.0000  -999.25000    -999.250    -999.250    3236.041    3118.896    2623.875
      10.500  -999.25000   1048.0000  -999.25000    -999.250    -999.250    3236.041    3118.896    2623.875
      10.510  -999.25000   1048.0000  -999.25000    -999.250    -999.250    3236.041    3118.896    2623.875
      10.520  -999.25000   1048.0000  -999.25000    -999.250    -999.250    3236.041    3118.896    2623.875
      10.530  -999.25000   1048.0000  -999.25000    -999.250    -999.250    3236.041    3118.896    2623.875
      10.540  -999.25000   1048.0000  -999.25000    -999.250    -999.250    3236.041    3118.896    2623.875
      10.550  -999.25000   1048.0000  -999.25000    -999.250    -999.250    3236.041    3118.896    2623.875
      10.560  -999.25000   1048.0000  -999.25000    -999.250    -999.250    3236.041    3118.896    2623.875
      10.570  -999.25000   1048.0000  -999.25000    -999.250    -999.250    3236.041    3118.896    2623.875
      10.580  -999.25000   1048.0000  -999.25000    -999.250    -999.250    3236.041    3118.896    2623.875
      10.590  -999.25000   1048.0000  -999.25000    -999.250    -999.250    3236.041    3118.896    2623.875
      10.600  -999.25000   1048.0000  -999.25000    -999.250    -999.250    3236.041    3118.896    2623.875
      10.610  -999.25000   1048.0000  -999.25000    -999.250    -999.250    3236.041    3118.896    2623.875
      10.620  -999.25000   1048.0000  -999.25000    -999.250    -999.250    3236.041    3118.896    2623.875
      10.630  -999.25000   1048.0000  -999.25000    -999.250    -999.250    3236.041    3118.896    2623.875
      10.640  -999.25000   1048.0000  -999.25000    -999.250    -999.250    3236.041    3118.896    2623.875
      10.650  -999.25000   1048.0000  -999.25000    -999.250    -999.250    3236.041    3118.896    2623.875
      10.660  -999.25000   1048.0000  -999.25000    -999.250    -999.250    3236.041    3118.896    2623.875
      10.670  -999.25000   1048.0000  -999.25000    -999.250    -999.250    3236.041    3118.896    2623.875
      10.680  -999.25000   1048.0000  -999.25000    -999.250    -999.250    3236.041    3118.896    2623.875
      10.690  -999.25000   1048.0000  -999.25000    -999.250    -999.250    3236.041    3118.896    2623.875
      10.700  -999.25000   1048.0000  -999.25000    -999.250    -999.250    3236.041    3118.896    2623.875
      10.710  -999.25000   1048.0000  -999.25000    -999.250    -999.250    3236.041    3118.896    2623.875
      10.720  -999.25000   1048.0000  -999.25000    -999.250    -999.250    3236.041    3118.896    2623.875
      10.730  -999.25000   1048.0000  -999.25000    -999.250    -999.250    3236.041    3118.896    2623.875
