~VERSION INFORMATION SECTION
VERS.           2.0  :CWLS Log ASCII Standard - 2.0
WRAP.           NO   :One line per depth
#               Created in SeisLab
~WELL INFORMATION SECTION
#MNEM.UNIT  VALUE/NAME               :DESCRIPTION    
STRT.m  33.03                        :Start Depth    
STOP.m  122.23                       :Stop Depth     
STEP.m  0.03                         :Step           
NULL.    -999.25                     :Null Value     
WELL.    GDP1                        :Well Name      
CTRY.    Switzerland                 :Country        
CNTY.                                :County         
STAT.    Central Swiss Alps          :State          
API .                                :API number     
UWI .                                :Unique well ID 
LOC .    Grimsel Pass, Switzerland   :Well Location  
FLD .    n/a                         :Field          
COMP.    n/a                         :Company        
SRVC.    University of Lausanne      :Service Company
DATE.    2016                        :Date           
~PARAMETER INFORMATION SECTION
#MNEM .UNITS  VALUE   :DESCRIPTION OF PARAMETER
Casing.n/a    1       :slotted PVC casing      
~CURVE INFORMATION SECTION
#MNEM.UNITS  API CODES   :DESCRIPTION OF MNEMONIC
depth.m                  :measured depth         
NG   .cps                :Natural gamma          
Sp   .mV                 :Self potential         
Temp .DegC               :Temperature            
SPR  .Ohm                :Single point resistance
R8   .Ohm.m              :Normal resistivity     
R16  .Ohm.m              :Single point resistance
R32  .Ohm.m              :Normal resistivity     
R64  .Ohm.m              :Normal resistivity     
~A depth       NG          Sp          Temp        SPR         R8          R16         R32         R64         
# ...
     119.620   308.28100    955.1250     8.22266        6228      3017.6      3244.8      3569.8      4303.6
     119.650   285.03100    921.5000     8.23633        5812      2775.3      3223.5      3924.4      5016.0
     119.680   274.04700    942.5000     8.23438        5541      2643.6      3162.0      4198.6      4644.0
     119.710   320.25000    976.5000     8.24609        5347      2514.5      3162.1      3951.2      3710.7
     119.740   286.48400    959.1250     8.22754        5139      2436.1      3228.3      4148.1      3942.4
     119.760   293.07800    930.1250     8.22070        4936      2349.3      3144.6      4031.2      4694.9
     119.790   250.89100    911.8750     8.22949        4825      2326.2      3065.3      3870.5      4672.3
     119.820   329.62500    895.3750     8.25488        4706      2339.7      3104.2      4098.8      4398.6
     119.850   277.03100    903.2500     8.23926        4605      2275.1      3271.7      4074.8      4237.0
     119.880   320.87500   -999.0000     8.23633        4544      2230.2      3405.8      4508.5      3610.7
     119.910   263.57800   1130.7500     8.24805        4603      2262.3      3258.0      4204.0      3692.4
     119.940   286.09400   1405.5000     8.25293        4707      2374.9      3377.8      4205.5      3832.3
     119.980   289.67200   1290.6300     8.23242        4794      2483.8      3231.7      4080.1      4057.4
     120.010   292.92200   1079.1300     8.23633        4923      2460.3      3107.8      4062.8      4683.4
     120.040   312.12500   1026.5000     8.22754        5152      2624.3      3289.1      4120.0      4728.1
     120.070   326.26600   1005.8800     8.23633        5428      2642.2      3291.9      3563.6      4393.1
     120.100   287.35900   1031.8800     8.25684        5636      2727.1      3590.6      3638.0      4375.2
     120.130   279.01600   1067.8800     8.20508        5713      3021.8      3428.5      4310.4      4359.7
     120.150   288.70300   1078.6300     8.23145        5863      3220.4      3535.9      5629.0      4421.1
     120.180   325.82800   1084.2500     8.25879        5906      3614.4      3523.2      8965.5      4323.8
     120.210   245.68000   -999.0000     8.23633        6098      3659.2      3599.7     25420.0      4270.6
     120.240   254.63300   -999.0000     8.23438        6498      3905.8      3754.8     92334.1      4523.6
     120.270   330.00000   -999.0000     8.24121        6907      4029.3      3548.2     20830.2      4397.6
     120.300   278.87500   -999.0000     8.25000        7474      4194.2      3852.6     24177.1      4124.8
     120.340   304.75000   -999.0000     8.25488        7670      4357.5      4627.0      9633.0      4194.8
     120.370   302.45300   -999.0000     8.25488        8006      4347.6      6124.6      6178.1      4834.0
     120.400   277.40600   -999.0000     8.23242        8017      4935.9     11323.3      4958.5      5289.5
     120.430  -999.00000   -999.0000     8.24805        7907      5949.6     41040.0      4327.4      4798.6
     120.460   311.79700   -999.0000     8.25000        7670      7752.2    155620.0      4159.5      5036.9
     120.490   292.17200   -999.0000     8.24805        7477     14608.4     35763.6      4611.6      4894.9
     120.510   317.48400   -999.0000     8.25000        9371     58680.0     44871.9      5046.5      4518.2
     120.540   301.95300   -999.0000     8.24121       13845    223817.0     15597.1      5345.4      4711.8
     120.570   303.73400   -999.0000     8.24609       23995     55122.8      9292.2      5291.6      4651.5
     120.600   263.21900   -999.0000     8.22070       61165     79803.0      7742.8      4897.6      5305.8
     120.630   303.46900   -999.0000     8.25684      285664     29718.8      7202.9      5108.1      4865.1
     120.660   307.45300   -999.0000     8.25293     1100960     17842.7      7360.9      5812.9      4813.0
     120.690   299.09400   -999.0000     8.23828      216456     13474.6      7843.8      6459.7      4695.4
     120.730  -999.00000   -999.0000     8.25488      240618     11575.1      8649.0      6810.2      4813.0
     120.760  -999.00000   -999.0000     8.25293       53983     11031.5      9858.0      6660.8      4965.7
     120.790  -999.00000   -999.0000     8.26855       21796     10491.1     11051.8      6589.1      4025.2
     120.820  -999.00000   -999.0000     8.25977       14140     10378.5     11500.7      6999.9      3978.9
     120.850  -999.00000   -999.0000     8.24805       11392     10622.0     11840.0      7190.9      5061.7
     120.880  -999.00000   -999.0000     8.26172       11008     10945.6     12690.5      7146.2      6876.6
     120.900  -999.00000   -999.0000     8.25684       10576     10822.1     13480.3      7649.7      9820.0
     120.930  -999.00000   -999.0000     8.25977       10446     10881.8     13529.5      8594.2     21905.0
     120.960  -999.00000   -999.0000     8.25000       10683     11425.2     13006.8      8691.0     93553.2
     120.990  -999.00000   -999.0000     8.25293       11050     11968.6     12973.7      8222.1     22161.2
     121.020  -999.00000   -999.0000     8.25684       10992     11903.0     13557.4      8083.8     24959.5
     121.050  -999.00000   -999.0000     8.27344       10994     11504.0     13482.9      8234.7     11863.7
     121.090  -999.00000   -999.0000     8.26563       11462     11568.1     13085.9      8434.4      7759.4
     121.120  -999.00000   -999.0000     8.26563       12040     12046.4     13351.2      -999.0      5865.6
     121.150  -999.00000   -999.0000     8.27051       12152     11983.1     13772.3      6739.6      4706.9
     121.180  -999.00000   -999.0000     8.27734       12005     11696.4     13056.6     10019.8      4108.2
     121.210  -999.00000   -999.0000     8.25879       12300     12014.1     11977.5      5705.3      4744.6
     121.240  -999.00000   -999.0000     8.28711       12878     12453.3     11587.6     -2043.8      5347.2
     121.260  -999.00000   -999.0000     8.27734       12822     11989.4     11511.7     18859.1      5528.8
     121.290  -999.00000   -999.0000     8.28223       12488     11167.8     11236.6      8990.9      4992.9
     121.320  -999.00000   -999.0000     8.25977       12682     10873.7      -999.0      8663.4      3875.7
     121.350  -999.00000   -999.0000     8.26660       12869     10742.5     -8883.5      8484.2      3945.1
     121.380  -999.00000   -999.0000     8.30273       12236     10292.6     27076.9      8526.9      4625.9
     121.410  -999.00000   -999.0000     8.27930       11382      -999.0     16200.8      8708.9      5023.3
     121.440  -999.00000   -999.0000     8.29102       11080     -3214.1     -3451.3      -999.0      5158.5
     121.480  -999.00000   -999.0000     8.27344       10945     20411.1     26714.9      -999.0      4668.9
     121.510  -999.00000   -999.0000     8.28223       10472     12022.6     12032.9      -999.0      4156.6
     121.540  -999.00000   -999.0000     8.28613        -999     -3240.0     11302.2      -999.0      4284.5
     121.570  -999.00000   -999.0000     8.27344       10531     22353.9     10840.7      -999.0      4486.6
     121.600  -999.00000   -999.0000     8.28223       12251     10040.9     10828.6      -999.0      4459.6
     121.630  -999.00000   -999.0000     8.29785        8579      9378.1     11023.8      -999.0      4963.7
     121.650  -999.00000   -999.0000     8.28906       -3671      8940.1      -999.0      -999.0      5718.8
     121.680  -999.00000   -999.0000     8.28418       24233      8947.8      -999.0      -999.0      5216.0
     121.710  -999.00000   -999.0000     8.28906       10938      9136.5      -999.0      -999.0      4157.9
     121.740  -999.00000   -999.0000     8.27051       10427      -999.0      -999.0      -999.0      3516.5
     121.770  -999.00000   -999.0000     8.28223        9969      -999.0      -999.0      -999.0      3394.0
     121.800  -999.00000   -999.0000     8.27051       10075      -999.0      -999.0      -999.0      3780.3
