~VERSION INFORMATION SECTION
VERS.           2.0  :CWLS Log ASCII Standard - 2.0
WRAP.           NO   :One line per depth
#               Created in SeisLab
~WELL INFORMATION SECTION
#MNEM.UNIT  VALUE/NAME               :DESCRIPTION    
STRT.m  11                           :Start Depth    
STOP.m  125                          :Stop Depth     
STEP.m  0.01                         :Step           
NULL.    -999.25                     :Null Value     
WELL.    GDP1                        :Well Name      
CTRY.    Switzerland                 :Country        
CNTY.                                :County         
STAT.                                :State          
API .                                :API number     
UWI .                                :Unique well ID 
LOC .    Grimsel pass, Switzerland   :Well Location  
FLD .    n/a                         :Field          
COMP.    n/a                         :Company        
SRVC.    University of Lausanne      :Service Company
DATE.    2016                        :Date           
~PARAMETER INFORMATION SECTION
#MNEM .UNITS  VALUE   :DESCRIPTION OF PARAMETER
Casing.n/a    0       :cased hole              
~CURVE INFORMATION SECTION
#MNEM     .UNITS  API CODES   :DESCRIPTION OF MNEMONIC      
depth     .m                  :measured depth (interpolated)
P_slowness.us/m               :FWS2016_25kHz_semblance      
S_slowness.us/m               :FWS2016_25kHz_semblance      
~A depth       P_slowness  S_slowness  
# ...
     112.990   213.75997   392.93430
     113.000   213.63089   393.15598
     113.010   213.50180   393.37767
     113.020   213.32969   393.59936
     113.030   213.15757   393.82105
     113.040   212.98546   394.04274
     113.050   212.85638   394.26443
     113.060   212.72730   394.48611
     113.070   212.59821   394.72936
     113.080   212.46913   394.97261
     113.090   212.34005   395.23743
     113.100   212.16793   395.50225
     113.110   211.99582   395.81021
     113.120   211.82370   396.11818
     113.130   211.69462   396.42615
     113.140   211.52252   396.69108
     113.150   211.35043   396.93444
     113.160   211.17833   397.17780
     113.170   211.04925   397.37802
     113.180   210.92016   397.53520
     113.190   210.79108   397.64925
     113.200   210.61897   397.76330
     113.210   210.44685   397.86656
     113.220   210.27474   397.92680
     113.230   210.14566   397.94390
     113.240   210.01657   397.96100
     113.250   209.88749   397.95654
     113.260   209.80144   397.95208
     113.270   209.71539   397.90448
     113.280   209.62934   397.85687
     113.290   209.54330   397.78769
     113.300   209.50026   397.76152
     113.310   209.45723   397.73536
     113.320   209.41420   397.70920
     113.330   209.37116   397.68303
     113.340   209.37116   397.65687
     113.350   209.37116   397.60913
     113.360   209.41420   397.50279
     113.370   209.45723   397.37489
     113.380   209.50026   397.34862
     113.390   209.54330   397.27921
     113.400   209.62934   397.15415
     113.410   209.67236   397.00751
     113.420   209.75841   396.86087
     113.430   209.84446   396.73580
     113.440   209.93051   396.62913
     113.450   210.01656   396.56561
     113.460   210.10261   396.54805
     113.470   210.14564   396.64000
     113.480   210.23170   396.70436
     113.490   210.31777   396.77923
     113.500   210.40384   396.85410
     113.510   210.48990   396.97100
     113.520   210.57597   397.06952
     113.530   210.66203   397.17987
     113.540   210.74810   397.29021
     113.550   210.83416   397.35459
     113.560   210.92023   397.37464
     113.570   211.00630   397.39469
     113.580   211.09236   397.35003
     113.590   211.17843   397.30538
     113.600   211.26449   397.22836
     113.610   211.35056   397.10536
     113.620   211.43662   396.98236
     113.630   211.56570   396.85936
     113.640   211.69479   396.73636
     113.650   211.86690   396.61336
     113.660   211.99598   396.49036
     113.670   212.24207   396.39495
     113.680   212.48815   396.27798
     113.690   212.75459   396.16102
     113.700   213.02103   396.02248
     113.710   213.36525   395.92977
     113.720   213.70946   395.79392
     113.730   214.09670   395.70110
     113.740   214.44092   395.60828
     113.750   214.78513   395.51546
     113.760   215.12934   395.44421
     113.770   215.51659   395.41598
     113.780   215.86082   395.43090
     113.790   216.24807   395.44582
     113.800   216.63531   395.50387
     113.810   217.02256   395.56192
     113.820   217.40980   395.63075
     113.830   217.84008   395.69959
     113.840   218.22733   395.81157
     113.850   218.65761   395.96659
     113.860   219.08789   396.14316
     113.870   219.56118   396.36277
     113.880   220.03448   396.62552
     113.890   220.55080   396.88828
     113.900   221.06713   397.17261
     113.910   221.62649   397.49995
     113.920   222.18585   397.82730
     113.930   222.78825   398.24070
     113.940   223.39064   398.65411
     113.950   224.03605   399.11056
     113.960   224.68146   399.58857
     113.970   225.32687   400.10961
     113.980   225.97228   400.65220
     113.990   226.66072   401.19479
     114.000   227.34916   401.78052
     114.010   228.03761   402.40930
     114.020   228.76908   403.05964
     114.030   229.54359   403.70998
     114.040   230.31810   404.33875
     114.050   231.09261   404.96752
     114.060   231.86711   405.55315
     114.070   232.64162   406.13877
     114.080   233.45915   406.61489
     114.090   234.23364   407.04797
     114.100   235.00813   407.47054
     114.110   235.73959   407.89311
     114.120   236.47105   408.27366
     114.130   237.15949   408.61118
     114.140   237.84793   408.93689
     114.150   238.49334   409.26259
     114.160   239.13875   409.63426
     114.170   239.69810   409.96290
     114.180   240.25744   410.29154
     114.190   240.73074   410.62018
     114.200   241.20403   410.94882
     114.210   241.63430   411.23443
     114.220   242.06456   411.56602
     114.230   242.40877   411.81156
     114.240   242.70997   412.05710
     114.250   242.96813   412.25961
     114.260   243.18326   412.46211
     114.270   243.35538   412.62159
     114.280   243.41049   412.75348
     114.290   243.42257   412.79931
     114.300   243.41430   412.84515
     114.310   243.40602   412.84795
     114.320   243.31997   412.80492
     114.330   243.19089   412.71887
     114.340   243.01877   412.58979
     114.350   242.84666   412.41767
     114.360   242.67454   412.24556
     114.370   242.50243   412.07344
     114.380   242.28728   411.85831
     114.390   242.07213   411.64318
     114.400   241.81397   411.42805
     114.410   241.55580   411.21292
     114.420   241.29764   410.99779
     114.430   241.03948   410.78266
     114.440   240.73828   410.56752
     114.450   240.48011   410.35239
     114.460   240.17892   410.09423
     114.470   239.90638   409.87910
     114.480   239.59082   409.62093
     114.490   239.27526   409.36277
     114.500   238.91667   409.10461
     114.510   238.55808   408.88946
     114.520   238.15646   408.63130
     114.530   237.81223   408.41616
     114.540   237.42497   408.11497
     114.550   237.08074   407.85680
     114.560   236.69349   407.55561
     114.570   236.34928   407.25441
     114.580   236.00507   406.91020
     114.590   235.66085   406.60900
     114.600   235.27361   406.30780
     114.610   234.92938   406.04964
     114.620   234.58515   405.74844
     114.630   234.24092   405.44725
     114.640   233.85366   405.14605
     114.650   233.50943   404.88789
     114.660   233.16520   404.62972
     114.670   232.82097   404.41457
     114.680   232.47674   404.19943
     114.690   232.17554   403.98428
     114.700   231.91738   403.81216
     114.710   231.65921   403.68308
     114.720   231.44408   403.55400
     114.730   231.27197   403.46795
     114.740   231.14287   403.42492
     114.750   231.05680   403.38189
     114.760   231.01377   403.33885
     114.770   231.01377   403.33885
     114.780   231.09984   403.38189
     114.790   231.22893   403.46793
     114.800   231.44408   403.55398
     114.810   231.70225   403.72610
     114.820   232.00344   403.94125
     114.830   232.34767   404.24244
     114.840   232.77795   404.62969
     114.850   233.29428   405.05997
     114.860   233.85364   405.53328
     114.870   234.45603   406.04961
     114.880   235.10144   406.60897
     114.890   235.74685   407.21136
     114.900   236.43530   407.89980
     114.910   237.16677   408.58825
     114.920   237.89825   409.31972
     114.930   238.62972   410.05120
     114.940   239.40423   410.82569
     114.950   240.22175   411.60018
     114.960   241.03928   412.41770
     114.970   241.85680   413.23523
     114.980   242.67433   414.05275
     114.990   243.49185   414.87028
     115.000   244.30938   415.68780
     115.010   245.16993   416.41120
     115.020   246.03049   417.13459
     115.030   246.89105   417.84074
     115.040   247.75161   418.54689
     115.050   248.61216   419.20131
     115.060   249.42969   419.85574
     115.070   250.24721   420.40669
     115.080   251.03608   420.91461
     115.090   251.82495   421.36505
     115.100   252.61382   421.81549
     115.110   253.40269   422.24869
     115.120   254.19156   422.63887
     115.130   254.97174   422.96008
     115.140   255.69452   423.23826
     115.150   256.41731   423.49920
