~VERSION INFORMATION SECTION
VERS.           2.0  :CWLS Log ASCII Standard - 2.0
WRAP.           NO   :One line per depth
#               Created in SeisLab
~WELL INFORMATION SECTION
#MNEM.UNIT  VALUE/NAME               :DESCRIPTION    
STRT.m  33.03                        :Start Depth    
STOP.m  122.23                       :Stop Depth     
STEP.m  0.03                         :Step           
NULL.    -999.25                     :Null Value     
WELL.    GDP1                        :Well Name      
CTRY.    Switzerland                 :Country        
CNTY.                                :County         
STAT.    Central Swiss Alps          :State          
API .                                :API number     
UWI .                                :Unique well ID 
LOC .    Grimsel Pass, Switzerland   :Well Location  
FLD .    n/a                         :Field          
COMP.    n/a                         :Company        
SRVC.    University of Lausanne      :Service Company
DATE.    2016                        :Date           
~PARAMETER INFORMATION SECTION
#MNEM .UNITS  VALUE   :DESCRIPTION OF PARAMETER
Casing.n/a    1       :slotted PVC casing      
~CURVE INFORMATION SECTION
#MNEM.UNITS  API CODES   :DESCRIPTION OF MNEMONIC
depth.m                  :measured depth         
NG   .cps                :Natural gamma          
Sp   .mV                 :Self potential         
Temp .DegC               :Temperature            
SPR  .Ohm                :Single point resistance
R8   .Ohm.m              :Normal resistivity     
R16  .Ohm.m              :Single point resistance
R32  .Ohm.m              :Normal resistivity     
R64  .Ohm.m              :Normal resistivity     
~A depth       NG          Sp          Temp        SPR         R8          R16         R32         R64         
# ...
      53.010   289.35900    680.6250     6.26758     -637444     20509.9      8694.7      7908.5      6066.9
      53.040   324.51600    745.2500     6.24707     -225156     17151.4      9447.7      8139.9      6202.9
      53.080   321.23400    842.0000     6.27930     1409640     17061.9     11353.6      7815.8      6279.5
      53.110   323.50000    944.3750     6.29785       57406     16014.2     14416.7      7634.7      5507.5
      53.140   295.45300   1027.0000     6.26074       25181     15884.7     16216.8      7734.1      5457.2
      53.170   289.09400   1106.0000     6.24512       18204     16948.0     16957.3      7718.7      5660.8
      53.190   312.48400   1118.3800     6.29688       17945     18376.3     18673.0      7497.0      7019.2
      53.220   362.03100   1118.1300     6.28418       17139     18078.4     20476.5      7535.4     11923.8
      53.260   303.60900   1096.2500     6.26563       17282     17862.6     20042.3      8075.0     84391.1
      53.280   325.85900   1069.3800     6.27051       18820     19430.5     18722.4      8820.5    -50129.9
      53.320   331.23400   1059.8800     6.27051       20696     21431.3     18753.7      9246.8    -91239.0
      53.350   332.14100   1054.2500     6.27734       20423     21063.0     19107.8      9916.2    -25184.2
      53.380   310.98400   1048.5000     6.29688       19837     19865.1     18320.1     10724.1    199294.0
      53.400   336.76600   1043.5000     6.27637       21062     20150.6     17502.0     11012.4     13144.0
      53.440   329.46900   1045.1300     6.26563       22325     20522.8     17787.0     10656.6      7572.3
      53.470   342.79700   1048.3800     6.25879       20991     19268.6     18649.6     10663.5      5949.1
      53.500   309.79700   1064.7500     6.29297       19242     17792.6     18396.1     11021.3      5696.4
      53.530   356.06300   1083.6300     6.25391       19199     17492.0     17821.8     10606.4      6018.9
      53.560   329.98400   1090.6300     6.26563       19341     17788.3     18236.5     10343.1      6200.2
      53.580   290.35900   1095.0000     6.28809       18022     16984.4     18850.5     10017.9      5887.9
      53.610   301.62500   1080.1300     6.28320       16722     16116.7     18106.2      9863.0      5671.4
      53.650   348.68800   1060.8800     6.26563       16640     16265.4     17007.3      9643.8      6020.8
      53.680   314.12500   1054.5000     6.26367       17246     16670.4     17010.1      9192.4      6377.3
      53.710   304.31300   1050.6300     6.28613       16809     15947.6     17370.1      8769.4      6137.9
      53.740   367.31300   1044.3800     6.28320       16340     15122.8     16323.0      8481.9      6119.4
      53.760   331.15600   1037.0000     6.27246       16858     15380.6     15310.5      8002.4      6871.5
      53.790   318.93800   1025.5000     6.26270       17515     15993.3     14813.2      7411.3      6767.0
      53.830   333.03100   1012.2500     6.29297       16918     15326.4     14399.7      6876.5      6141.0
      53.860   290.43800   1018.5000     6.29688       16214     14526.7     13365.6      6543.9      5973.8
      53.890   338.92200   1030.0000     6.26367       16668     14270.7     12253.8      6428.1      6257.4
      53.920   292.10900   1023.8800     6.27051       17311     14004.0     11653.0      6196.4      6134.1
      53.940   306.85900   1014.1300     6.29785       16559     13019.2     11060.5      5992.3      5795.8
      53.970   311.18800   1021.3800     6.27637       15700     11856.2     10063.4      5950.1      5562.4
      54.010   285.75000   1031.8800     6.25684       15538     11228.7      9078.2      5836.7      5872.1
      54.030   294.10900   1063.6300     6.29297       15397     10521.0      8399.3      5993.9      5705.1
      54.070   282.40600   1099.2500     6.29492       14382      9415.4      7961.8      5752.1      5418.1
      54.100   260.40600   1129.8800     6.27441       13196      8379.0      7579.6      6435.8      5568.7
      54.130   276.28100   1159.0000     6.27051       12668      7658.7      7208.9      7039.5      5957.2
      54.150   285.10900   1189.0000     6.29688       12051      7138.7      7027.9      6669.6      5636.0
      54.190   315.60900   1219.0000     6.29980       10990      6626.9      6979.8      6855.4      5163.7
      54.220   328.87500   1227.5000     6.28125       10024      6214.1      6741.6      6559.4      5482.2
      54.250   337.26600   1231.2500     6.27637        9424      6002.6      6745.8      7180.6      5709.6
      54.280   267.09400   1234.3800     6.27930        9058      5922.4      6537.3      6528.0      5960.4
      54.310   246.35200   1237.6300     6.29785        8668      5692.3      7060.1      6397.0      5368.8
      54.330   273.65600   1218.0000     6.30176        8503      5664.7      7391.4      6376.9      4975.0
      54.360   299.04700   1193.5000     6.28418        8626      5541.9      7037.4      6140.3      5345.8
      54.400   268.17200   1135.3800     6.28320        8850      5989.4      7291.7      6697.1      5485.2
      54.430   249.53900   1070.8800     6.31641        8868      6334.9      7167.0      6447.1      5109.2
      54.460   250.74200   1009.8800     6.27734        8937      6282.9      7577.8      8883.5      5103.6
      54.490   268.73400    950.2500     6.27930        8962      6759.1      6984.7     16139.0      5210.1
      54.510   262.42200    917.3750     6.29785        9485      7008.3      6939.1     28299.5      5028.8
      54.540   263.89100    890.2500     6.31543        9878      7537.2      7033.2    -41382.3      4626.9
      54.580   265.70300    870.7500     6.27930       10014      7248.4      6804.6    -15018.9      4401.8
      54.610   278.84400    852.6250     6.29297       10750      7392.1      7269.7    -29405.8      4640.2
      54.640   273.65600    835.2500     6.29297       11323      7608.1      7449.7     30587.4      4586.4
      54.670   244.35200    817.1250     6.30176       11815      7467.9     10527.1     13225.2      4330.3
      54.690   296.06300    821.0000     6.29004       11412      7914.5     19342.5      7168.1      4278.8
      54.720   256.89100    829.8750     6.28125       11466      8392.2     34805.2      5879.0      4344.3
      54.760   325.28100    827.0000     6.29492       11566     11887.6    -54084.1      5713.9      4652.2
      54.780   266.54700    821.0000     6.29980       11220     22040.2    -20939.6      5505.6      4288.4
      54.820   268.82800    783.7500     6.27930       11992     40438.1    -39889.6      5486.6      5055.5
      54.850   250.32000    739.5000     6.28125       13978    -64167.9     40115.3      5401.5      5928.1
      54.880   297.45300    686.7500     6.29102       25717    -27187.0     17214.4      5420.5      5466.1
      54.900   312.01600    632.8750     6.31152       68219    -58478.6      8986.5      5484.6      5433.5
      54.940   256.39100    611.2500     6.30859      151761     71989.4      6947.0      5685.1      4867.2
      54.970   256.34400    596.1250     6.27930     -270089     34766.0      6502.6      5999.0      5744.9
      55.000   271.12500    620.0000     6.29980     -107731     16197.6      6236.6      5834.9      5133.1
      55.030   257.87500    650.7500     6.29102     -191813     10839.9      6311.1      5509.4      4981.7
      55.060   257.84400    720.1250     6.29980      164673      8624.1      6293.1      5413.3      4978.2
      55.080   296.96900    796.2500     6.29004       57141      7126.5      6420.8      5513.2      4950.9
      55.110   268.65600    867.1250     6.29004       19897      6540.2      6694.6      5492.1      5790.2
      55.150   297.90600    936.5000     6.29980       10987      5941.1      6885.2      5258.0      5097.5
      55.180   261.67200    990.7500     6.27930        9155      5609.9      6907.2      5150.5      6853.7
      55.210   259.81300   1042.2500     6.27051        8424      5480.9      6533.1      5346.6     13236.7
