~VERSION INFORMATION SECTION
VERS.           2.0  :CWLS Log ASCII Standard - 2.0
WRAP.           NO   :One line per depth
#               Created in SeisLab
~WELL INFORMATION SECTION
#MNEM.UNIT  VALUE/NAME               :DESCRIPTION    
STRT.m  10                           :Start Depth    
STOP.m  125                          :Stop Depth     
STEP.m  0.01                         :Step           
NULL.    -999.25                     :Null Value     
WELL.    GDP1                        :Well Name      
CTRY.    Switzerland                 :Country        
CNTY.                                :County         
STAT.    Central Swiss Alps          :State          
API .                                :API number     
UWI .                                :Unique well ID 
LOC .    Grimsel Pass, Switzerland   :Well Location  
FLD .    n/a                         :Field          
COMP.    n/a                         :Company        
SRVC.    University of Lausanne      :Service Company
DATE.    2016                        :Date           
~PARAMETER INFORMATION SECTION
#MNEM .UNITS  VALUE   :DESCRIPTION OF PARAMETER
Casing.n/a    1       :slotted PVC casing      
~CURVE INFORMATION SECTION
#MNEM.UNITS  API CODES   :DESCRIPTION OF MNEMONIC
depth.m                  :measured depth         
NG   .cps                :Natural gamma          
Sp   .mV                 :Self potential         
Temp .DegC               :Temperature            
SPR  .Ohm                :Single point resistance
R8   .Ohm.m              :Normal resistivity     
R16  .Ohm.m              :Single point resistance
R32  .Ohm.m              :Normal resistivity     
R64  .Ohm.m              :Normal resistivity     
~A depth       NG          Sp          Temp        SPR         R8          R16         R32         R64         
# ...
      32.940  -999.25000   1048.0000  -999.25000    -999.250    -999.250    3236.082    3118.787    2623.875
      32.950  -999.25000   1048.0000  -999.25000    -999.250    -999.250    3236.077    3118.818    2623.875
      32.960  -999.25000   1048.0000  -999.25000    -999.250    -999.250    3236.071    3118.851    2623.875
      32.970  -999.25000   1048.0000  -999.25000    -999.250    -999.250    3236.065    3118.887    2623.875
      32.980  -999.25000   1048.0000  -999.25000    -999.250    -999.250    3236.058    3118.925    2623.876
      32.990  -999.25000   1048.0000  -999.25000    -999.250    -999.250    3236.051    3118.965    2623.876
      33.000  -999.25000   1048.0000  -999.25000    -999.250    -999.250    3236.043    3119.007    2623.876
      33.010  -999.25000   1048.0000  -999.25000    -999.250    -999.250    3236.035    3119.050    2623.877
      33.020  -999.25000   1048.0000  -999.25000    -999.250    -999.250    3236.026    3119.094    2623.877
      33.030  -999.25000   1048.0000  -999.25000    -999.250    -999.250    3236.016    3119.139    2623.877
      33.040  -999.25000   1048.0000  -999.25000    -999.250    -999.250    3236.007    3119.185    2623.877
      33.050  -999.25000   1048.0000  -999.25000    -999.250    -999.250    3235.997    3119.231    2623.878
      33.060  -999.25000   1048.0000  -999.25000    -999.250    -999.250    3235.987    3119.276    2623.878
      33.070  -999.25000   1048.0000  -999.25000    -999.250    -999.250    3235.977    3119.321    2623.878
      33.080  -999.25000   1048.0000  -999.25000    -999.250    -999.250    3235.966    3119.364    2623.879
      33.090  -999.25000   1048.0000  -999.25000    -999.250    -999.250    3235.956    3119.406    2623.879
      33.100  -999.25000   1048.0000  -999.25000    -999.250    -999.250    3235.946    3119.446    2623.879
      33.110  -999.25000   1048.0000  -999.25000    -999.250    -999.250    3235.937    3119.483    2623.879
      33.120  -999.25000   1048.0000  -999.25000    -999.250    -999.250    3235.927    3119.517    2623.879
      33.130  -999.25000   1048.0000  -999.25000    -999.250    -999.250    3235.918    3119.547    2623.879
      33.140  -999.25000   1048.0000  -999.25000    -999.250    -999.250    3235.910    3119.573    2623.879
      33.150  -999.25000   1048.0000  -999.25000    -999.250    -999.250    3235.902    3119.594    2623.879
      33.160  -999.25000   1048.0000  -999.25000    -999.250    -999.250    3235.896    3119.611    2623.879
      33.170  -999.25000   1048.0000  -999.25000    -999.250    -999.250    3235.890    3119.621    2623.879
      33.180  -999.25000   1048.0000  -999.25000    -999.250    -999.250    3235.885    3119.626    2623.879
      33.190  -999.25000   1048.0000  -999.25000    -999.250    -999.250    3235.881    3119.624    2623.879
      33.200  -999.25000   1048.0000  -999.25000    -999.250    -999.250    3235.879    3119.616    2623.879
      33.210  -999.25000   1048.0000  -999.25000    -999.250    -999.250    3235.878    3119.600    2623.879
      33.220  -999.25000   1048.0000  -999.25000    -999.250    -999.250    3235.878    3119.577    2623.878
      33.230  -999.25000   1048.0000  -999.25000    -999.250    -999.250    3235.880    3119.547    2623.878
      33.240  -999.25000   1048.0000  -999.25000    -999.250    -999.250    3235.883    3119.509    2623.877
      33.250  -999.25000   1048.0000  -999.25000    -999.250    -999.250    3235.888    3119.463    2623.877
      33.260  -999.25000   1048.0000  -999.25000    -999.250    -999.250    3235.895    3119.408    2623.876
      33.270  -999.25000   1048.0000  -999.25000    -999.250    -999.250    3235.903    3119.346    2623.876
      33.280  -999.25000   1048.0000  -999.25000    -999.250    -999.250    3235.914    3119.276    2623.875
      33.290  -999.25000   1048.0000  -999.25000    -999.250    -999.250    3235.926    3119.199    2623.875
      33.300  -999.25000   1048.0000  -999.25000    -999.250    -999.250    3235.939    3119.114    2623.874
      33.310  -999.25000   1048.0000  -999.25000    -999.250    -999.250    3235.955    3119.022    2623.873
      33.320  -999.25000   1048.0000  -999.25000    -999.250    -999.250    3235.972    3118.923    2623.872
      33.330  -999.25000   1048.0000  -999.25000    -999.250    -999.250    3235.991    3118.818    2623.872
      33.340  -999.25000   1048.0000  -999.25000    -999.250    -999.250    3236.011    3118.708    2623.871
      33.350  -999.25000   1048.0000  -999.25000    -999.250    -999.250    3236.033    3118.592    2623.870
      33.360  -999.25000   1048.0000  -999.25000    -999.250    -999.250    3236.057    3118.473    2623.869
      33.370  -999.25000   1048.0000  -999.25000    -999.250    -999.250    3236.081    3118.350    2623.868
      33.380  -999.25000   1048.0000  -999.25000    -999.250    -999.250    3236.107    3118.225    2623.867
      33.390  -999.25000   1048.0000  -999.25000    -999.250    -999.250    3236.134    3118.098    2623.867
      33.400  -999.25000   1048.0000  -999.25000    -999.250    -999.250    3236.161    3117.971    2623.866
      33.410  -999.25000   1048.0000  -999.25000    -999.250    -999.250    3236.189    3117.845    2623.865
      33.420  -999.25000   1048.0000  -999.25000    -999.250    -999.250    3236.217    3117.722    2623.864
      33.430  -999.25000   1048.0000  -999.25000    -999.250    -999.250    3236.245    3117.601    2623.864
      33.440  -999.25000   1048.0000  -999.25000    -999.250    -999.250    3236.273    3117.485    2623.863
      33.450  -999.25000   1048.0000  -999.25000    -999.250    -999.250    3236.301    3117.375    2623.863
      33.460  -999.25000   1048.0000  -999.25000    -999.250    -999.250    3236.328    3117.272    2623.862
      33.470  -999.25000   1048.0000  -999.25000    -999.250    -999.250    3236.354    3117.178    2623.862
      33.480  -999.25000   1048.0000  -999.25000    -999.250    -999.250    3236.379    3117.094    2623.861
      33.490  -999.25000   1048.0000  -999.25000    -999.250    -999.250    3236.402    3117.021    2623.861
      33.500  -999.25000   1048.0000  -999.25000    -999.250    -999.250    3236.423    3116.962    2623.861
      33.510  -999.25000   1048.0000  -999.25000    -999.250    -999.250    3236.442    3116.916    2623.861
      33.520  -999.25000   1048.0000  -999.25000    -999.250    -999.250    3236.458    3116.886    2623.861
      33.530  -999.25000   1048.0000  -999.25000    -999.250    -999.250    3236.471    3116.872    2623.862
      33.540  -999.25000   1048.0000  -999.25000    -999.250    -999.250    3236.482    3116.876    2623.862
      33.550  -999.25000   1048.0000  -999.25000    -999.250    -999.250    3236.489    3116.898    2623.863
      33.560  -999.25000   1048.0000  -999.25000    -999.250    -999.250    3236.492    3116.941    2623.863
      33.570  -999.25000   1048.0000  -999.25000    -999.250    -999.250    3236.491    3117.003    2623.864
      33.580  -999.25000   1048.0000  -999.25000    -999.250    -999.250    3236.486    3117.087    2623.865
      33.590  -999.25000   1048.0000  -999.25000    -999.250    -999.250    3236.477    3117.192    2623.866
      33.600  -999.25000   1048.0000  -999.25000    -999.250    -999.250    3236.464    3117.319    2623.868
      33.610  -999.25000   1048.0000  -999.25000    -999.250    -999.250    3236.445    3117.468    2623.869
      33.620  -999.25000   1048.0000  -999.25000    -999.250    -999.250    3236.422    3117.640    2623.871
      33.630  -999.25000   1048.0000  -999.25000    -999.250    -999.250    3236.394    3117.832    2623.873
      33.640  -999.25000   1048.0000  -999.25000    -999.250    -999.250    3236.361    3118.046    2623.874
      33.650  -999.25000   1048.0000  -999.25000    -999.250    -999.250    3236.323    3118.281    2623.876
      33.660  -999.25000   1048.0000  -999.25000    -999.250    -999.250    3236.280    3118.536    2623.878
      33.670  -999.25000   1048.0000  -999.25000    -999.250    -999.250    3236.232    3118.809    2623.881
