~VERSION INFORMATION SECTION
VERS.           2.0  :CWLS Log ASCII Standard - 2.0
WRAP.           NO   :One line per depth
#               Created in SeisLab
~WELL INFORMATION SECTION
#MNEM.UNIT  VALUE/NAME               :DESCRIPTION    
STRT.m  47.59                        :Start Depth    
STOP.m  123.23                       :Stop Depth     
STEP.m  0.02                         :Step           
NULL.    -999.25                     :Null Value     
WELL.    GDP1                        :Well Name      
CTRY.    Switzerland                 :Country        
CNTY.                                :County         
STAT.    Central Swiss Alps          :State          
API .                                :API number     
UWI .                                :Unique well ID 
LOC .    Grimsel Pass, Switzerland   :Well Location  
FLD .    n/a                         :Field          
COMP.    n/a                         :Company        
SRVC.    University of Lausanne      :Service Company
DATE.    2017                        :Date           
~PARAMETER INFORMATION SECTION
#MNEM .UNITS  VALUE   :DESCRIPTION OF PARAMETER
Casing.n/a    1       :slotted PVC casing      
~CURVE INFORMATION SECTION
#MNEM.UNITS  API CODES   :DESCRIPTION OF MNEMONIC
depth.m                  :measured depth         
NG   .cps                :Natural gamma          
Sp   .mV                 :Self potential         
Temp .DegC               :Temperature            
SPR  .Ohm                :Single point resistance
R8   .Ohm.m              :Normal resistivity     
R16  .Ohm.m              :Single point resistance
R32  .Ohm.m              :Normal resistivity     
R64  .Ohm.m              :Normal resistivity     
~A depth       NG          Sp          Temp        SPR         R8          R16         R32         R64         
# ...
      91.990   303.53100    864.5000     6.95313      5458.7      1054.9      784.07      863.93     1178.05
      92.010   321.10900    880.7500     6.98633      5027.4       896.9      766.07      862.59     1182.16
      92.030   305.06300    897.5000     6.97852      4788.3       781.6      750.12      865.45     1186.08
      92.050   299.37500    889.7500     6.96680      4618.9       701.3      737.96      867.54     1183.78
      92.070   315.56300    877.1250     6.97266      4511.8       650.5      730.22      863.81     1180.23
      92.090   286.84400    877.5000     6.95801      4446.6       622.6      724.46      859.57     1174.28
      92.110   319.73400    879.6250     6.96289      4388.8       606.2      716.22      862.94     1178.58
      92.130   310.90600    865.5000     6.98340      4319.1       596.3      707.72      866.87     1174.01
      92.150   318.79700    849.1250     6.95996      4255.7       591.2      702.89      864.01     1165.11
      92.170   309.68800    847.5000     6.97266      4217.4       590.7      703.80      862.72     1168.44
      92.190   346.34400    848.7500     6.97461      4191.1       592.5      704.36      865.71     1174.68
      92.210   321.71900    839.2500     6.98340      4161.4       593.8      705.95      871.86     1180.23
      92.230   288.73400    827.1250     6.99316      4131.1       596.4      710.26      873.98     1172.88
      92.250   365.78100    828.2500     6.97949      4113.4       598.4      713.97      870.75     1179.06
      92.270   341.45300    832.1250     6.99902      4115.4       601.1      713.81      872.18     1188.36
      92.290   324.48400    848.6250     6.99023      4143.2       604.7      713.75      875.76     1192.35
      92.310   308.39100    867.7500     6.98340      4197.1       610.2      716.26      872.30     1191.53
      92.330   302.73400    879.5000     6.99512      4254.6       619.5      717.64      864.03     1197.72
      92.350   260.75000    890.2500     6.98340      4292.2       632.0      716.28      861.90     1208.06
      92.370   303.84400    913.7500     6.97266      4322.6       646.2      715.85      861.18     1209.42
      92.390   293.09400    938.8750     7.00195      4376.7       664.2      719.03      860.00     1207.43
      92.410   303.32800    960.5000     6.97949      4470.0       687.4      724.65      858.91     1218.09
      92.430   275.14100    981.6250     6.99316      4594.0       713.1      728.11      861.49     1227.84
      92.450   306.93800   1005.8800     6.98633      4723.2       739.4      727.67      863.28     1241.92
      92.470   296.90600   1031.0000     6.95801      4828.8       769.4      731.21      860.57     1240.82
      92.490   288.28100   1045.6300     7.00391      4902.6       806.4      738.25      857.09     1245.63
      92.510   282.81300   1058.6300     6.97852      4950.4       850.8      742.87      851.97     1246.67
      92.530   287.10900   1059.5000     6.98340      4979.3       898.0      746.40      851.43     1244.94
      92.550   275.28100   1058.5000     6.96484      5000.6       941.5      754.73      846.05     1257.37
      92.570   281.89100   1058.8800     6.99219      5041.4       978.6      764.91      838.02     1251.65
      92.590   295.45300   1059.7500     6.99902      5141.0      1004.4      776.14      837.59     1253.04
      92.610   290.40600   1058.0000     6.99902      5299.0      1016.1      791.20      839.37     1247.35
      92.630   305.70300   1056.6300     6.99707      5472.9      1017.4      810.77      840.61     1250.70
      92.650   293.76600   1052.0000     6.99707      5609.7      1016.5      829.35      835.38     1254.04
      92.670   267.09400   1047.5000     6.99219      5682.2      1016.0      842.41      838.27     1269.30
      92.690   290.21900   1037.7500     7.00391      5676.2      1018.5      848.68      843.41     1269.25
      92.710   293.18800   1026.8800     6.97656      5597.9      1024.2      847.95      847.21     1276.56
      92.730   270.67200   1026.2500     7.01758      5492.2      1030.5      846.42      850.38     1290.00
      92.750   294.93800   1027.2500     7.00391      5398.4      1030.8      839.69      858.15     1296.02
      92.770   271.67200   1022.8800     7.01953      5323.3      1020.0      831.53      869.06     1282.91
      92.790   277.79700   1018.0000     6.99023      5251.5       999.9      828.82      875.92     1267.73
      92.810   264.17200   1021.7500     7.00391      5192.9       972.0      829.13      882.17     1286.93
      92.830   288.85900   1028.0000     7.01367      5167.5       941.5      830.30      896.49     1305.57
      92.850   261.89100   1023.1300     7.01074      5148.5       908.6      828.00      910.17     1367.43
      92.870   282.76600   1017.0000     6.99219      5097.0       877.9      830.44      926.89     1534.71
      92.890   282.26600   1009.6300     7.00000      5019.1       855.4      833.05      936.29     2008.36
      92.910   271.04700   1002.0000     7.02734      4927.1       838.7      834.30      949.04     3373.54
      92.930   297.43800    999.0000     6.99707      4818.8       825.7      834.32      958.41    12405.40
      92.950   299.31300    996.8750     6.97949      4697.6       813.5      836.12      965.86    -8013.10
      92.970   294.29700   1003.1300     7.00195      4592.5       805.8      838.77      980.05    -3447.22
      92.990   268.75000   1010.8800     6.99707      4528.8       798.6      837.94      983.09    -2831.88
      93.010   292.42200   1016.0000     6.98145      4489.5       790.2      836.08      991.38    -3429.57
      93.030   277.85900   1021.5000     7.00000      4450.6       781.4      838.54      996.23    -7815.56
      93.050   258.46900   1022.0000     6.98828      4411.2       774.5      840.00     1006.11    12114.00
      93.070   238.18000   1022.0000     6.99219      4383.6       769.9      843.67     1015.88     3117.10
      93.090   257.28100   1021.5000     6.98340      4357.7       765.7      842.49     1032.09     1826.29
      93.110   286.57800   1021.0000     7.00000      4338.4       762.1      842.87     1038.69     1461.88
      93.130   280.81300   1025.5000     6.99707      4347.7       760.9      840.47     1047.19     1328.36
      93.150   242.67200   1030.5000     7.00879      4393.8       758.1      837.90     1057.05     1297.07
      93.170   242.35900   1035.1300     6.99707      4467.2       755.0      841.17     1062.02     1286.12
      93.190   266.01600   1039.7500     7.00195      4543.2       747.3      839.72     1056.05     1264.95
      93.210   267.42200   1041.2500     7.04492      4602.9       739.5      843.75     1050.28     1252.75
      93.230   263.68800   1042.5000     7.01270      4643.3       729.4      846.69     1067.14     1262.85
      93.250   290.37500   1046.5000     7.02734      4656.2       719.8      853.55     1094.65     1267.89
      93.270   230.57000   1050.8800     7.02734      4640.4       715.5      860.26     1171.71     1257.25
      93.290   275.70300   1052.3800     7.04688      4595.6       709.8      870.35     1360.43     1258.45
      93.310   272.92200   1053.0000     7.04980      4523.1       708.5      875.69     1854.83     1265.20
      93.330   259.09400   1059.7500     7.05371      4433.6       708.1      882.83     3253.88     1270.86
      93.350   278.56300   1067.0000     7.03320      4351.8       711.8      889.68    12375.20     1270.72
      93.370   296.10900   1072.0000     7.03418      4296.1       718.0      893.99    -8345.04     1291.22
      93.390   280.01600   1077.5000     7.06543      4274.2       729.1      893.88    -3797.03     1310.54
      93.410   266.62500   1079.6300     7.06641      4296.6       739.3      894.99    -3166.34     1323.66
      93.430   266.67200   1081.7500     7.05176      4357.7       753.2      912.68    -3717.05     1320.65
      93.450   287.06300   1087.3800     7.05176      4461.8       769.8      945.15    -7888.89     1324.59
