~VERSION INFORMATION SECTION
VERS.           2.0  :CWLS Log ASCII Standard - 2.0
WRAP.           NO   :One line per depth
#               Created in SeisLab
~WELL INFORMATION SECTION
#MNEM.UNIT  VALUE/NAME               :DESCRIPTION    
STRT.m  10                           :Start Depth    
STOP.m  124                          :Stop Depth     
STEP.m  0.01                         :Step           
NULL.    -999.25                     :Null Value     
WELL.    GDP1                        :Well Name      
CTRY.    Switzerland                 :Country        
CNTY.                                :County         
STAT.    Central Swiss Alps          :State          
API .                                :API number     
UWI .                                :Unique well ID 
LOC .    Grimsel pass, Switzerland   :Well Location  
FLD .    n/a                         :Field          
COMP.    n/a                         :Company        
SRVC.    University of Lausanne      :Service Company
DATE.    2015                        :Date           
~PARAMETER INFORMATION SECTION
#MNEM .UNITS    VALUE   :DESCRIPTION OF PARAMETER
Casing.n/a      0       :open hole               
Mud   .Polymer  1       :Mud type                
~CURVE INFORMATION SECTION
#MNEM.UNITS  API CODES   :DESCRIPTION OF MNEMONIC      
depth.m                  :measured depth (interpolated)
Cal  .mm                 :Caliper                      
NN   .cps                :Neutron-Neutron              
GG   .cps                :Gamma-Gamma                  
~A depth       Cal         NN          GG          
# ...
     100.200   100.34496    527.0395    935.7578
     100.210    99.02612    518.0845    932.9954
     100.220    98.96218    513.9323    934.6796
     100.230    98.89823    509.7801    936.3638
     100.240    99.28124    506.6907    937.9523
     100.250    99.66426    503.6013    939.5408
     100.260    99.80222    501.8575    937.6117
     100.270    99.94018    500.1137    935.6826
     100.280    99.89146    506.0885    932.3684
     100.290    99.84273    512.0633    929.0543
     100.300    99.84264    510.4666    929.3858
     100.310    99.84255    508.8698    929.7173
     100.320    99.84233    501.7929    940.4877
     100.330    99.84211    494.7159    951.2582
     100.340    99.84151    493.4665    953.0604
     100.350    99.84090    492.2171    954.8625
     100.360    99.84151    488.7085    951.8311
     100.370    99.84211    485.1999    948.7996
     100.380    99.84233    480.4024    939.8446
     100.390    99.84255    475.6048    930.8896
     100.400    99.84328    477.7861    955.4766
     100.410    99.84400    479.9673    980.0636
     100.420    99.84369    477.6460   1006.3363
     100.430    99.84338    475.3247   1032.6090
     100.440    99.84296    469.6564   1038.5515
     100.450    99.84255    463.9880   1044.4940
     100.460    99.84233    460.5090   1058.9180
     100.470    99.84211    457.0301   1073.3420
     100.480    99.84211    458.7516   1077.3955
     100.490    99.84211    460.4731   1081.4490
     100.500    99.84264    465.4107   1052.4795
     100.510    99.84317    470.3483   1023.5100
     100.520    99.84390    463.0429   1043.1315
     100.530    99.84462    455.7374   1062.7530
     100.540    99.84462    457.4929   1085.3225
     100.550    99.84462    459.2484   1107.8920
     100.560    99.84462    467.0701   1102.4225
     100.570    99.84462    474.8917   1096.9530
     100.580    99.84516    468.1977   1084.9635
     100.590    99.84569    461.5037   1072.9740
     100.600    99.84516    458.7549   1061.7225
     100.610    99.84462    456.0061   1050.4710
     100.620    99.84495    456.6366   1045.9285
     100.630    99.84528    457.2671   1041.3860
     100.640    99.84433    462.5767   1046.0615
     100.650    99.84338    467.8863   1050.7370
     100.660    99.84369    466.7725   1061.8455
     100.670    99.84400    465.6586   1072.9540
     100.680    99.84453    460.0668   1093.9320
     100.690    99.84506    454.4751   1114.9100
     100.700    99.84484    456.3778   1110.3375
     100.710    99.84462    458.2804   1105.7650
     100.720    99.84400    466.2716   1102.1690
     100.730    99.84338    474.2628   1098.5730
     100.740    99.84433    485.5763   1116.2690
     100.750    99.84528    496.8898   1133.9650
     100.760    99.84528    487.2658   1126.8825
     100.770    99.84528    477.6417   1119.8000
     100.780    99.84581    472.6610   1104.8390
     100.790    99.84634    467.6803   1089.8780
     100.800    99.84642    466.2644   1072.7685
     100.810    99.84651    464.8484   1055.6590
     100.820    99.84620    462.7803   1066.1725
     100.830    99.84589    460.7121   1076.6860
     100.840    99.84684    458.7224   1089.8690
     100.850    99.84779    456.7327   1103.0520
     100.860    99.84779    455.8805   1102.8170
     100.870    99.84779    455.0283   1102.5820
     100.880    99.84842    470.1875   1115.1090
     100.890    99.84905    485.3467   1127.6360
     100.900    99.85000    493.3254   1139.2210
     100.910    99.85094    501.3040   1150.8060
     100.920    99.85262    503.6553   1150.5965
     100.930    99.85429    506.0067   1150.3870
     100.940    99.85513    507.5560   1147.4925
     100.950    99.85597    509.1054   1144.5980
     100.960    99.85722    504.0222   1139.2180
     100.970    99.85848    498.9391   1133.8380
     100.980    99.86021    488.7010   1124.0050
     100.990    99.86195    478.4630   1114.1720
     101.000    99.86159    468.0960   1113.7070
     101.010    99.86124    457.7291   1113.2420
     101.020    99.86312    449.8933   1116.0600
     101.030    99.86501    442.0575   1118.8780
     101.040    99.86658    437.7641   1123.2960
     101.050    99.86815    433.4707   1127.7140
     101.060    99.86974    452.5805   1118.0190
     101.070    99.87132    471.6902   1108.3240
     101.080    99.87226    480.2217   1099.9465
     101.090    99.87321    488.7531   1091.5690
     101.100    99.87488    488.4137   1096.9515
     101.110    99.87654    488.0742   1102.3340
     101.120    99.87938    477.7518   1110.7610
     101.130    99.88222    467.4294   1119.1880
     101.140    99.88915    474.2130   1117.5530
     101.150    99.89608    480.9967   1115.9180
     101.160    99.90353    499.5257   1085.9645
     101.170    99.91098    518.0547   1056.0110
     101.180    99.92169    513.4630   1078.9045
     101.190    99.93240    508.8714   1101.7980
     101.200    99.94742    504.1420   1119.8155
     101.210    99.96244    499.4127   1137.8330
     101.220    99.96458    493.8757   1104.3750
     101.230    99.96672    488.3388   1070.9170
     101.240    99.96403    472.3191   1072.1710
     101.250    99.96134    456.2994   1073.4250
     101.260    99.96197    455.6481   1080.8370
     101.270    99.96259    454.9967   1088.2490
     101.280    99.97365    465.3649   1086.0905
     101.290    99.98470    475.7331   1083.9320
     101.300    99.99325    472.3952   1089.9650
     101.310   100.00180    469.0572   1095.9980
     101.320    99.94201    466.7970   1099.9060
     101.330    99.88222    464.5368   1103.8140
     101.340    99.88505    463.5629   1096.2210
     101.350    99.88789    462.5891   1088.6280
     101.360    99.88820    468.3060   1087.1745
     101.370    99.88851    474.0229   1085.7210
     101.380    99.88945    482.2769   1090.0385
     101.390    99.89040    490.5309   1094.3560
     101.400    99.89073    498.9372   1109.0860
     101.410    99.89106    507.3435   1123.8160
     101.420    99.89242    488.7717   1116.2205
     101.430    99.89378    470.1999   1108.6250
     101.440    99.89462    464.7022   1101.6045
     101.450    99.89546    459.2045   1094.5840
     101.460    99.89651    462.7799   1105.4380
     101.470    99.89756    466.3553   1116.2920
     101.480    99.89845    454.1743   1110.3135
     101.490    99.89933    441.9933   1104.3350
     101.500    99.90059    440.2688   1096.3685
     101.510    99.90185    438.5443   1088.4020
     101.520    99.90334    445.1298   1087.6480
     101.530    99.90483    451.7153   1086.8940
     101.540    99.90749    461.0299   1083.8845
     101.550    99.91015    470.3446   1080.8750
     101.560    99.91215    475.6571   1073.2900
     101.570    99.91414    480.9696   1065.7050
     101.580    99.91751    483.0855   1047.9540
     101.590    99.92088    485.2014   1030.2030
     101.600    99.92580    486.0433   1041.2180
     101.610    99.93073    486.8853   1052.2330
     101.620    99.94722    482.4564   1066.9505
     101.630    99.96371    478.0275   1081.6680
     101.640   100.04981    469.8497   1084.8470
     101.650   100.13590    461.6720   1088.0260
     101.660   100.87785    458.5827   1086.2210
     101.670   101.61980    455.4933   1084.4160
     101.680   101.16320    465.1494   1076.5015
     101.690   100.70660    474.8055   1068.5870
     101.700   100.39945    492.6492   1048.5260
     101.710   100.09230    510.4929   1028.4650
     101.720   100.09360    502.7043   1016.6430
     101.730   100.09490    494.9157   1004.8210
     101.740   100.11980    494.1703   1000.2506
     101.750   100.14470    493.4248    995.6802
     101.760   100.27060    499.1681   1003.8376
     101.770   100.39650    504.9115   1011.9950
     101.780   100.59910    525.8438   1010.3345
     101.790   100.80170    546.7760   1008.6740
     101.800   100.52955    541.3119   1006.5520
     101.810   100.25740    535.8478   1004.4300
     101.820   100.52475    512.3396   1008.3215
     101.830   100.79210    488.8314   1012.2130
