~VERSION INFORMATION SECTION
VERS.           2.0  :CWLS Log ASCII Standard - 2.0
WRAP.           NO   :One line per depth
#               Created in SeisLab
~WELL INFORMATION SECTION
#MNEM.UNIT  VALUE/NAME               :DESCRIPTION    
STRT.m  10                           :Start Depth    
STOP.m  125                          :Stop Depth     
STEP.m  0.01                         :Step           
NULL.    -999.25                     :Null Value     
WELL.    GDP1                        :Well Name      
CTRY.    Switzerland                 :Country        
CNTY.                                :County         
STAT.    Central Swiss Alps          :State          
API .                                :API number     
UWI .                                :Unique well ID 
LOC .    Grimsel Pass, Switzerland   :Well Location  
FLD .    n/a                         :Field          
COMP.    n/a                         :Company        
SRVC.    University of Lausanne      :Service Company
DATE.    2015                        :Date           
~PARAMETER INFORMATION SECTION
#MNEM .UNITS    VALUE   :DESCRIPTION OF PARAMETER
Casing.n/a      0       :open hole               
Mud   .Polymer  1       :Mud type                
~CURVE INFORMATION SECTION
#MNEM.UNITS  API CODES   :DESCRIPTION OF MNEMONIC
depth.m                  :measured depth         
NG   .cps                :Natural gamma          
Sp   .mV                 :Self potential         
Temp .DegC               :Temperature            
SPR  .Ohm                :Single point resistance
R8   .Ohm.m              :Normal resistivity     
R16  .Ohm.m              :Single point resistance
R32  .Ohm.m              :Normal resistivity     
R64  .Ohm.m              :Normal resistivity     
~A depth       NG          Sp          Temp        SPR         R8          R16         R32         R64         
# ...
      78.080   202.15322    494.5558    10.65625    1193.468     288.962     437.630     655.141     904.360
      78.090   201.01628    495.3036    10.67190    1203.594     289.684     438.143     654.510     909.897
      78.100   199.81177    496.1009    10.68555    1214.447     290.378     438.635     653.953     915.537
      78.110   198.54967    496.9651    10.69920    1225.974     291.042     439.106     653.474     921.256
      78.120   197.24036    497.9031    10.70900    1238.118     291.677     439.554     653.075     927.029
      78.130   195.89446    498.9097    10.71880    1250.824     292.280     439.981     652.758     932.831
      78.140   194.52289    499.9672    10.71095    1264.034     292.852     440.385     652.526     938.639
      78.150   193.13674    501.0472    10.70310    1277.690     293.390     440.766     652.380     944.427
      78.160   191.74725    502.1123    10.69430    1291.734     293.896     441.125     652.320     950.171
      78.170   190.36570    503.1204    10.68550    1306.108     294.368     441.462     652.347     955.848
      78.180   189.00334    504.0287    10.69040    1320.753     294.807     441.779     652.461     961.435
      78.190   187.67133    504.7983    10.69530    1335.614     295.212     442.075     652.661     966.911
      78.200   186.38073    505.3989    10.69530    1350.632     295.585     442.352     652.947     972.255
      78.210   185.14238    505.8124    10.69530    1365.754     295.925     442.612     653.316     977.447
      78.220   183.96686    506.0359    10.70705    1380.926     296.233     442.857     653.767     982.470
      78.230   182.86430    506.0830    10.71880    1396.096     296.511     443.087     654.297     987.307
      78.240   181.84423    505.9837    10.68655    1411.215     296.759     443.305     654.904     991.942
      78.250   180.91551    505.7831    10.65430    1426.236     296.979     443.512     655.585     996.363
      78.260   180.08620    505.5378    10.67385    1441.114     297.174     443.712     656.336    1000.557
      78.270   179.36351    505.3123    10.69340    1455.808     297.343     443.907     657.154    1004.514
      78.280   178.75373    505.1730    10.67580    1470.280     297.491     444.098     658.034    1008.225
      78.290   178.26219    505.1838    10.65820    1484.493     297.618     444.289     658.971    1011.684
      78.300   177.89319    505.4005    10.67775    1498.415     297.727     444.481     659.962    1014.885
      78.310   177.65000    505.8672    10.69730    1512.018     297.821     444.678     661.001    1017.824
      78.320   177.53480    506.6131    10.69825    1525.276     297.902     444.881     662.083    1020.499
      78.330   177.54877    507.6508    10.69920    1538.169     297.973     445.093     663.203    1022.909
      78.340   177.69213    508.9752    10.68260    1550.676     298.037     445.317     664.355    1025.054
      78.350   177.96414    510.5637    10.66600    1562.785     298.097     445.553     665.533    1026.935
      78.360   178.36312    512.3767    10.68750    1574.483     298.155     445.806     666.731    1028.555
      78.370   178.88640    514.3595    10.70900    1585.764     298.215     446.076     667.944    1029.918
      78.380   179.53021    516.4442    10.68460    1596.624     298.278     446.365     669.165    1031.028
      78.390   180.28962    518.5536    10.66020    1607.061     298.349     446.676     670.388    1031.891
      78.400   181.15844    520.6043    10.67285    1617.079     298.429     447.008     671.606    1032.513
      78.410   182.12924    522.5116    10.68550    1626.682     298.521     447.364     672.814    1032.900
      78.420   183.19336    524.1932    10.68550    1635.880     298.629     447.745     674.004    1033.060
      78.430   184.34107    525.5741    10.68550    1644.685     298.753     448.151     675.171    1033.000
      78.440   185.56167    526.5899    10.67870    1653.109     298.897     448.583     676.309    1032.729
      78.450   186.84362    527.1906    10.67190    1661.169     299.063     449.042     677.410    1032.254
      78.460   188.17472    527.3429    10.69045    1668.884     299.251     449.526     678.468    1031.585
      78.470   189.54226    527.0320    10.70900    1676.274     299.465     450.037     679.479    1030.730
      78.480   190.93317    526.2620    10.70900    1683.361     299.706     450.573     680.435    1029.698
      78.490   192.33427    525.0556    10.70900    1690.169     299.975     451.135     681.332    1028.499
      78.500   193.73250    523.4525    10.71585    1696.723     300.272     451.720     682.164    1027.142
      78.510   195.11511    521.5064    10.72270    1703.048     300.600     452.328     682.926    1025.636
      78.520   196.46975    519.2816    10.70315    1709.171     300.958     452.957     683.614    1023.991
      78.530   197.78459    516.8493    10.68360    1715.119     301.348     453.606     684.223    1022.217
      78.540   199.04836    514.2835    10.67385    1720.920     301.768     454.272     684.751    1020.324
      78.550   200.25043    511.6577    10.66410    1726.601     302.220     454.952     685.194    1018.321
      78.560   201.38097    509.0425    10.65335    1732.189     302.703     455.645     685.550    1016.219
      78.570   202.43117    506.5029    10.64260    1737.710     303.217     456.347     685.818    1014.029
      78.580   203.39338    504.0966    10.65040    1743.193     303.760     457.056     685.996    1011.760
      78.590   204.26137    501.8732    10.65820    1748.661     304.334     457.767     686.085    1009.423
      78.600   205.03050    499.8727    10.66990    1754.140     304.936     458.478     686.085    1007.029
      78.610   205.69783    498.1250    10.68160    1759.654     305.565     459.183     685.999    1004.588
      78.620   206.26227    496.6501    10.68650    1765.224     306.220     459.880     685.829    1002.112
      78.630   206.72458    495.4585    10.69140    1770.872     306.901     460.564     685.579     999.612
      78.640   207.08722    494.5519    10.69435    1776.618     307.604     461.230     685.254     997.098
      78.650   207.35412    493.9248    10.69730    1782.479     308.330     461.874     684.859     994.583
      78.660   207.53048    493.5658    10.69630    1788.471     309.075     462.492     684.401     992.076
      78.670   207.62241    493.4599    10.69530    1794.611     309.840     463.079     683.888     989.590
      78.680   207.63679    493.5902    10.70995    1800.910     310.620     463.630     683.329     987.136
      78.690   207.58110    493.9393    10.72460    1807.381     311.416     464.140     682.734     984.724
      78.700   207.46337    494.4911    10.68260    1814.033     312.224     464.606     682.111     982.365
      78.710   207.29226    495.2313    10.64060    1820.873     313.044     465.023     681.474     980.069
      78.720   207.07704    496.1477    10.65625    1827.909     313.872     465.387     680.834     977.848
      78.730   206.82768    497.2305    10.67190    1835.144     314.708     465.694     680.203     975.711
      78.740   206.55472    498.4713    10.67285    1842.582     315.550     465.941     679.594     973.667
      78.750   206.26918    499.8632    10.67380    1850.224     316.396     466.125     679.021     971.726
      78.760   205.98233    501.3995    10.67090    1858.070     317.244     466.243     678.496     969.896
      78.770   205.70552    503.0734    10.66800    1866.120     318.093     466.294     678.033     968.185
      78.780   205.44990    504.8774    10.65920    1874.370     318.941     466.275     677.645     966.600
      78.790   205.22629    506.8021    10.65040    1882.817     319.788     466.187     677.346     965.149
      78.800   205.04494    508.8359    10.66115    1891.456     320.632     466.029     677.147     963.835
      78.810   204.91547    510.9646    10.67190    1900.281     321.473     465.802     677.060     962.666
