~VERSION INFORMATION SECTION
VERS.           2.0  :CWLS Log ASCII Standard - 2.0
WRAP.           NO   :One line per depth
#               Created in SeisLab
~WELL INFORMATION SECTION
#MNEM.UNIT  VALUE/NAME               :DESCRIPTION    
STRT.m  33.03                        :Start Depth    
STOP.m  122.23                       :Stop Depth     
STEP.m  0.03                         :Step           
NULL.    -999.25                     :Null Value     
WELL.    GDP1                        :Well Name      
CTRY.    Switzerland                 :Country        
CNTY.                                :County         
STAT.    Central Swiss Alps          :State          
API .                                :API number     
UWI .                                :Unique well ID 
LOC .    Grimsel Pass, Switzerland   :Well Location  
FLD .    n/a                         :Field          
COMP.    n/a                         :Company        
SRVC.    University of Lausanne      :Service Company
DATE.    2016                        :Date           
~PARAMETER INFORMATION SECTION
#MNEM .UNITS  VALUE   :DESCRIPTION OF PARAMETER
Casing.n/a    1       :slotted PVC casing      
~CURVE INFORMATION SECTION
#MNEM.UNITS  API CODES   :DESCRIPTION OF MNEMONIC
depth.m                  :measured depth         
NG   .cps                :Natural gamma          
Sp   .mV                 :Self potential         
Temp .DegC               :Temperature            
SPR  .Ohm                :Single point resistance
R8   .Ohm.m              :Normal resistivity     
R16  .Ohm.m              :Single point resistance
R32  .Ohm.m              :Normal resistivity     
R64  .Ohm.m              :Normal resistivity     
~A depth       NG          Sp          Temp        SPR         R8          R16         R32         R64         
# ...
      79.650   271.59400   1079.5000     7.07715        3810       572.0       754.7      1179.7      1224.3
      79.680   275.29700   1074.7500     7.04297        3800       541.8       721.1      1159.7      1127.2
      79.710   262.71900   1066.3800     7.06055        3878       547.0       676.5      1091.0      1226.0
      79.740   269.45300   1056.8800     7.07324        4005       579.5       670.2      1031.3      1235.0
      79.780   288.65600   1067.1300     7.05371        4069       564.1       676.5       860.3      1081.6
      79.810   286.14100   1081.2500     7.05469        4118       548.1       746.1       754.7      1243.4
      79.830   280.95300   1090.1300     7.05664        4173       553.7       807.2       796.2      1408.5
      79.870   223.47700   1097.8800     7.05176        4209       567.0       843.5       702.5      1088.4
      79.900   275.73400   1102.2500     7.08008        4156       611.8       826.5       857.2       897.3
      79.930   264.10900   1105.0000     7.05176        4109       653.0       788.0       831.0      1148.5
      79.960   240.01600   1107.7500     7.04980        4130       679.7       751.9       995.1      1289.2
      79.990   249.51600   1110.8800     7.07227        4115       672.3       658.9      1015.8      1143.1
      80.010   252.79700   1116.3800     7.05176        4113       653.7       622.2       849.3      1057.8
      80.040   281.00000   1122.1300     7.04297        4140       636.3       652.9       949.0      1308.7
      80.070   260.89100   1122.7500     7.03320        4157       592.1       585.5       810.1      1419.3
      80.100   249.89100   1123.3800     7.05469        4112       579.1       670.5       926.3      1135.9
      80.130   271.06300   1118.0000     7.06055        4033       600.3       658.3       820.2      1130.2
      80.170   293.06300   1111.6300     7.01758        3976       565.5       746.7       945.9      1479.6
      80.190   257.28100   1108.0000     7.02441        3992       612.3       759.0       817.8      1400.1
      80.220   252.09400   1105.1300     7.05176        4065       598.8       670.1       856.5      1141.4
      80.260   301.60900   1099.8800     7.05176        4095       639.9       728.5      1060.4      1134.7
      80.290   241.99200   1093.8800     7.04004        4063       641.8       654.6       851.6      1199.6
      80.320   288.84400   1099.1300     7.06055        4075       589.4       723.7       835.3      1365.3
      80.350   216.21100   1106.6300     7.07324        4050       620.7       668.6       961.7      1552.6
      80.380   271.12500   1125.3800     7.07227        4011       577.5       747.9      2285.2      1724.7
      80.400   228.08600   1147.1300     7.06055        3968       613.4       673.1      4235.8      1698.7
      80.430   245.16400   1141.1300     7.05371        3977       579.0       715.0      2258.6      1564.3
      80.460   264.90600   1129.2500     7.07031        4038       619.1       850.2      4981.0      1458.5
      80.490   252.00800   1134.1300     7.06543        4036       574.5       724.8     10548.6      1149.9
      80.530   234.75000   1142.3800     7.04492        4065       596.8       729.6       914.2       944.3
      80.560   241.36700   1135.2500     7.08203        4060       676.8       857.3       970.9      1025.4
      80.580   261.82800   1124.5000     7.08594        4085       622.9      1879.9       819.1       888.7
      80.620   272.92200   1099.7500     7.06543        4025       676.3      4381.2       805.6      1173.1
      80.650   230.33600   1071.1300     7.04785        4037       894.3      5454.8       903.6      1115.9
      80.680   257.45300   1006.0000     7.03613        4232      1974.6     -1089.6       887.7      1428.4
      80.710   264.18800    934.1250     7.06543        4711      6469.2      -598.5       724.4      1465.2
      80.740   224.89100    829.8750     7.05176        7515     17837.8      1477.1       620.6      1158.8
      80.760   233.26600    719.6250     7.06055       16630    -22270.1       892.3       693.1      1345.9
      80.790   217.41400    679.5000     7.04102       44396    -86932.5       746.7       859.2      1098.9
      80.820   239.92200    652.1250     7.06543      176272     25359.4       698.1       942.1      1319.1
      80.850   237.60900    645.5000     7.08203      411685      8576.6       738.5       940.1      1137.7
      80.880   229.08600    643.5000     7.04102     -352550      5510.3       757.2       927.2      1382.4
      80.920   225.01600    690.3750     7.05469     -547271      3497.5       677.5       932.4      1166.3
      80.940   218.11700    746.3750     7.06641       79725      2206.1       644.5       865.6      1215.5
      80.970   221.50800    820.7500     7.07324       16401      1527.6       723.8       758.6      1590.5
      81.010   254.21900    898.8750     7.07324        7830      1030.0       822.5       805.5      1216.2
      81.040   227.82000    946.1250     7.07227        5388       785.3       847.2       785.5      1155.9
      81.070   236.43800    987.1250     7.07520        4391       669.7       809.1       668.3      1372.2
      81.100   226.41400   1035.0000     7.08398        4094       663.2       788.4       748.5      3592.1
      81.130   226.46900   1084.0000     7.05859        3894       644.0       786.8       942.1      5721.9
      81.150   229.14100   1102.3800     7.08691        3848       628.1       743.1       953.2      -639.2
      81.180   233.09400   1114.5000     7.10645        3881       624.8       682.4       855.9     14020.2
      81.210   237.36700   1105.3800     7.09961        3980       642.3       690.3       869.6     27316.0
      81.240   224.33600   1091.8800     7.06641        4100       638.2       654.8       913.8       868.5
      81.280   213.90600   1099.1300     7.06543        4172       628.7       595.9       951.2      1438.7
      81.310   215.75000   1111.0000     7.06348        4228       657.8       660.0       932.6      1158.2
      81.330   207.36700   1120.2500     7.09766        4264       651.2       764.2       821.9      1179.5
      81.370   225.04700   1129.2500     7.07031        4269       634.0       748.6       822.9      1381.5
      81.400   249.69500   1134.8800     7.05371        4313       673.6       692.8       883.7      1322.6
      81.430   188.85200   1140.5000     7.11328        4335       733.1       718.9       829.8       995.5
      81.460   218.60900   1137.2500     7.07227        4269       726.9       750.2       812.8       800.0
      81.490   223.28100   1132.3800     7.05859        4202       697.2       775.1       849.0       926.2
      81.510   219.71900   1147.2500     7.07910        4131       711.9       783.4       718.6      1225.3
      81.540   207.02300   1166.1300     7.08398        4063       720.6       755.7       562.5      1388.5
      81.570   220.55500   1163.3800     7.08887        3971       725.8       759.2       598.4      1409.1
      81.600   253.05500   1155.8800     7.08008        3903       718.1       774.2       782.6      1381.5
      81.630   219.20300   1150.8800     7.09277        3927       694.3       756.4       956.6      1354.3
      81.670   211.87500   1147.2500     7.09570        3935       684.1       776.7       936.2      1204.3
      81.690   199.65600   1139.0000     7.10254        3946       677.0       798.2       891.6       977.2
      81.720   195.57800   1130.0000     7.07910        3967       659.5       711.1      1009.8      1070.3
      81.760   210.11700   1119.0000     7.09375        4014       663.3       630.1      1038.3      1067.6
      81.790   212.89800   1106.3800     7.09082        4067       666.6       664.5       980.0       828.0
      81.820   221.90600   1110.6300     7.10059        4076       615.1       765.0      1027.1       924.0
      81.850   219.71900   1118.3800     7.07324        4087       569.7       852.4       965.9      1323.5
