~VERSION INFORMATION SECTION
VERS.           2.0  :CWLS Log ASCII Standard - 2.0
WRAP.           NO   :One line per depth
#               Created in SeisLab
~WELL INFORMATION SECTION
#MNEM.UNIT  VALUE/NAME               :DESCRIPTION    
STRT.m  47.59                        :Start Depth    
STOP.m  123.23                       :Stop Depth     
STEP.m  0.02                         :Step           
NULL.    -999.25                     :Null Value     
WELL.    GDP1                        :Well Name      
CTRY.    Switzerland                 :Country        
CNTY.                                :County         
STAT.    Central Swiss Alps          :State          
API .                                :API number     
UWI .                                :Unique well ID 
LOC .    Grimsel Pass, Switzerland   :Well Location  
FLD .    n/a                         :Field          
COMP.    n/a                         :Company        
SRVC.    University of Lausanne      :Service Company
DATE.    2017                        :Date           
~PARAMETER INFORMATION SECTION
#MNEM .UNITS  VALUE   :DESCRIPTION OF PARAMETER
Casing.n/a    1       :slotted PVC casing      
~CURVE INFORMATION SECTION
#MNEM.UNITS  API CODES   :DESCRIPTION OF MNEMONIC
depth.m                  :measured depth         
NG   .cps                :Natural gamma          
Sp   .mV                 :Self potential         
Temp .DegC               :Temperature            
SPR  .Ohm                :Single point resistance
R8   .Ohm.m              :Normal resistivity     
R16  .Ohm.m              :Single point resistance
R32  .Ohm.m              :Normal resistivity     
R64  .Ohm.m              :Normal resistivity     
~A depth       NG          Sp          Temp        SPR         R8          R16         R32         R64         
# ...
     111.230   254.89800   1022.7500     7.69434     -1181.6     10557.0     9626.63    37710.10     4942.23
     111.250   303.71900   1033.7500     7.67578     -1229.3     10973.4     9718.06  -171152.00     4899.68
     111.270   304.23400   1046.1300     7.66895     -1270.1     11336.7     9859.80   -33196.70     4859.20
     111.290   254.28900   1044.7500     7.66895     -1307.5     11608.2    10014.30   -22425.00     4859.70
     111.310   302.62500   1040.0000     7.66016     -1339.2     11830.9    10226.50   -20929.20     4851.59
     111.330   345.14100   1060.7500     7.68945     -1362.2     11949.6    10635.00   -23785.20     4818.43
     111.350   344.31300   1086.0000     7.66699     -1370.9     12000.5    11566.50   -40700.10     4773.00
     111.370   339.12500   1094.8800     7.68750     -1374.9     12044.7    13422.50   359632.00     4748.10
     111.390   293.31300   1100.6300     7.67676     -1373.6     12070.7    17681.70    23167.70     4758.49
     111.410   303.00000   1112.7500     7.67383     -1371.7     12130.5    28731.70    12212.40     4768.74
     111.430   312.12500   1125.6300     7.66211     -1362.2     12402.7    69402.70     9386.49     4774.21
     111.450   243.78900   1122.3800     7.67871     -1345.7     13269.1  -326379.00     8432.48     4765.64
     111.470   269.84400   1115.5000     7.70313     -1331.5     15184.9   -65420.90     8122.49     4754.37
     111.490   301.87500   1096.6300     7.67871     -1320.5     19777.1   -45311.00     8032.22     4781.64
     111.510   267.17200   1075.2500     7.67188     -1320.1     31831.3   -42966.80     8033.12     4822.14
     111.530   298.06300   1039.8800     7.67676     -1364.1     76331.1   -49187.50     8080.75     4851.28
     111.550   310.95300   1002.7500     7.67188     -1528.6   -357353.0   -83823.30     8142.22     4848.34
     111.570   272.87500    937.6250     7.68555     -1953.7    -71773.9   730818.00     8212.57     4827.66
     111.590   287.03100    866.7500     7.68262     -3077.7    -50306.1    45827.40     8289.99     4829.79
     111.610   284.71900    814.3750     7.70117     -6115.6    -49276.0    23426.80     8371.44     4857.41
     111.630   277.96900    766.2500     7.68359    -17338.9    -59858.5    17564.00     8472.42     4873.51
     111.650   273.01600    749.8750     7.67383     91532.0   -111874.0    15450.80     8567.41     4869.12
     111.670   274.67200    740.2500     7.68750     19606.3   1090000.0    14589.20     8606.57     4852.57
     111.690   308.10900    738.7500     7.69043     13939.7     73605.7    14179.20     8631.23     4838.14
     111.710   289.60900    739.8750     7.70117     13065.7     37463.0    13960.70     8672.59     4847.29
     111.730   295.54700    764.6250     7.68750     14375.1     26743.2    13857.20     8615.67     4824.44
     111.750   262.70300    794.0000     7.66504     22726.1     22186.1    13871.70     8482.81     4758.56
     111.770   301.53100    864.0000     7.68555   -177190.0     19592.6    14069.40     8519.04     4696.38
     111.790   350.12500    943.3750     7.70801     -9286.6     17865.7    14477.60     8821.56     4671.08
     111.810   288.81300   1012.6300     7.69727     -3812.5     16677.7    14924.80     9152.92     4646.25
     111.830   298.17200   1078.8800     7.69238     -2349.5     15785.3    15260.70     9081.69     4584.58
     111.850   259.00000   1125.0000     7.69922     -1803.0     15101.5    15411.30     8771.53     4536.33
     111.870   260.14100   1166.7500     7.70410     -1579.5     14551.8    15319.80     8716.97     4533.61
     111.890   301.95300   1186.0000     7.69922     -1476.3     14115.4    15101.80     8830.16     4518.42
     111.910   309.85900   1201.5000     7.68359     -1419.4     13728.6    14867.40     8927.82     4489.26
     111.930   313.82800   1200.2500     7.70410     -1380.3     13376.3    14601.20     9001.20     4480.60
     111.950   285.60900   1195.7500     7.68359     -1353.5     13063.9    14283.70     9054.06     4469.52
     111.970   280.48400   1192.0000     7.69043     -1336.4     12783.1    13966.50     9086.24     4454.65
     111.990   283.85900   1188.3800     7.67871     -1325.6     12533.8    13699.40     9292.36     4441.51
     112.010   283.54700   1185.5000     7.68555     -1318.4     12336.8    13469.30     9366.21     4433.59
     112.030   284.10900   1183.7500     7.70410     -1317.0     12157.3    13256.40     9930.98     4440.23
     112.050   280.04700   1187.7500     7.70410     -1317.8     11975.6    13094.40    10217.60     4443.31
     112.070   277.26600   1193.2500     7.68750     -1314.1     11829.2    12999.40     9884.62     4422.81
     112.090   288.06300   1192.7500     7.70801     -1305.3     11760.3    12935.70     9990.25     4396.67
     112.110   301.71900   1190.3800     7.69727     -1294.8     11754.6    12908.50     9963.38     4380.14
     112.130   303.75000   1191.6300     7.70117     -1282.9     11783.1    12895.60     9929.94     4360.52
     112.150   287.28100   1193.2500     7.70117     -1270.6     11836.6    12887.00     9784.18     4351.51
     112.170   335.32800   1204.2500     7.71484     -1261.6     11903.2    12886.90     9551.03     4312.02
     112.190   290.81300   1217.2500     7.68359     -1257.5     11959.4    12885.50     9267.63     4270.26
     112.210   267.60900   1240.3800     7.71973     -1259.9     12017.6    12888.70     8986.86     4247.39
     112.230   313.73400   1266.2500     7.68359     -1269.2     12076.6    12925.80     8524.13     4216.78
     112.250   301.20300   1284.1300     7.69434     -1283.9     12138.7    12948.90     8043.65     4193.47
     112.270   320.28100   1301.1300     7.69727     -1299.3     12208.1    12923.10     7779.91     4173.62
     112.290   349.31300   1307.7500     7.68066     -1310.9     12269.4    12862.10     7576.63     4187.57
     112.310   296.82800   1312.7500     7.69238     -1322.3     12336.4    12794.10     7545.06     4185.87
     112.330   312.15600   1294.2500     7.71680     -1333.1     12447.9    12722.20     7535.80     4225.28
     112.350   290.21900   1271.1300     7.72168     -1340.8     12549.1    12573.90     7486.77     4241.81
     112.370   284.95300   1256.5000     7.70996     -1349.2     12594.0    12350.50     7456.45     4319.04
     112.390   306.43800   1244.3800     7.71973     -1356.2     12592.6    12105.30     7420.69     4389.89
     112.410   314.15600   1243.0000     7.72461     -1360.0     12567.0    11882.20     7336.54     4477.57
     112.430   265.73400   1244.3800     7.72168     -1366.0     12515.2    11643.10     7248.85     4571.52
     112.450   315.10900   1240.1300     7.68945     -1370.4     12370.2    11389.00     7171.09     4573.66
     112.470   289.00000   1234.8800     7.73535     -1369.0     12139.7    11196.50     7092.67     4579.99
     112.490   311.54700   1221.1300     7.72363     -1362.8     11864.4    11063.40     7001.79     4512.16
     112.510   310.39100   1205.6300     7.70117     -1356.2     11580.6    10924.20     6916.09     4467.64
     112.530   277.84400   1208.7500     7.71777     -1350.3     11259.5    10774.10     6838.26     4401.85
     112.550   264.75000   1215.1300     7.71973     -1334.8     10925.7    10628.50     6742.89     4335.54
     112.570   290.89100   1234.2500     7.70996     -1306.8     10658.8    10467.10     6656.00     4219.07
     112.590   305.00000   1256.8800     7.69922     -1273.3     10454.4    10271.90     6552.13     4031.81
     112.610   307.04700   1277.8800     7.70313     -1241.5     10258.1    10067.30     6440.82     3848.44
     112.630   307.23400   1298.1300     7.70605     -1207.5     10060.8     9885.53     6337.20     3713.06
     112.650   273.18800   1306.2500     7.69629     -1171.3      9867.6     9720.67     6233.73     3572.81
     112.670   306.43800   1311.3800     7.71094     -1146.3      9654.4     9556.08     6147.06     3466.99
     112.690   293.96900   1312.2500     7.73633     -1133.7      9408.2     9383.42     6067.29     3418.06
