~VERSION INFORMATION SECTION
VERS.           2.0  :CWLS Log ASCII Standard - 2.0
WRAP.           NO   :One line per depth
#               Created in SeisLab
~WELL INFORMATION SECTION
#MNEM.UNIT  VALUE/NAME               :DESCRIPTION    
STRT.m  33.03                        :Start Depth    
STOP.m  122.23                       :Stop Depth     
STEP.m  0.03                         :Step           
NULL.    -999.25                     :Null Value     
WELL.    GDP1                        :Well Name      
CTRY.    Switzerland                 :Country        
CNTY.                                :County         
STAT.    Central Swiss Alps          :State          
API .                                :API number     
UWI .                                :Unique well ID 
LOC .    Grimsel Pass, Switzerland   :Well Location  
FLD .    n/a                         :Field          
COMP.    n/a                         :Company        
SRVC.    University of Lausanne      :Service Company
DATE.    2016                        :Date           
~PARAMETER INFORMATION SECTION
#MNEM .UNITS  VALUE   :DESCRIPTION OF PARAMETER
Casing.n/a    1       :slotted PVC casing      
~CURVE INFORMATION SECTION
#MNEM.UNITS  API CODES   :DESCRIPTION OF MNEMONIC
depth.m                  :measured depth         
NG   .cps                :Natural gamma          
Sp   .mV                 :Self potential         
Temp .DegC               :Temperature            
SPR  .Ohm                :Single point resistance
R8   .Ohm.m              :Normal resistivity     
R16  .Ohm.m              :Single point resistance
R32  .Ohm.m              :Normal resistivity     
R64  .Ohm.m              :Normal resistivity     
~A depth       NG          Sp          Temp        SPR         R8          R16         R32         R64         
# ...
      57.460   318.01600   1180.3800     6.32031        4602      1296.7      1771.7      1906.3      2964.0
      57.490   341.00000   1162.5000     6.32227        4650      1296.0      1723.3      1826.8      3093.4
      57.510   305.67200   1165.2500     6.31543        4860      1368.1      1665.0      1944.5      3003.3
      57.540   282.65600   1172.5000     6.33008        5147      1492.5      1613.9      1896.9      2887.3
      57.580   289.54700   1194.3800     6.31348        5527      1565.6      1667.0      1899.9      2560.3
      57.610   293.40600   1219.7500     6.32031        5895      1654.0      1595.0      1864.7      2766.9
      57.640   292.73400   1227.7500     6.33203        6187      1745.5      1531.7      1941.5      2753.7
      57.670   299.71900   1233.0000     6.35059        6399      1887.0      1493.6      1925.5      2483.1
      57.690   282.76600   1239.1300     6.34082        6401      1905.2      1460.3      1816.5      2360.1
      57.720   325.53100   1244.7500     6.30859        6419      1901.8      1530.2      1774.4      2668.6
      57.760   289.84400   1231.3800     6.32520        6416      1872.5      1564.5      1651.6      2681.4
      57.780   262.00000   1213.7500     6.34082        6399      1821.8      1629.0      1616.0      2415.6
      57.820   300.89100   1197.0000     6.31543        6257      1810.4      1636.8      1650.6      2336.3
      57.850   304.95300   1180.6300     6.31641        6091      1773.4      1678.6      1672.1      2431.0
      57.880   259.31300   1176.3800     6.31348        5913      1773.0      1693.6      1646.8      2581.5
      57.900   256.39100   1174.2500     6.34766        5734      1737.2      1639.8      1523.6      2434.7
      57.940   250.89100   1207.2500     6.32324        5605      1717.6      1587.2      1496.1      2470.2
      57.970   248.38300   1246.6300     6.31543        5513      1682.9      1476.9      1488.9      2817.8
      58.000   216.31300   1255.7500     6.33398        5623      1605.9      1427.3      1778.5      2846.9
      58.030   283.29700   1259.7500     6.33887        5812      1532.0      1418.5      1571.2      2671.1
      58.060   287.73400   1257.5000     6.34277        6025      1408.4      1384.9      1724.4      2551.8
      58.080   262.25000   1254.1300     6.31836        6191      1335.1      1349.9      1840.9      2947.6
      58.110   267.73400   1259.1300     6.30859        6123      1300.1      1279.7      -999.0      2886.2
      58.150   249.31300   1265.5000     6.33203        5925      1253.5      1272.5      1897.2      2602.7
      58.180   257.89100   1271.1300     6.33887        5480      1211.2      1258.3      1730.7      2387.8
      58.210   309.40600   1276.5000     6.31348        5087      1145.7      1430.1      1831.1      2313.4
      58.240   256.37500   1272.3800     6.32910        4848      1120.1      1329.8      1659.0      2565.7
      58.260   297.04700   1266.7500     6.34082        4632      1078.8      1425.5      1831.2      2504.5
      58.290   273.04700   1267.0000     6.34766        4469      1139.5      1464.6      1759.9      2491.2
      58.330   256.53100   1267.5000     6.33008        4338      1055.1      -999.0      1721.3      2500.3
      58.360   264.23400   1252.7500     6.31641        4353      1087.8      1475.7      1854.2      2693.6
      58.390   282.48400   1234.8800     6.33398        4390      1092.9      1364.2      1674.5      2673.4
      58.420   279.39100   1236.7500     6.35254        4484      -999.0      1392.7      1878.3      2498.8
      58.440   274.98400   1243.1300     6.30664        4553      1105.2      1281.5      2531.5      2483.5
      58.470   275.29700   1219.0000     6.32715        4702      1063.7      1396.1      3833.1      2324.2
      58.510   242.17200   1189.0000     6.36621        4789      1097.7      1351.0     10543.0      2289.7
      58.530   264.43800   1175.0000     6.35742        -999      1045.0      1309.8     -8245.1      2399.4
      58.570   280.34400   1164.1300     6.31641        4717      1116.4      1385.8     -8419.0      2502.0
      58.600   248.95300   1181.5000     6.35254        4713      1090.9      1282.5     55307.0      2483.3
      58.630   279.28100   1204.5000     6.32910        4715      1061.3      1457.7     10373.2      2240.3
      58.650   274.87500   1199.6300     6.36621        4630      1092.9      1948.2      2951.9      2179.4
      58.690   284.21900   1189.3800     6.34082        4639      1035.3      2920.8      2175.9      2174.5
      58.720   276.54700   1173.3800     6.30859        4676      1189.6      9064.5      1731.7      2670.1
      58.750   254.92200   1156.8800     6.33594        4717      1617.8     -7894.9      1589.5      2212.0
      58.780   272.56300   1079.6300     6.34766        4792      2545.5     -7905.5      1590.9      2431.2
      58.810   256.87500    991.3750     6.34082        5130      9597.7     44245.6      1723.5      2656.6
      58.830   273.01600    843.2500     6.33594        8131    -12401.2      8813.6      1728.9      -999.0
      58.860   298.50000    683.1250  -999.00000       17866    -19351.6      2515.2      1602.1      2703.7
      58.900   254.32000    623.5000     6.36816       38283    157324.0      1764.5      1616.8      2413.0
      58.930   292.73400    583.2500     6.33203      184645     48952.2      1445.0      1731.9      2617.4
      58.960   285.95300   -999.0000     6.36621     -208730     13900.9      1368.9      1724.4      2318.2
      58.990   291.17200    574.8750     6.34082     -217776      8355.6      1410.7      1515.7      2619.8
      59.010   304.70300    641.3750     6.35742      931084      5668.4      1520.9      1458.4      2517.1
      59.040   308.85900    720.5000     6.35449      172028      4095.0      1599.4      1506.3      2478.2
      59.080   261.15600    798.5000     6.35742       28222      3192.1      1610.2      1574.7      2730.0
      59.100   267.37500    875.7500     6.36133       11864      2506.1      1629.5      1581.9      2384.7
      59.140   264.10900    908.6250     6.36621        7964      2043.7      1656.7      1455.4      2650.6
      59.170   262.20300    932.3750     6.36426        6551      1688.7      1605.2      1643.3      3656.2
      59.190   244.07000    962.1250     6.37012        6254      1515.5      1475.4      1668.6      5657.6
      59.220   257.17200    992.6250     6.37500        6016      1421.6      1424.7      1458.8     13824.0
      59.260   285.48400   1042.3800     6.38477        5704      1383.1      1406.9      1500.1     -9253.1
      59.280   285.54700   1095.6300     6.35254        5439      1316.3      1394.0      1577.2    -10706.2
      59.320   274.92200   1127.6300     6.37012        5204      1309.4      1373.3      1627.2     80304.6
      59.350   287.78100   1155.8800     6.39160        5040      1301.5      1280.9      1633.9     13958.6
      59.380   270.68800   1173.1300     6.38867        5068      1288.1      1362.8      1645.5      3866.6
      59.400   275.84400   1189.2500     6.37793        5154      1278.9      1370.2      1798.1      2987.4
      59.440   251.49200   1183.0000     6.36426        5403      1227.6      1257.2      1863.6      2322.0
      59.470   231.55500   1172.7500     6.40430        5641      1274.7      1270.7      1777.3      2074.1
      59.500  -999.00000   1159.7500     6.39160        5751      1280.8      1284.5      1768.6      2076.0
      59.530   237.21100   1146.1300     6.35645        5800      1233.1      1292.7      1851.7      2359.4
      59.560   225.14100   1140.0000     6.39355        5699      1259.5      1291.0      1786.6      2424.6
      59.580   223.21900   1135.6300     6.41016        5593      1273.4      1330.1      1620.4      2210.4
      59.610   234.20300   1134.3800     6.39746        5391      1260.6      1438.3      1665.6      2228.3
      59.650   255.44500   1133.5000     6.39160        5223      1235.5      1497.5      1775.3      2485.5
