~VERSION INFORMATION SECTION
VERS.           2.0  :CWLS Log ASCII Standard - 2.0
WRAP.           NO   :One line per depth
#               Created in SeisLab
~WELL INFORMATION SECTION
#MNEM.UNIT  VALUE/NAME               :DESCRIPTION    
STRT.m  10                           :Start Depth    
STOP.m  125                          :Stop Depth     
STEP.m  0.01                         :Step           
NULL.    -999.25                     :Null Value     
WELL.    GDP1                        :Well Name      
CTRY.    Switzerland                 :Country        
CNTY.                                :County         
STAT.    Central Swiss Alps          :State          
API .                                :API number     
UWI .                                :Unique well ID 
LOC .    Grimsel Pass, Switzerland   :Well Location  
FLD .    n/a                         :Field          
COMP.    n/a                         :Company        
SRVC.    University of Lausanne      :Service Company
DATE.    2016                        :Date           
~PARAMETER INFORMATION SECTION
#MNEM .UNITS  VALUE   :DESCRIPTION OF PARAMETER
Casing.n/a    1       :slotted PVC casing      
~CURVE INFORMATION SECTION
#MNEM.UNITS  API CODES   :DESCRIPTION OF MNEMONIC
depth.m                  :measured depth         
NG   .cps                :Natural gamma          
Sp   .mV                 :Self potential         
Temp .DegC               :Temperature            
SPR  .Ohm                :Single point resistance
R8   .Ohm.m              :Normal resistivity     
R16  .Ohm.m              :Single point resistance
R32  .Ohm.m              :Normal resistivity     
R64  .Ohm.m              :Normal resistivity     
~A depth       NG          Sp          Temp        SPR         R8          R16         R32         R64         
# ...
     101.020   288.18360    835.0301     7.62597   10197.367    5071.274    3887.056    2767.777    1913.059
     101.030   287.68494    831.1904     7.63086   10190.433    5068.350    3877.064    2790.603    1924.460
     101.040   287.13455    827.4512     7.63574   10183.500    5065.427    3866.183    2813.371    1935.527
     101.050   286.52273    823.8209     7.64388   10076.527    4985.812    3854.490    2835.985    1946.226
     101.060   285.84049    820.3072     7.65202    9969.553    4906.198    3842.063    2858.344    1956.522
     101.070   285.08067    816.9177     7.66016    9862.580    4826.583    3828.976    2880.344    1966.385
     101.080   284.23888    813.6592     7.65723    9714.803    4762.118    3815.300    2901.884    1975.789
     101.090   283.31394    810.5383     7.65430    9567.027    4697.654    3801.103    2922.858    1984.710
     101.100   282.30794    807.5606     7.65137    9419.250    4633.190    3786.451    2943.163    1993.129
     101.110   281.22600    804.7319     7.64453    9326.200    4546.098    3771.403    2962.698    2001.029
     101.120   280.07587    802.0578     7.63770    9233.150    4459.006    3756.015    2981.360    2008.399
     101.130   278.86749    799.5442     7.63086    9140.100    4371.914    3740.337    2999.052    2015.232
     101.140   277.61283    797.1975     7.63770    9122.113    4238.047    3724.413    3015.678    2021.525
     101.150   276.32570    795.0241     7.64453    9104.127    4104.179    3708.283    3031.148    2027.279
     101.160   275.02182    793.0298     7.65137    9086.140    3970.312    3691.981    3045.374    2032.500
     101.170   273.71884    791.2191     7.66162    8933.975    3880.335    3675.534    3058.275    2037.198
     101.180   272.43631    789.5937     7.67188    8781.810    3790.357    3658.964    3069.775    2041.388
     101.190   271.19531    788.1521     7.67253    8667.137    3720.908    3642.288    3079.806    2045.089
     101.200   270.01765    786.8892     7.67318    8552.463    3651.458    3625.516    3088.304    2048.326
     101.210   268.92457    785.7965     7.67383    8437.790    3582.009    3608.653    3095.216    2051.125
     101.220   267.93537    784.8635     7.66797    8319.797    3592.165    3591.701    3100.493    2053.520
     101.230   267.06635    784.0786     7.66211    8201.803    3602.320    3574.653    3104.099    2055.548
     101.240   266.33054    783.4314     7.65625    8083.810    3612.475    3557.502    3106.002    2057.249
     101.250   265.73793    782.9139     7.65983    7958.597    3632.110    3540.235    3106.181    2058.667
     101.260   265.29595    782.5215     7.66341    7833.383    3623.592    3522.835    3104.624    2059.851
     101.270   265.00993    782.2534     7.66699    7708.170    3615.075    3505.284    3101.327    2060.854
     101.280   264.88330    782.1124     7.67025    7703.700    3598.759    3487.560    3096.298    2061.728
     101.290   264.91775    782.1039     7.67350    7699.230    3582.443    3469.641    3089.550    2062.534
     101.300   265.11339    782.2344     7.67676    7694.761    3562.056    3451.503    3081.107    2063.330
     101.310   265.46884    782.5108     7.67904    7690.291    3541.669    3433.121    3071.004    2064.180
     101.320   265.98143    782.9382     7.68131    7685.821    3544.000    3414.474    3059.280    2065.149
     101.330   266.64723    783.5195     7.68359    7681.351    3546.331    3395.537    3045.986    2066.302
     101.340   267.46103    784.2545     7.68554    7676.881    3548.232    3376.290    3031.180    2067.708
     101.350   268.41603    785.1398     7.68750    7672.412    3550.133    3356.714    3014.927    2069.434
     101.360   269.50345    786.1683     7.68945    7667.942    3594.107    3336.794    2997.300    2071.549
     101.370   270.71182    787.3303     7.68457    7663.472    3638.081    3316.517    2978.377    2074.121
     101.380   272.02629    788.6131     7.67968    7659.002    3733.420    3295.875    2958.244    2077.218
     101.390   273.42794    790.0025     7.67480    7654.532    3828.759    3274.863    2936.993    2080.906
     101.400   274.89337    791.4827     7.66992    7655.340    3875.361    3253.483    2914.720    2085.251
     101.410   276.39471    793.0377     7.67871    7674.347    3921.962    3231.740    2891.524    2090.314
     101.420   277.90029    794.6513     7.68750    7693.353    3930.811    3209.646    2867.510    2096.156
     101.430   279.37593    796.3083     7.69629    7712.360    3939.659    3187.217    2842.787    2102.834
     101.440   280.78686    797.9942     7.69727    7720.090    3937.334    3164.475    2817.464    2110.401
     101.450   282.10002    799.6960     7.69824    7727.820    3935.009    3141.450    2791.654    2118.906
     101.460   283.28643    801.4024     7.69922    7704.058    3957.062    3118.174    2765.471    2128.393
     101.470   284.32322    803.1035     7.69303    7680.296    3979.115    3094.688    2739.028    2138.900
     101.480   285.19512    804.7915     7.68685    7656.535    4002.794    3071.036    2712.442    2150.462
     101.490   285.89507    806.4599     7.68066    7632.773    4026.472    3047.268    2685.826    2163.105
     101.500   286.42420    808.1041     7.67610    7609.011    3993.461    3023.439    2659.293    2176.850
     101.510   286.79129    809.7206     7.67155    7585.249    3960.449    2999.608    2632.956    2191.709
     101.520   287.01184    811.3076     7.66699    7561.488    3932.194    2975.838    2606.924    2207.691
     101.530   287.10702    812.8642     7.67155    7537.726    3903.938    2952.195    2581.304    2224.792
     101.540   287.10221    814.3906     7.67610    7513.964    3857.532    2928.749    2556.202    2243.004
     101.550   287.02529    815.8878     7.68066    7490.202    3811.126    2905.572    2531.716    2262.308
     101.560   286.90500    817.3572     7.69873    7466.441    3729.365    2882.736    2507.945    2282.681
     101.570   286.76940    818.8010     7.71680    7442.679    3647.604    2860.316    2484.981    2304.085
     101.580   286.64482    820.2214     7.70866    7418.917    3564.087    2838.387    2462.910    2326.480
     101.590   286.55530    821.6211     7.70052    7395.155    3480.569    2817.023    2441.815    2349.813
     101.600   286.52249    823.0026     7.69238    7371.394    3375.219    2796.298    2421.774    2374.025
     101.610   286.56569    824.3687     7.68782    7347.632    3277.837    2776.282    2402.855    2399.047
     101.620   286.70215    825.7220     7.68327    7323.870    3191.070    2757.045    2385.126    2424.802
     101.630   286.94717    827.0651     7.67871    7300.108    3104.304    2738.654    2368.642    2451.207
     101.640   287.31396    828.4004     7.69141    7276.347    3063.217    2721.171    2353.457    2478.168
     101.650   287.81315    829.7303     7.70410    7252.585    3022.130    2704.655    2339.614    2505.586
     101.660   288.45190    831.0570     7.71680    7228.823    3005.089    2689.160    2327.149    2533.355
     101.670   289.23258    832.3829     7.71485    7205.061    2988.047    2674.735    2316.094    2561.363
     101.680   290.15131    833.7101     7.71289    7181.300    2992.273    2661.424    2306.471    2589.491
     101.690   291.19654    835.0407     7.71094    7157.538    2996.498    2649.265    2298.293    2617.616
     101.700   292.34812    836.3769     7.70475    7133.776    2965.067    2638.289    2291.569    2645.609
     101.710   293.57716    837.7210     7.69857    7110.014    2933.637    2628.522    2286.297    2673.340
     101.720   294.84690    839.0752     7.69238    7086.253    2849.239    2619.984    2282.468    2700.675
     101.730   296.11420    840.4418     7.69067    7062.491    2764.841    2612.686    2280.068    2727.475
     101.740   297.33131    841.8232     7.68897    7038.729    2697.038    2606.635    2279.071    2753.605
     101.750   298.44741    843.2218     7.68726    7014.967    2629.235    2601.831    2279.446    2778.926
