~VERSION INFORMATION SECTION
VERS.           2.0  :CWLS Log ASCII Standard - 2.0
WRAP.           NO   :One line per depth
#               Created in SeisLab
~WELL INFORMATION SECTION
#MNEM.UNIT  VALUE/NAME               :DESCRIPTION    
STRT.m  47.59                        :Start Depth    
STOP.m  123.23                       :Stop Depth     
STEP.m  0.02                         :Step           
NULL.    -999.25                     :Null Value     
WELL.    GDP1                        :Well Name      
CTRY.    Switzerland                 :Country        
CNTY.                                :County         
STAT.    Central Swiss Alps          :State          
API .                                :API number     
UWI .                                :Unique well ID 
LOC .    Grimsel Pass, Switzerland   :Well Location  
FLD .    n/a                         :Field          
COMP.    n/a                         :Company        
SRVC.    University of Lausanne      :Service Company
DATE.    2017                        :Date           
~PARAMETER INFORMATION SECTION
#MNEM .UNITS  VALUE   :DESCRIPTION OF PARAMETER
Casing.n/a    1       :slotted PVC casing      
~CURVE INFORMATION SECTION
#MNEM.UNITS  API CODES   :DESCRIPTION OF MNEMONIC
depth.m                  :measured depth         
NG   .cps                :Natural gamma          
Sp   .mV                 :Self potential         
Temp .DegC               :Temperature            
SPR  .Ohm                :Single point resistance
R8   .Ohm.m              :Normal resistivity     
R16  .Ohm.m              :Single point resistance
R32  .Ohm.m              :Normal resistivity     
R64  .Ohm.m              :Normal resistivity     
~A depth       NG          Sp          Temp        SPR         R8          R16         R32         R64         
# ...
      78.670   194.49200   1187.0000     6.62891      3651.1       467.6      673.02      978.37     1565.87
      78.690   175.72700   1187.3800     6.64551      3645.1       469.2      671.92      983.01     1566.66
      78.710   210.82000   1188.0000     6.63379      3647.6       469.2      674.29      983.73     1568.72
      78.730   231.10900   1178.3800     6.64063      3665.7       469.7      677.87      983.16     1565.44
      78.750   212.70300   1166.5000     6.64746      3701.8       470.8      678.74      985.60     1573.33
      78.770   260.82800   1164.0000     6.62891      3741.7       470.6      680.13      989.07     1548.59
      78.790   231.34400   1162.3800     6.61719      3756.8       470.3      683.64      986.55     1548.75
      78.810   214.96100   1166.6300     6.64941      3747.9       472.0      686.01      982.25     1501.33
      78.830   207.64800   1171.7500     6.63184      3738.8       474.3      686.46      983.41     1392.97
      78.850   212.10900   1170.7500     6.63379      3732.1       475.1      686.74      983.98     1372.07
      78.870   203.91400   1169.0000     6.64453      3729.8       476.6      690.26      980.07     1427.45
      78.890   273.46900   1170.7500     6.64453      3740.3       479.8      693.44      972.81     1487.45
      78.910   209.87500   1172.8800     6.65625      3758.7       482.8      693.68      979.14     1524.85
      78.930   213.85200   1176.1300     6.62402      3780.4       485.6      692.31      981.44     1614.90
      78.950   189.96900   1179.3800     6.62207      3805.6       489.3      691.74      991.33     1789.07
      78.970   217.49200   1175.7500     6.62207      3835.1       495.9      691.96      994.18     1722.83
      78.990   198.71100   1171.5000     6.63379      3864.7       502.6      689.17     1001.55     -533.20
      79.010   203.15600   1174.8800     6.64551      3882.2       507.1      685.30     1009.71    14052.50
      79.030   204.12500   1180.2500     6.64453      3881.8       510.2      684.09     1014.68     5773.64
      79.050   199.75000   1181.1300     6.65918      3873.2       513.6      681.71     1028.62     4689.81
      79.070   219.35900   1181.3800     6.65137      3872.4       517.1      676.79     1029.61     4493.57
      79.090   244.96900   1188.7500     6.65918      3892.3       518.1      670.31     1039.71     5081.27
      79.110   220.82800   1196.7500     6.64941      3923.7       517.1      671.53     1041.11     7551.45
      79.130   220.34400   1202.3800     6.66309      3941.4       514.8      671.28     1041.65   -34971.90
      79.150   262.34400   1207.1300     6.63867      3936.6       509.8      675.94     1037.83     -591.18
      79.170   243.00000   1206.5000     6.62695      3929.3       504.2      677.22     1038.51      733.96
      79.190   211.01600   1204.1300     6.63770      3933.0       500.9      682.04     1020.32     1014.92
      79.210   223.25800   1201.6300     6.64746      3950.4       504.9      687.60     1013.21     1121.08
      79.230   256.57800   1199.1300     6.66992      3977.7       508.4      691.07      983.99     1179.92
      79.250   250.32800   1197.3800     6.65430      3996.5       514.2      699.36      928.38     1191.58
      79.270   234.13300   1195.5000     6.65625      3996.3       518.1      700.50      914.45     1178.44
      79.290   222.80500   1201.3800     6.66309      3987.3       524.6      708.13      936.68     1243.43
      79.310   257.89100   1208.3800     6.65137      3981.3       532.9      712.47      967.27     1375.64
      79.330   228.75000   1217.0000     6.63379      3967.8       541.8      717.30      995.33     1438.31
      79.350   280.04700   1226.2500     6.67285      3944.2       554.2      719.55     1066.10     1449.66
      79.370   231.16400   1226.0000     6.65625      3908.1       561.6      723.82     1208.29     1458.98
      79.390   254.01600   1223.2500     6.66309      3878.0       570.3      718.24     1318.23     1465.01
      79.410   235.21900   1222.7500     6.65137      3870.9       575.2      719.40      835.17     1457.25
      79.430   271.92200   1222.0000     6.64551      3893.7       579.1      710.52     4110.36     1442.03
      79.450   226.53900   1226.0000     6.65430      3950.9       580.6      689.05     2286.89     1438.93
      79.470   292.73400   1230.6300     6.64746      4030.3       582.4      687.34     2076.49     1434.87
      79.490   271.06300   1229.5000     6.64941      4117.4       578.3      700.69     1970.03     1433.26
      79.510   236.71900   1227.7500     6.67871      4190.8       578.4      721.84     2176.82     1430.08
      79.530   221.67200   1229.5000     6.69043      4240.7       575.7      749.58     3005.93     1427.54
      79.550   262.07800   1232.2500     6.65137      4260.6       570.4      814.36   -10933.90     1428.60
      79.570   268.98400   1232.3800     6.65625      4246.5       575.7      948.46      244.65     1426.94
      79.590   245.67200   1232.3800     6.66504      4209.7       590.2     1166.49      670.21     1419.84
      79.610   250.17200   1225.8800     6.67285      4187.1       617.3     1671.93      754.59     1415.35
      79.630   234.35900   1218.5000     6.66113      4210.2       661.2    -1571.49      790.40     1417.86
      79.650   227.69500   1195.7500     6.67871      4276.1       750.2      143.81      815.33     1411.58
      79.670   232.28100   1170.5000     6.65137      4327.1       935.7      314.96      820.97     1403.08
      79.690   245.98400   1118.7500     6.66602      4413.1      1359.5      255.05      814.89     1402.28
      79.710   243.93800   1063.0000     6.66309      4810.9      3154.7      152.77      846.92     1405.60
      79.730   271.09400    991.5000     6.65625      6121.6     -9172.6     -157.03      909.76     1405.07
      79.750   240.64800    917.6250     6.65234      4490.2     -3067.7     6007.13      938.10     1403.33
      79.770   213.70300    843.7500     6.67480      -754.0     -3193.9     1034.98      942.44     1403.34
      79.790   217.14800    770.2500     6.66602     25015.5     -4793.0      815.65      945.72     1405.73
      79.810   223.64100    731.5000     6.63379    143799.0     -9006.4      757.64      947.34     1405.06
      79.830   230.14800    698.6250     6.65918   -363044.0    -23481.2      743.90      942.27     1399.52
      79.850   249.52300    691.1250     6.67188   -107064.0    225356.0      743.67      933.24     1401.59
      79.870   256.54700    688.0000     6.66992    -81341.0     20051.1      743.13      931.35     1408.81
      79.890   253.09400    701.6250     6.65137    -77705.8      9673.4      743.06      929.59     1408.11
      79.910   218.66400    717.5000     6.67676    -87681.4      6423.5      765.82      929.85     1405.41
      79.930   253.03100    766.0000     6.68652   -135304.0      4735.9      809.37      930.15     1404.60
      79.950   232.75000    820.7500     6.66113    771224.0      3481.1      845.74      930.96     1406.93
      79.970   251.21100    890.3750     6.65234     44405.2      2539.5      872.41      933.14     1408.88
      79.990   236.11700    962.8750     6.67676     15640.2      1900.3      888.84      934.37     1410.15
      80.010   238.85900   1029.7500     6.70020      8523.0      1472.8      891.86      932.49     1414.95
      80.030   242.68800   1094.7500     6.68555      6029.7      1197.1      878.33      931.70     1417.94
      80.050   219.39100   1131.8800     6.67676      5077.9      1017.4      855.41      934.60     1420.81
      80.070   230.82800   1164.3800     6.69824      4757.7       890.8      835.99      933.10     1419.93
      80.090   228.39100   1174.1300     6.68848      4677.3       801.9      818.32      930.76     1421.26
      80.110   252.50000   1180.2500     6.67285      4665.9       739.2      803.44      932.06     1427.30
      80.130   234.62500   1180.2500     6.67188      4651.9       697.7      790.63      934.46     1423.35
