~VERSION INFORMATION SECTION
VERS.           2.0  :CWLS Log ASCII Standard - 2.0
WRAP.           NO   :One line per depth
#               Created in SeisLab
~WELL INFORMATION SECTION
#MNEM.UNIT  VALUE/NAME               :DESCRIPTION    
STRT.m  24.75                        :Start Depth    
STOP.m  125.11                       :Stop Depth     
STEP.m  0.02                         :Step           
NULL.    -999.25                     :Null Value     
WELL.    GDP1                        :Well Name      
CTRY.    Switzerland                 :Country        
CNTY.                                :County         
STAT.    Central Swiss Alps          :State          
API .                                :API number     
UWI .                                :Unique well ID 
LOC .    Grimsel Pass, Switzerland   :Well Location  
FLD .    n/a                         :Field          
COMP.    n/a                         :Company        
SRVC.    University of Lausanne      :Service Company
DATE.    2015                        :Date           
~PARAMETER INFORMATION SECTION
#MNEM .UNITS    VALUE   :DESCRIPTION OF PARAMETER
Casing.n/a      0       :open hole               
Mud   .Polymer  1       :Mud type                
~CURVE INFORMATION SECTION
#MNEM.UNITS  API CODES   :DESCRIPTION OF MNEMONIC
depth.m                  :measured depth         
NG   .cps                :Natural gamma          
Sp   .mV                 :Self potential         
Temp .DegC               :Temperature            
SPR  .Ohm                :Single point resistance
R8   .Ohm.m              :Normal resistivity     
R16  .Ohm.m              :Single point resistance
R32  .Ohm.m              :Normal resistivity     
R64  .Ohm.m              :Normal resistivity     
~A depth       NG          Sp          Temp        SPR         R8          R16         R32         R64         
# ...
      27.710   2986.6200    522.3750  -999.00000    -999.000    -999.000    -999.000    3756.970    -999.000
      27.730   3089.2600    547.0000  -999.00000    -999.000    -999.000    2554.230    3685.250    -999.000
      27.750   2743.7600    560.8750  -999.00000    -999.000    -999.000    -999.000    3769.580    -999.000
      27.770   3729.5300    558.1250  -999.00000    -999.000    -999.000    -999.000    3765.580    -999.000
      27.790   2998.6300    550.2500  -999.00000    -999.000    -999.000    2499.950    3720.540    -999.000
      27.810   3222.8900    531.1250  -999.00000    -999.000    -999.000    2596.260    3746.350    -999.000
      27.830   3804.0900    526.2500  -999.00000    -999.000    1878.740    2618.750    3779.310    -999.000
      27.850   3880.7900    546.5000  -999.00000    -999.000    -999.000    2616.700    3746.760    -999.000
      27.870   3610.0400    549.8750  -999.00000    -999.000    -999.000    2618.060    3696.880    -999.000
      27.890   3326.1200    521.5000  -999.00000    -999.000    1826.590    2551.890    3718.330    -999.000
      27.910   3142.3300    502.7500  -999.00000    -999.000    1882.790    2430.110    3735.080    -999.000
      27.930   3731.2800    499.3750  -999.00000    5873.140    1900.180    2400.380    3727.060    -999.000
      27.950   3599.3900    498.7500  -999.00000    -999.000    1904.970    2445.740    3771.960    -999.000
      27.970   2859.7700    502.2500  -999.00000    -999.000    1911.740    2454.020    3826.150    -999.000
      27.990   2725.3600    506.2500  -999.00000    5362.070    1883.400    2445.370    3945.810    -999.000
      28.010   2582.3400    511.1250  -999.00000    5316.650    1827.400    2466.910    4132.080    -999.000
      28.030   3215.5400    519.0000  -999.00000    5198.620    1824.990    2495.970    4251.540    -999.000
      28.050   2949.0500    531.7500  -999.00000    5054.890    1866.020    2498.000    4456.520    -999.000
      28.070   3258.9200    537.2500  -999.00000    4977.440    1882.790    2490.770    4878.080    -999.000
      28.090   3491.5100    531.1250  -999.00000    4907.340    1879.010    2512.940    5191.580    -999.000
      28.110   3772.5300    524.2500  -999.00000    4790.500    1870.720    2527.420    5138.090    -999.000
      28.130   3339.4800    513.6250  -999.00000    4734.860    1843.790    2553.940    4883.750    -999.000
      28.150   2975.5800    509.3750  -999.00000    4795.210    1803.760    2617.380    4798.940    -999.000
      28.170   3355.9500    516.2500  -999.00000    4879.430    1768.660    2666.650    4722.400    -999.000
      28.190   3899.3800    517.6250  -999.00000    4981.290    1752.860    2739.780    4443.580    -999.000
      28.210   3156.8500    509.2500  -999.00000    5113.850    1730.760    2852.360    4305.840    -999.000
      28.230   3070.2800    505.3750  -999.00000    5189.720    1716.840    2944.440    4375.140    5802.630
      28.250   3054.9800    512.2500  -999.00000    5135.550    1737.410    3079.270    4583.150    -999.000
      28.270   3643.7400   -999.0000    11.72660    5000.940    1765.090    3308.250    -999.000    -999.000
      28.290   3305.0100    516.1250  -999.00000    4841.040    1818.490    3491.320    5617.330    5860.130
      28.310   3163.8300    521.2500  -999.00000    4489.390    1912.190    3466.860    6820.940    6047.450
      28.330   2914.9600    535.8750    11.35160    4114.720    2013.570    3296.780    7535.670    5969.120
      28.350   3506.8100    540.1250    11.37500    3971.070    2147.980    3237.550    7823.650    5916.300
      28.370   3567.4300    524.5000    11.32230    4037.140    2349.780    3209.970    -999.000    5912.630
      28.390   2642.0800    522.5000    11.35740    4293.510    2555.500    3068.360    7919.200    5654.980
      28.410   2504.7700    548.2500    11.36520    4708.450    2653.310    3020.710    8103.130    5188.120
      28.430   2837.3000    561.5000    11.31250    5493.230    2653.920    3095.750    7629.130    5060.610
      28.450   3262.9800    552.7500    11.37700    6754.280    2712.010    3246.930    7779.700    5234.270
      28.470   3942.7600    540.1250    11.34960    8291.740    2809.640    -999.000    8938.460    5212.600
      28.490   3669.6900    519.3750    11.33590    9784.850    3000.300    3904.230    9544.090    5092.430
      28.510   3259.6900    507.0000    11.34770   10621.700    3246.400    4664.070    9147.630    5138.940
      28.530   2815.8000    507.1250    11.34770   10931.300    3577.460    5310.840    8630.480    5215.430
      28.550   3619.1400    510.0000    11.35740   11084.100    4113.000    5782.790    9389.910    5159.850
      28.570   3083.4500    516.8750    11.33010   11247.300    -999.000    -999.000   10553.500    5060.590
      28.590   3916.2300    526.7500    11.38870   11449.300    5571.180    6090.090    9894.690    5122.360
      28.610   3030.0000    541.8750    11.33790   11539.700    6992.010    6438.070    8987.610    5206.960
      28.630   3544.0000    545.7500    11.31840   12096.900    8439.030    6726.530    9305.040    5218.630
      28.650   3914.2900    527.6250    11.36720   13562.700    9790.920    7569.960    9051.160    5291.730
      28.670   3798.2800    515.0000    11.35160    -999.000    -999.000    8916.740    8716.650    5387.040
      28.690   3102.8200    510.5000    11.34180   18145.200   11840.000   10148.700    9200.100    5596.990
      28.710   3115.6000    508.6250    11.36720   22307.600   13298.000   10776.200    8989.090    5877.720
      28.730   4095.3700    512.7500    11.32230   26291.400   14987.900   10843.400    8750.080    5966.360
      28.750   3339.6800    522.3750    11.35160   29558.000   16613.600   11901.300    8569.650    6222.770
      28.770   3684.4100    543.5000    11.31250    -999.000   18859.500   13650.200    8073.610    6932.460
      28.790   -999.0000    551.6250    11.32420   32842.000   22231.400   13912.800    8150.760    7428.050
      28.810   3605.5800    539.7500    11.34180   35174.500   24889.400   13514.800    7750.270    7291.090
      28.830   2660.4800    537.2500    11.33200   37963.500   25421.300   14212.500    6667.520    6855.360
      28.850   3527.1500    551.6250    11.36520   38927.700   26813.900   15059.600    6754.520    6733.840
      28.870   3348.5900    556.8750    11.33400   39052.300   29675.400   16142.300    7599.420    6621.030
      28.890   3294.5500    544.8750    11.30270   41309.100   30054.500   17367.300    7442.690    6219.710
      28.910   3540.1200    531.6250    11.33200   43055.600   28633.600   17748.100    6424.000    6038.620
      28.930   3730.5000    512.7500    11.29490   41578.600   28542.100   18525.900    5612.900    6003.950
      28.950   3425.6700    502.0000    11.34570   41664.300   29168.700   19035.700    5282.710    6183.480
      28.970   3575.7600    506.2500    11.37500   44343.800   29573.100   17950.500    5206.690    -999.000
      28.990   3142.1400    511.6250    11.34180   44028.900   28948.400   17006.900    5020.310    7930.390
      29.010   2799.7300    520.7500  -999.00000   41250.600   27842.600   16327.600    4822.330   10068.900
      29.030   3216.8900    522.3750    11.37300   40261.100   28098.800   15035.100    4649.280   11068.600
      29.050   3160.7300    512.5000    11.36520   40721.400   27887.700   13898.800    4454.710   11164.100
      29.070   3588.9300    508.3750    11.33200   41157.600   25551.500   13207.900    4586.580    -999.000
      29.090   3370.6600    515.1250    11.30860   39801.600   23549.600   12073.600    5168.200   11333.300
      29.110   3877.6900    525.1250  -999.00000   37991.700   22253.400   10328.300    5723.730   11620.500
      29.130   4411.6300    543.6250    11.32230   38354.200   20504.900    8750.920    5819.770   10436.600
      29.150   2960.0900    548.6250    11.27150   38086.800   18461.800    7638.700    5813.810   10611.200
      29.170   3320.5000    528.7500    11.31640   34853.300   16687.800    6879.370    6263.530   12756.200
