~VERSION INFORMATION SECTION
VERS.           2.0  :CWLS Log ASCII Standard - 2.0
WRAP.           NO   :One line per depth
#               Created in SeisLab
~WELL INFORMATION SECTION
#MNEM.UNIT  VALUE/NAME               :DESCRIPTION    
STRT.m  10                           :Start Depth    
STOP.m  124                          :Stop Depth     
STEP.m  0.01                         :Step           
NULL.    -999.25                     :Null Value     
WELL.    GDP1                        :Well Name      
CTRY.    Switzerland                 :Country        
CNTY.                                :County         
STAT.    Central Swiss Alps          :State          
API .                                :API number     
UWI .                                :Unique well ID 
LOC .    Grimsel pass, Switzerland   :Well Location  
FLD .    n/a                         :Field          
COMP.    n/a                         :Company        
SRVC.    University of Lausanne      :Service Company
DATE.    2015/2016                   :Date           
~PARAMETER INFORMATION SECTION
#MNEM .UNITS  VALUE   :DESCRIPTION OF PARAMETER
Casing.n/a    0       :open hole/cased hole    
~CURVE INFORMATION SECTION
#MNEM       .UNITS  API CODES   :DESCRIPTION OF MNEMONIC      
depth       .m                  :measured depth (interpolated)
BHR velocity.m/ns               :BHR velocity 2015            
BHR velocity.m/ns               :BHR velocity 2016            
~A depth       BHR_velocity BHR_velocity
# ...
     111.990     0.11616     0.11604
     112.000     0.11614     0.11604
     112.010     0.11611     0.11604
     112.020     0.11608     0.11598
     112.030     0.11604     0.11592
     112.040     0.11601     0.11586
     112.050     0.11597     0.11580
     112.060     0.11593     0.11574
     112.070     0.11588     0.11566
     112.080     0.11587     0.11558
     112.090     0.11586     0.11550
     112.100     0.11581     0.11542
     112.110     0.11576     0.11534
     112.120     0.11573     0.11528
     112.130     0.11570     0.11522
     112.140     0.11568     0.11516
     112.150     0.11567     0.11510
     112.160     0.11564     0.11504
     112.170     0.11560     0.11496
     112.180     0.11559     0.11489
     112.190     0.11558     0.11481
     112.200     0.11557     0.11473
     112.210     0.11556     0.11465
     112.220     0.11556     0.11465
     112.230     0.11556     0.11465
     112.240     0.11555     0.11465
     112.250     0.11553     0.11465
     112.260     0.11552     0.11465
     112.270     0.11551     0.11463
     112.280     0.11549     0.11461
     112.290     0.11547     0.11459
     112.300     0.11545     0.11457
     112.310     0.11544     0.11455
     112.320     0.11540     0.11461
     112.330     0.11535     0.11467
     112.340     0.11532     0.11473
     112.350     0.11528     0.11479
     112.360     0.11525     0.11485
     112.370     0.11521     0.11479
     112.380     0.11518     0.11473
     112.390     0.11515     0.11467
     112.400     0.11513     0.11461
     112.410     0.11512     0.11455
     112.420     0.11516     0.11455
     112.430     0.11519     0.11455
     112.440     0.11521     0.11455
     112.450     0.11524     0.11455
     112.460     0.11529     0.11455
     112.470     0.11535     0.11453
     112.480     0.11542     0.11451
     112.490     0.11549     0.11449
     112.500     0.11556     0.11447
     112.510     0.11563     0.11446
     112.520     0.11567     0.11440
     112.530     0.11572     0.11434
     112.540     0.11574     0.11428
     112.550     0.11576     0.11422
     112.560     0.11575     0.11416
     112.570     0.11574     0.11418
     112.580     0.11570     0.11420
     112.590     0.11565     0.11422
     112.600     0.11558     0.11424
     112.610     0.11551     0.11426
     112.620     0.11542     0.11422
     112.630     0.11533     0.11418
     112.640     0.11527     0.11414
     112.650     0.11521     0.11411
     112.660     0.11518     0.11407
     112.670     0.11515     0.11409
     112.680     0.11511     0.11411
     112.690     0.11508     0.11412
     112.700     0.11508     0.11414
     112.710     0.11508     0.11416
     112.720     0.11510     0.11405
     112.730     0.11512     0.11393
     112.740     0.11513     0.11382
     112.750     0.11515     0.11370
     112.760     0.11513     0.11358
     112.770     0.11512     0.11356
     112.780     0.11513     0.11355
     112.790     0.11515     0.11353
     112.800     0.11512     0.11351
     112.810     0.11510     0.11349
     112.820     0.11509     0.11347
     112.830     0.11508     0.11345
     112.840     0.11507     0.11343
     112.850     0.11505     0.11341
     112.860     0.11503     0.11339
     112.870     0.11501     0.11332
     112.880     0.11497     0.11324
     112.890     0.11494     0.11316
     112.900     0.11492     0.11309
     112.910     0.11490     0.11301
     112.920     0.11486     0.11299
     112.930     0.11483     0.11297
     112.940     0.11479     0.11295
     112.950     0.11476     0.11293
     112.960     0.11474     0.11292
     112.970     0.11471     0.11288
     112.980     0.11469     0.11284
     112.990     0.11467     0.11280
     113.000     0.11463     0.11276
     113.010     0.11460     0.11273
     113.020     0.11456     0.11276
     113.030     0.11451     0.11280
     113.040     0.11447     0.11284
     113.050     0.11442     0.11288
     113.060     0.11439     0.11292
     113.070     0.11435     0.11282
     113.080     0.11432     0.11273
     113.090     0.11428     0.11263
     113.100     0.11427     0.11254
     113.110     0.11426     0.11244
     113.120     0.11425     0.11244
     113.130     0.11424     0.11244
     113.140     0.11422     0.11244
     113.150     0.11420     0.11244
     113.160     0.11417     0.11244
     113.170     0.11415     0.11244
     113.180     0.11413     0.11244
     113.190     0.11411     0.11244
     113.200     0.11405     0.11244
     113.210     0.11399     0.11244
     113.220     0.11395     0.11237
     113.230     0.11390     0.11229
     113.240     0.11385     0.11222
     113.250     0.11379     0.11214
     113.260     0.11373     0.11207
     113.270     0.11366     0.11186
     113.280     0.11360     0.11166
     113.290     0.11355     0.11145
     113.300     0.11350     0.11125
     113.310     0.11346     0.11105
     113.320     0.11338     0.11105
     113.330     0.11330     0.11105
     113.340     0.11328     0.11105
     113.350     0.11326     0.11105
     113.360     0.11321     0.11105
     113.370     0.11315     0.11112
     113.380     0.11308     0.11120
     113.390     0.11302     0.11127
     113.400     0.11293     0.11134
     113.410     0.11284     0.11142
     113.420     0.11279     0.11134
     113.430     0.11273     0.11127
     113.440     0.11262     0.11120
     113.450     0.11251     0.11112
     113.460     0.11245     0.11105
     113.470     0.11238     0.11099
     113.480     0.11230     0.11094
     113.490     0.11221     0.11088
     113.500     0.11217     0.11083
     113.510     0.11212     0.11077
     113.520     0.11207     0.11092
     113.530     0.11202     0.11107
     113.540     0.11199     0.11121
     113.550     0.11197     0.11136
     113.560     0.11193     0.11151
     113.570     0.11189     0.11136
     113.580     0.11186     0.11121
     113.590     0.11184     0.11107
     113.600     0.11179     0.11092
     113.610     0.11174     0.11077
     113.620     0.11169     0.11072
     113.630     0.11165     0.11066
     113.640     0.11159     0.11061
     113.650     0.11152     0.11055
     113.660     0.11150     0.11050
     113.670     0.11148     0.11046
     113.680     0.11145     0.11043
     113.690     0.11141     0.11039
     113.700     0.11141     0.11035
     113.710     0.11141     0.11032
     113.720     0.11140     0.11028
     113.730     0.11139     0.11025
     113.740     0.11138     0.11021
     113.750     0.11137     0.11017
     113.760     0.11136     0.11014
     113.770     0.11135     0.11008
     113.780     0.11135     0.11003
     113.790     0.11135     0.10998
     113.800     0.11133     0.10992
     113.810     0.11131     0.10987
     113.820     0.11133     0.10983
     113.830     0.11135     0.10980
     113.840     0.11136     0.10976
     113.850     0.11137     0.10972
     113.860     0.11135     0.10969
     113.870     0.11133     0.10971
     113.880     0.11133     0.10972
     113.890     0.11133     0.10974
     113.900     0.11135     0.10976
     113.910     0.11137     0.10978
     113.920     0.11134     0.10983
     113.930     0.11131     0.10989
     113.940     0.11129     0.10994
     113.950     0.11127     0.10999
     113.960     0.11128     0.11005
     113.970     0.11129     0.11005
     113.980     0.11129     0.11005
     113.990     0.11129     0.11005
     114.000     0.11127     0.11005
     114.010     0.11124     0.11005
     114.020     0.11122     0.11005
     114.030     0.11120     0.11005
     114.040     0.11121     0.11005
     114.050     0.11122     0.11005
     114.060     0.11121     0.11005
     114.070     0.11120     0.11008
     114.080     0.11118     0.11012
     114.090     0.11116     0.11016
     114.100     0.11114     0.11019
     114.110     0.11112     0.11023
     114.120     0.11113     0.11019
     114.130     0.11114     0.11016
     114.140     0.11113     0.11012
     114.150     0.11112     0.11008
