~VERSION INFORMATION SECTION
VERS.           2.0  :CWLS Log ASCII Standard - 2.0
WRAP.           NO   :One line per depth
#               Created in SeisLab
~WELL INFORMATION SECTION
#MNEM.UNIT  VALUE/NAME               :DESCRIPTION    
STRT.m  10                           :Start Depth    
STOP.m  125                          :Stop Depth     
STEP.m  0.01                         :Step           
NULL.    -999.25                     :Null Value     
WELL.    GDP1                        :Well Name      
CTRY.    Switzerland                 :Country        
CNTY.                                :County         
STAT.    Central Swiss Alps          :State          
API .                                :API number     
UWI .                                :Unique well ID 
LOC .    Grimsel Pass, Switzerland   :Well Location  
FLD .    n/a                         :Field          
COMP.    n/a                         :Company        
SRVC.    University of Lausanne      :Service Company
DATE.    2017                        :Date           
~PARAMETER INFORMATION SECTION
#MNEM .UNITS  VALUE   :DESCRIPTION OF PARAMETER
Casing.n/a    1       :slotted PVC casing      
~CURVE INFORMATION SECTION
#MNEM.UNITS  API CODES   :DESCRIPTION OF MNEMONIC
depth.m                  :measured depth         
NG   .cps                :Natural gamma          
Sp   .mV                 :Self potential         
Temp .DegC               :Temperature            
SPR  .Ohm                :Single point resistance
R8   .Ohm.m              :Normal resistivity     
R16  .Ohm.m              :Single point resistance
R32  .Ohm.m              :Normal resistivity     
R64  .Ohm.m              :Normal resistivity     
~A depth       NG          Sp          Temp        SPR         R8          R16         R32         R64         
# ...
      87.700   239.48513   1010.0431     6.90137    4687.035     619.559     801.535     840.325    1052.697
      87.710   238.87943   1012.0901     6.90479    4705.937     621.186     803.773     838.440    1051.993
      87.720   238.48271   1014.1216     6.90820    4724.839     623.041     806.132     836.555    1051.289
      87.730   238.28378   1016.1353     6.90479    4743.741     625.152     808.622     836.107    1051.540
      87.740   238.26759   1018.1303     6.90137    4762.642     627.544     811.249     835.658    1051.792
      87.750   238.41576   1020.1063     6.90234    4781.544     630.241     814.020     834.675    1052.643
      87.760   238.70688   1022.0641     6.90332    4800.446     633.270     816.937     833.692    1053.495
      87.770   239.11662   1024.0047     6.89404    4819.348     636.651     820.002     831.710    1053.353
      87.780   239.61828   1025.9291     6.88477    4838.249     640.405     823.212     829.728    1053.211
      87.790   240.18392   1027.8384     6.88867    4857.151     644.551     826.563     827.058    1053.069
      87.800   240.78608   1029.7333     6.89258    4876.053     649.103     830.051     824.388    1052.927
      87.810   241.39961   1031.6139     6.89014    4894.955     654.075     833.668     825.332    1052.785
      87.820   242.00321   1033.4795     6.88770    4913.856     659.475     837.403     826.276    1052.643
      87.830   242.58030   1035.3288     6.88281    4932.758     665.310     841.247     828.529    1052.501
      87.840   243.11916   1037.1592     6.87793    4951.660     671.580     845.188     830.781    1052.359
      87.850   243.61208   1038.9675     6.88183    4970.562     678.285     849.213     832.794    1052.217
      87.860   244.05422   1040.7495     6.88574    4989.464     685.418     853.308     834.806    1052.075
      87.870   244.44237   1042.4998     6.90235    5008.365     692.971     857.460     835.247    1051.933
      87.880   244.77397   1044.2127     6.91895    5027.267     700.931     861.654     835.689    1051.791
      87.890   245.04637   1045.8816     6.91553    5046.169     709.280     865.877     837.105    1051.649
      87.900   245.25679   1047.4998     6.91211    5065.071     717.999     870.114     838.522    1051.507
      87.910   245.40277   1049.0602     6.91211    5083.972     727.065     923.275     840.673    1051.365
      87.920   245.48284   1050.5562     6.91211    5102.874     736.451     915.848     842.825    1051.224
      87.930   245.49675   1051.9816     6.90576    5121.776     746.130     907.353     842.129    1051.082
      87.940   245.44555   1053.3311     6.89941    5140.678     756.069     898.858     841.432    1050.940
      87.950   245.33173   1054.6007     6.90283    5159.579     766.237     889.469     839.446    1050.798
      87.960   245.15939   1055.7879     6.90625    5178.481     776.598     880.080     837.461    1050.656
      87.970   244.93447   1056.8923     6.90576    5197.383     787.118     870.187     837.001    1050.514
      87.980   244.66482   1057.9155     6.90527    5216.285     797.759     860.295     836.540    1050.372
      87.990   244.36037   1058.8615     6.90772    5235.186     866.371     850.562     837.268    1050.230
      88.000   244.03318   1059.7368     6.91016    5254.088     880.575     840.828     837.995    1050.088
      88.010   243.69705   1060.5501     6.90771    5272.990     897.058     833.239     836.745    1049.946
      88.020   243.36661   1061.3123     6.90527    5355.690     913.541     825.649     835.495    1049.804
      88.030   243.05607   1062.0355     6.90186    5448.955     929.351     819.825     835.251    1049.662
      88.040   242.77785   1062.7330     6.89844    5542.220     945.161     814.000     835.007    1049.520
      88.050   242.54155   1063.4179     6.90870    5640.605     958.865     812.715     837.117    1049.378
      88.060   242.35325   1064.1019     6.91895    5738.990     972.569     811.430     839.226    1049.236
      88.070   242.21536   1064.7946     6.90772    5819.240     984.187     814.639     839.408    1049.094
      88.080   242.12721   1065.5015     6.89648    5899.490     995.806     817.847     839.590    1048.952
      88.090   242.08657   1066.2239     6.90430    5947.215    1006.251     824.879     837.469    1048.810
      88.100   242.09145   1066.9568     6.91211    5994.940    1016.697     831.911     835.348    1048.668
      88.110   242.14181   1067.6894     6.91700    6006.435    1029.136     840.151     834.605    1048.527
      88.120   242.24022   1068.4040     6.92188    6017.930    1041.575     848.390     833.862    1048.385
      88.130   242.39154   1069.0772     6.90821    5993.670    1055.724     854.099     833.606    1048.243
      88.140   242.60150   1069.6803     6.89453    5969.410    1069.873     859.808     833.351    1048.101
      88.150   242.87498   1070.1806     6.90332    5927.650    1085.633     863.190     833.719    1047.959
      88.160   243.21449   1070.5435     6.91211    5885.890    1101.392     866.573     834.086    1047.817
      88.170   243.61941   1070.7335     6.90186    5855.720    1117.883     868.353     834.330    1047.675
      88.180   244.08590   1070.7164     6.89160    5825.550    1134.374     870.133     834.574    1047.533
      88.190   244.60724   1070.4609     6.89550    5835.795    1150.516     871.635     832.171    1047.391
      88.200   245.17462   1069.9402     6.89941    5846.040    1166.659     873.136     829.767    1047.249
      88.210   245.77822   1069.1330     6.89550    5921.495    1178.904     874.119     828.788    1047.107
      88.220   246.40822   1068.0248     6.89160    5996.950    1191.149     875.102     827.809    1046.965
      88.230   247.05546   1066.6086     6.89844    6127.605    1195.619     876.712     828.029    1046.823
      88.240   247.71172   1064.8854     6.90527    6258.260    1200.090     878.322     828.250    1046.681
      88.250   248.36982   1062.8649     6.91015    6427.180    1197.624     880.908     826.636    1046.539
      88.260   249.02365   1060.5655     6.91504    6596.100    1195.159     883.493     825.022    1046.397
      88.270   249.66791   1058.0143     6.91260    6763.630    1191.192     884.302     823.203    1046.255
      88.280   250.29779   1055.2465     6.91016    6931.160    1187.225     885.111     821.384    1046.113
      88.290   250.90869   1052.3053     6.91113    7115.305    1189.369     883.845     821.485    1045.971
      88.300   251.49613   1049.2406     6.91211    7299.450    1191.513     882.580     821.586    1045.830
      88.310   252.05581   1046.1079     6.90088    7457.100    1199.250     880.939     824.039    1045.688
      88.320   252.58369   1042.9667     6.88965    7614.750    1206.986     879.298     826.493    1045.546
      88.330   253.07587   1039.8790     6.90088    7590.260    1216.120     877.177     828.029    1045.404
      88.340   253.52831   1036.9072     6.91211    7565.770    1225.253     875.056     829.566    1045.262
      88.350   253.93644   1034.1125     6.90430    7425.285    1232.359     872.765     828.436    1045.120
      88.360   254.29500   1031.5529     6.89648    7284.800    1239.465     870.474     827.306    1044.978
      88.370   254.59814   1029.2816     6.90234    7109.005    1240.421     869.022     826.567    1044.836
      88.380   254.83998   1027.3454     6.90820    6933.210    1241.377     867.571     825.827    1044.694
      88.390   255.01552   1025.7841     6.91015    6728.895    1235.684     867.029     827.925    1047.798
      88.400   255.12176   1024.6284     6.91211    6524.580    1229.991     866.487     830.023    1050.902
      88.410   255.15867   1023.9001     6.90235    6379.245    1220.640     869.762     831.013    1058.212
      88.420   255.12955   1023.6102     6.89258    6233.910    1211.290     873.036     832.004    1065.523
      88.430   255.04079   1023.7596     6.89893    6166.570    1200.066     878.574     830.820    1062.087
